{
"type": "FeatureCollection",
"crs": { "type": "name", "properties": { "name": "urn:ogc:def:crs:OGC:1.3:CRS84" } },
"features": [
{ "type": "Feature", "properties": { "id": 0, "name": "100 Acre Brewing", "addr": "395 Ashburnham Drive", "phone": "(705) 243-2444", "web": "https://100acrebrewingco.com/", "index_s": null, "index_l": 0.0, "trek": "Bike" }, "geometry": { "type": "Point", "coordinates": [ -78.293531000001565, 44.28309390000279 ] } },
{ "type": "Feature", "properties": { "id": 1, "name": "1000 Islands Brewing Company", "addr": "65 King Street West", "phone": "(613) 342-3772", "web": "1000islandsbrewery.ca/", "index_s": null, "index_l": null, "trek": "Neither" }, "geometry": { "type": "Point", "coordinates": [ -75.684660500001399, 44.589084300002831 ] } },
{ "type": "Feature", "properties": { "id": 2, "name": "3 Brewers", "addr": "275 Yonge Street", "phone": "(647) 347-6286", "web": "https://www.les3brasseurs.ca/en/find-a-3-brasseurs/", "index_s": 0.0, "index_l": 0.0, "trek": "Bike and Transit" }, "geometry": { "type": "Point", "coordinates": [ -79.380443500001604, 43.655522100002791 ] } },
{ "type": "Feature", "properties": { "id": 3, "name": "3 Brewers", "addr": "565 Kanata Ave", "phone": "(613) 380-8190", "web": "https://www.les3brasseurs.ca/en/find-a-3-brasseurs/", "index_s": null, "index_l": 0.0, "trek": "Bike" }, "geometry": { "type": "Point", "coordinates": [ -75.908240700001414, 45.310066900002823 ] } },
{ "type": "Feature", "properties": { "id": 4, "name": "3 Brewers", "addr": "2041 Winston Park Drive", "phone": "(289) 813-2239", "web": "https://www.les3brasseurs.ca/en/find-a-3-brasseurs/", "index_s": null, "index_l": 0.0, "trek": "Bike" }, "geometry": { "type": "Point", "coordinates": [ -79.668625200001614, 43.508956200002793 ] } },
{ "type": "Feature", "properties": { "id": 5, "name": "3 Brewers", "addr": "240 Sparks Street, Local C215", "phone": "(613) 380-8140", "web": "https://www.les3brasseurs.ca/en/find-a-3-brasseurs/", "index_s": null, "index_l": 0.0, "trek": "Bike" }, "geometry": { "type": "Point", "coordinates": [ -75.702123100001401, 45.420396500002809 ] } },
{ "type": "Feature", "properties": { "id": 6, "name": "4 Degrees Brewing", "addr": "275 Brockville Street", "phone": "(613) 222-8213", "web": "http://4degreesbrewing.com", "index_s": null, "index_l": null, "trek": "Neither" }, "geometry": { "type": "Point", "coordinates": [ -76.015504600001435, 44.88237980000283 ] } },
{ "type": "Feature", "properties": { "id": 7, "name": "46 North Brewing Corporation", "addr": "1275 Kelly Lake Road, Unit 1", "phone": "(705) 586-1870", "web": "https://www.46north.ca/", "index_s": null, "index_l": 0.0, "trek": "Bike" }, "geometry": { "type": "Point", "coordinates": [ -81.03229790000168, 46.465565600002606 ] } },
{ "type": "Feature", "properties": { "id": 8, "name": "5 Paddles Brewing Company", "addr": "1390 Hopkins Street, Unit #3", "phone": "(905) 665-3042", "web": "https://www.5paddlesbrewing.ca", "index_s": null, "index_l": 0.0, "trek": "Bike" }, "geometry": { "type": "Point", "coordinates": [ -78.917713400001574, 43.871913500002798 ] } },
{ "type": "Feature", "properties": { "id": 9, "name": "555 Brewing", "addr": "124 Main Street", "phone": "(613) 476-5556", "web": "http://www.555beer.com/", "index_s": null, "index_l": null, "trek": "Neither" }, "geometry": { "type": "Point", "coordinates": [ -77.144157200001487, 44.005754900002849 ] } },
{ "type": "Feature", "properties": { "id": 10, "name": "762 Craft Brewers", "addr": "162 Russell Street", "phone": "(613) 473-5377", "web": "https://762craftbrewers.blogspot.com/2023/07/call-or-visit-us-today-162-russel-st.html", "index_s": null, "index_l": null, "trek": "Neither" }, "geometry": { "type": "Point", "coordinates": [ -77.475592700001513, 44.506963200002808 ] } },
{ "type": "Feature", "properties": { "id": 11, "name": "All My Friends Beer", "addr": "8 Stanley St, Unit 5", "phone": "(613) 393-9219", "web": "https://amfbeer.com/", "index_s": null, "index_l": null, "trek": "Neither" }, "geometry": { "type": "Point", "coordinates": [ -77.455967000001493, 43.974362000002827 ] } },
{ "type": "Feature", "properties": { "id": 12, "name": "All Or Nothing Brewhouse", "addr": "439 Ritson Road South", "phone": "(905) 337-0133", "web": "http://allornothing.beer/", "index_s": null, "index_l": null, "trek": "Neither" }, "geometry": { "type": "Point", "coordinates": [ -78.847842000001577, 43.888965700002778 ] } },
{ "type": "Feature", "properties": { "id": 13, "name": "Amber Brewery", "addr": "130 Riviera Drive #3", "phone": "(647) 889-6038", "web": "https://www.amberbrewery.com/", "index_s": null, "index_l": 0.0, "trek": "Bike" }, "geometry": { "type": "Point", "coordinates": [ -79.339955300001591, 43.833428000002769 ] } },
{ "type": "Feature", "properties": { "id": 14, "name": "Amsterdam Barrel House", "addr": "87 Laird Drive", "phone": "(416) 504-1060", "web": "http://www.amsterdambeer.com/", "index_s": null, "index_l": 0.0, "trek": "Bike" }, "geometry": { "type": "Point", "coordinates": [ -79.361460500001613, 43.706078000002798 ] } },
{ "type": "Feature", "properties": { "id": 15, "name": "Amsterdam Brewery", "addr": "45 Esandar Drive", "phone": "(416) 504-1040", "web": "http://www.amsterdambeer.com/", "index_s": null, "index_l": 0.0, "trek": "Bike" }, "geometry": { "type": "Point", "coordinates": [ -79.356939200001605, 43.706523700002805 ] } },
{ "type": "Feature", "properties": { "id": 16, "name": "Amsterdam Brewhouse", "addr": "247 Queens Quay W", "phone": "(416) 504-1020", "web": "http://www.amsterdambeer.com/", "index_s": 0.0, "index_l": 0.0, "trek": "Bike and Transit" }, "geometry": { "type": "Point", "coordinates": [ -79.385497800001602, 43.639115400002801 ] } },
{ "type": "Feature", "properties": { "id": 17, "name": "Anderson Craft Ales", "addr": "1030 Elias Street", "phone": "(548) 888-2537", "web": "http://andersoncraftales.ca", "index_s": null, "index_l": 0.0, "trek": "Bike" }, "geometry": { "type": "Point", "coordinates": [ -81.217486100001707, 42.998253100002778 ] } },
{ "type": "Feature", "properties": { "id": 18, "name": "Arbru", "addr": "71 Quabbin Road", "phone": "(613) 699-7258", "web": "https://www.arbrubeer.com/", "index_s": null, "index_l": null, "trek": "Neither" }, "geometry": { "type": "Point", "coordinates": [ -75.887504800001409, 44.480200500002852 ] } },
{ "type": "Feature", "properties": { "id": 19, "name": "Ashton Brewing Company", "addr": "113 Old Mill Road", "phone": "(613) 257-4423", "web": "http://ashtonbrewingcompany.com/", "index_s": null, "index_l": null, "trek": "Neither" }, "geometry": { "type": "Point", "coordinates": [ -76.033565700001432, 45.156672800002823 ] } },
{ "type": "Feature", "properties": { "id": 20, "name": "Avling Kitchen & Brewery", "addr": "1042 Queen Street East", "phone": "(416) 469-1010", "web": "https://www.avling.ca/", "index_s": null, "index_l": 0.0, "trek": "Bike" }, "geometry": { "type": "Point", "coordinates": [ -79.338265400001603, 43.661737200002797 ] } },
{ "type": "Feature", "properties": { "id": 21, "name": "Backyard Brewing & Supplies", "addr": "96 Norfolk Street South", "phone": "(226) 884-5191", "web": "https://www.backyardbrewing.ca/", "index_s": null, "index_l": null, "trek": "Neither" }, "geometry": { "type": "Point", "coordinates": [ -80.303710700001659, 42.834948900002807 ] } },
{ "type": "Feature", "properties": { "id": 22, "name": "Bad Apple Brewing Company", "addr": "73463 Bluewater Highway", "phone": "(519) 236-7908", "web": "https://badapplebrewingco.com/", "index_s": null, "index_l": null, "trek": "Neither" }, "geometry": { "type": "Point", "coordinates": [ -81.701989000001717, 43.44671500000274 ] } },
{ "type": "Feature", "properties": { "id": 23, "name": "Badlands Brewing Company", "addr": "13926 Chinguacousy Road", "phone": null, "web": "http://www.badlandsbrewing.ca/", "index_s": null, "index_l": null, "trek": "Neither" }, "geometry": { "type": "Point", "coordinates": [ -79.898209500001641, 43.751554000002763 ] } },
{ "type": "Feature", "properties": { "id": 24, "name": "Bancroft Brewing Company", "addr": "4 Hastings Street N", "phone": "(613) 334-8154", "web": "http://bancroftbrewing.ca", "index_s": null, "index_l": null, "trek": "Neither" }, "geometry": { "type": "Point", "coordinates": [ -77.854573300001533, 45.058376700002775 ] } },
{ "type": "Feature", "properties": { "id": 25, "name": "Banded Goose", "addr": "15 Main Street East", "phone": "(519) 733-6900", "web": "http://bandedgoosebrewing.com/", "index_s": null, "index_l": null, "trek": "Neither" }, "geometry": { "type": "Point", "coordinates": [ -82.73888330000176, 42.037799900002781 ] } },
{ "type": "Feature", "properties": { "id": 26, "name": "Bandit Brewery", "addr": "2125 Dundas Street West", "phone": "(647) 348-1002", "web": "http://banditbrewery.ca/", "index_s": 0.0, "index_l": 0.0, "trek": "Bike and Transit" }, "geometry": { "type": "Point", "coordinates": [ -79.449612100001616, 43.652451000002777 ] } },
{ "type": "Feature", "properties": { "id": 27, "name": "Banter And Co Brewing", "addr": "66 Baldwin Street, Suite 100", "phone": "(905) 493-6720", "web": "https://www.banterandcompany.com/", "index_s": null, "index_l": 0.0, "trek": "Bike" }, "geometry": { "type": "Point", "coordinates": [ -78.960699000001583, 43.957989800002778 ] } },
{ "type": "Feature", "properties": { "id": 28, "name": "Bar Volo", "addr": "17 St. Nicholas Street", "phone": "(416) 531-8818", "web": "https://barvolo.com/", "index_s": 0.0, "index_l": 0.0, "trek": "Bike and Transit" }, "geometry": { "type": "Point", "coordinates": [ -79.385535200001627, 43.665563400002789 ] } },
{ "type": "Feature", "properties": { "id": 29, "name": "Barnstormer Brewing And Distilling", "addr": "265 King Street North", "phone": "(705) 435-1700", "web": "https://barnstormerbrewing.com/", "index_s": null, "index_l": null, "trek": "Neither" }, "geometry": { "type": "Point", "coordinates": [ -79.880635600001639, 44.160886000002748 ] } },
{ "type": "Feature", "properties": { "id": 30, "name": "Barnstormer Brewing And Distilling", "addr": "384 Yonge Street", "phone": "(705) 481-1701", "web": "https://barnstormerbrewing.com/", "index_s": null, "index_l": 0.0, "trek": "Bike" }, "geometry": { "type": "Point", "coordinates": [ -79.663910600001614, 44.36682540000276 ] } },
{ "type": "Feature", "properties": { "id": 31, "name": "Barrel Heart Brewing", "addr": "104 King Street West", "phone": "(289) 808-6501", "web": "https://barrelheart.com/", "index_s": null, "index_l": 0.0, "trek": "Bike" }, "geometry": { "type": "Point", "coordinates": [ -79.958308500001635, 43.266443600002802 ] } },
{ "type": "Feature", "properties": { "id": 32, "name": "Bayfield Brewing Company Incorporated", "addr": "14 Bayfield Main Street N", "phone": "(519) 525-7880", "web": "https://bayfieldbrewingco.com/", "index_s": null, "index_l": null, "trek": "Neither" }, "geometry": { "type": "Point", "coordinates": [ -81.700085600001728, 43.564271700002742 ] } },
{ "type": "Feature", "properties": { "id": 33, "name": "Bayside Brewing", "addr": "970 Ross Lane", "phone": "(519) 676-1888", "web": "http://baysidebrewing.com/", "index_s": null, "index_l": null, "trek": "Neither" }, "geometry": { "type": "Point", "coordinates": [ -81.917271700001734, 42.261141400002778 ] } },
{ "type": "Feature", "properties": { "id": 34, "name": "Beaches Brewing Company", "addr": "1953 Queen Street East", "phone": "(647) 492-3224", "web": "https://beachesbrewing.com/", "index_s": null, "index_l": 0.0, "trek": "Bike" }, "geometry": { "type": "Point", "coordinates": [ -79.302319400001608, 43.66933240000278 ] } },
{ "type": "Feature", "properties": { "id": 35, "name": "Beau'S All Natural Brewing Company", "addr": "10 Terry Fox Dr.", "phone": "(866) 585-2337", "web": "https://beaus.ca/", "index_s": null, "index_l": null, "trek": "Neither" }, "geometry": { "type": "Point", "coordinates": [ -74.637231300001332, 45.516879800002812 ] } },
{ "type": "Feature", "properties": { "id": 36, "name": "Beerded Dog", "addr": "21 King Street East", "phone": "(226) 207-0448", "web": "https://www.beerdeddog.ca/", "index_s": null, "index_l": null, "trek": "Neither" }, "geometry": { "type": "Point", "coordinates": [ -82.917495500001777, 42.035300300002767 ] } },
{ "type": "Feature", "properties": { "id": 37, "name": "Beerlab!", "addr": "420 Talbot Street", "phone": "(519) 859-8853", "web": "https://www.beerlab.com/", "index_s": 0.0, "index_l": 0.0, "trek": "Bike and Transit" }, "geometry": { "type": "Point", "coordinates": [ -81.251815200001701, 42.983624100002785 ] } },
{ "type": "Feature", "properties": { "id": 38, "name": "Belgian Moon", "addr": "28 Bathurst Street", "phone": "416-384-9987", "web": "https://www.bluemooncanada.ca/en-CA", "index_s": null, "index_l": 0.0, "trek": "Bike" }, "geometry": { "type": "Point", "coordinates": [ -79.402170000001604, 43.640960000002785 ] } },
{ "type": "Feature", "properties": { "id": 39, "name": "Belle River Brewhouse", "addr": "499 Notre Dame Street", "phone": "(519) 715-9553", "web": "https://www.facebook.com/BelleRiverBrew/", "index_s": null, "index_l": null, "trek": "Neither" }, "geometry": { "type": "Point", "coordinates": [ -82.706026000001756, 42.293285900002772 ] } },
{ "type": "Feature", "properties": { "id": 40, "name": "Bellwoods Brewing - Hafis", "addr": "20 Hafis Rd", "phone": "416.535.4586", "web": "http://www.bellwoodsbrewery.com/", "index_s": null, "index_l": null, "trek": "Neither" }, "geometry": { "type": "Point", "coordinates": [ -79.469373400001615, 43.706758200002788 ] } },
{ "type": "Feature", "properties": { "id": 41, "name": "Bellwoods Brewing - Ossington", "addr": "124 Ossington", "phone": "416.535.4586", "web": "http://www.bellwoodsbrewery.com/", "index_s": null, "index_l": 0.0, "trek": "Bike" }, "geometry": { "type": "Point", "coordinates": [ -79.420161700001614, 43.64706530000278 ] } },
{ "type": "Feature", "properties": { "id": 42, "name": "Belmont Lake Brewery", "addr": "54 FR17", "phone": "(705) 803-3001", "web": "belmontlakebrewery.com", "index_s": null, "index_l": null, "trek": "Neither" }, "geometry": { "type": "Point", "coordinates": [ -78.631534000001565, 45.290103700002732 ] } },
{ "type": "Feature", "properties": { "id": 43, "name": "Bench Brewing Company", "addr": "3991 King Street", "phone": "(905) 562-3991", "web": "https://benchbrewing.com/", "index_s": null, "index_l": null, "trek": "Neither" }, "geometry": { "type": "Point", "coordinates": [ -79.423830600001622, 43.15845550000283 ] } },
{ "type": "Feature", "properties": { "id": 44, "name": "Beyond The Pale Brewing Company", "addr": "21 George Street", "phone": "(613) 789-8787", "web": "https://btpshop.ca/", "index_s": null, "index_l": 0.0, "trek": "Bike" }, "geometry": { "type": "Point", "coordinates": [ -75.6938551000014, 45.426834800002808 ] } },
{ "type": "Feature", "properties": { "id": 45, "name": "Beyond The Pale Brewing Company", "addr": "250 City Centre Ave Bay 106", "phone": "(613) 695-2991", "web": "https://btpshop.ca/", "index_s": null, "index_l": 0.0, "trek": "Bike" }, "geometry": { "type": "Point", "coordinates": [ -75.718492000001419, 45.407762000002819 ] } },
{ "type": "Feature", "properties": { "id": 46, "name": "Bickford Brewing Co", "addr": "292A Harbord Street", "phone": null, "web": "https://bickfordbrewing.ca/", "index_s": 0.0, "index_l": 0.0, "trek": "Bike and Transit" }, "geometry": { "type": "Point", "coordinates": [ -79.415184800001626, 43.6605305000028 ] } },
{ "type": "Feature", "properties": { "id": 47, "name": "Bicycle Craft Brewing", "addr": "850 Industrial Ave, Unit 12", "phone": "(613) 733-2337", "web": "http://www.bicyclecraftbrewery.ca", "index_s": null, "index_l": 0.0, "trek": "Bike" }, "geometry": { "type": "Point", "coordinates": [ -75.632279900001393, 45.406591000002805 ] } },
{ "type": "Feature", "properties": { "id": 48, "name": "Big Rig Brewery", "addr": "1980 Ogilvie Road", "phone": "(613) 552-3336", "web": "http://bigrigbrew.com/ogilvie-restaurant/", "index_s": null, "index_l": 0.0, "trek": "Bike" }, "geometry": { "type": "Point", "coordinates": [ -75.610817300001401, 45.431611400002829 ] } },
{ "type": "Feature", "properties": { "id": 49, "name": "Big Rig Brewery", "addr": "103 Schneider Road", "phone": "(613) 591.6262", "web": "https://bigrigbrew.com/", "index_s": null, "index_l": 0.0, "trek": "Bike" }, "geometry": { "type": "Point", "coordinates": [ -75.901204400001404, 45.339635000002794 ] } },
{ "type": "Feature", "properties": { "id": 50, "name": "Big Rig Brewery", "addr": "2750 Iris Street", "phone": "(613) 688-3336", "web": "http://bigrigbrew.com/locations/iris-restaurant/", "index_s": null, "index_l": 0.0, "trek": "Bike" }, "geometry": { "type": "Point", "coordinates": [ -75.787123700001416, 45.347521500002799 ] } },
{ "type": "Feature", "properties": { "id": 51, "name": "Black Bellows Brewing Company", "addr": "40 Simcoe Street", "phone": "(705) 532-1569", "web": "https://www.blackbellows.com/", "index_s": null, "index_l": null, "trek": "Neither" }, "geometry": { "type": "Point", "coordinates": [ -80.215772400001669, 44.500827000002722 ] } },
{ "type": "Feature", "properties": { "id": 52, "name": "Black Donnellys", "addr": "2740 Rd 164", "phone": "(519) 229-6336", "web": "https://black-donnellys.com/", "index_s": null, "index_l": null, "trek": "Neither" }, "geometry": { "type": "Point", "coordinates": [ -81.268877500001707, 43.377718200002754 ] } },
{ "type": "Feature", "properties": { "id": 53, "name": "Black Gold Brewery", "addr": "395 Fletcher Street", "phone": "(226) 738-0665", "web": "http://blackgold.beer/", "index_s": null, "index_l": null, "trek": "Neither" }, "geometry": { "type": "Point", "coordinates": [ -82.146948400001747, 42.882436500002747 ] } },
{ "type": "Feature", "properties": { "id": 54, "name": "Black Lab Brewing", "addr": "818 Eastern Avenue", "phone": "(647) 352-2525", "web": "http://www.blacklab.beer/", "index_s": null, "index_l": 0.0, "trek": "Bike" }, "geometry": { "type": "Point", "coordinates": [ -79.329070000001607, 43.661887100002794 ] } },
{ "type": "Feature", "properties": { "id": 55, "name": "Black Swan Brewing Company", "addr": "144 Downie Street", "phone": "(519) 814-7926", "web": "http://blackswanbrewing.ca/", "index_s": null, "index_l": null, "trek": "Neither" }, "geometry": { "type": "Point", "coordinates": [ -80.981068100001679, 43.368201600002763 ] } },
{ "type": "Feature", "properties": { "id": 56, "name": "Blackburn Brew House", "addr": "8001 Blackburn Parkway", "phone": "(905) 358-0801", "web": "https://www.blackburnbrewhouse.com/", "index_s": null, "index_l": 0.0, "trek": "Bike" }, "geometry": { "type": "Point", "coordinates": [ -79.130345700001598, 43.054995300002815 ] } },
{ "type": "Feature", "properties": { "id": 57, "name": "Block Three Brewing Company", "addr": "1430-2 King Street North", "phone": "(519) 664-1001", "web": "https://blockthreebottleshop.com/", "index_s": 0.0, "index_l": 0.0, "trek": "Bike and Transit" }, "geometry": { "type": "Point", "coordinates": [ -80.522666400001654, 43.467153100002797 ] } },
{ "type": "Feature", "properties": { "id": 58, "name": "Blood Brothers Brewing", "addr": "165 Geary Avenue", "phone": "(647) 628.6062", "web": "http://www.bloodbrothersbrewing.com/", "index_s": null, "index_l": 0.0, "trek": "Bike" }, "geometry": { "type": "Point", "coordinates": [ -79.436187100001604, 43.669859500002794 ] } },
{ "type": "Feature", "properties": { "id": 60, "name": "Bobcaygeon Brewing Company", "addr": "649 The Parkway Unit 4", "phone": "(705) 243-7077", "web": "https://bobcaygeonbrewing.ca/", "index_s": null, "index_l": 0.0, "trek": "Bike" }, "geometry": { "type": "Point", "coordinates": [ -78.341297600001539, 44.275270100002807 ] } },
{ "type": "Feature", "properties": { "id": 61, "name": "Boshkung Brewing Company", "addr": "20 Water STreet", "phone": "(705) 286-2711", "web": "http://boshkungbrewing.com/", "index_s": null, "index_l": null, "trek": "Neither" }, "geometry": { "type": "Point", "coordinates": [ -78.723333200001562, 44.926831100002751 ] } },
{ "type": "Feature", "properties": { "id": 62, "name": "Braumeister Bierhalle", "addr": "175 Carruthers Ave", "phone": "(613) 680-2337", "web": "http://www.braumeister.ca/", "index_s": null, "index_l": 0.0, "trek": "Bike" }, "geometry": { "type": "Point", "coordinates": [ -75.728741700001407, 45.405770900002821 ] } },
{ "type": "Feature", "properties": { "id": 63, "name": "Braumeister Brewing Company Inc", "addr": "19 Moore Street", "phone": "(613) 492-2337", "web": "http://www.braumeister.ca/", "index_s": null, "index_l": null, "trek": "Neither" }, "geometry": { "type": "Point", "coordinates": [ -76.140867700001436, 45.136918700002802 ] } },
{ "type": "Feature", "properties": { "id": 64, "name": "Brauwerk Hoffman Rockland", "addr": "733 rue industrielle, unite 5", "phone": "(613) 446-4244", "web": "https://brauwerkhoffman.ca/", "index_s": null, "index_l": null, "trek": "Neither" }, "geometry": { "type": "Point", "coordinates": [ -75.274473200001381, 45.558828400002803 ] } },
{ "type": "Feature", "properties": { "id": 65, "name": "Breakwall Brewing Company", "addr": "46 Clarence Street", "phone": "(289) 836-8181", "web": "https://www.breakwallbrewery.ca/", "index_s": null, "index_l": null, "trek": "Neither" }, "geometry": { "type": "Point", "coordinates": [ -79.251851500001607, 42.886124400002835 ] } },
{ "type": "Feature", "properties": { "id": 66, "name": "Brew", "addr": "1241 South Malden Road", "phone": "(519) 995-4898", "web": "https://brewwindsor.com/", "index_s": null, "index_l": null, "trek": "Neither" }, "geometry": { "type": "Point", "coordinates": [ -82.948251800001771, 42.096934200002764 ] } },
{ "type": "Feature", "properties": { "id": 67, "name": "Brew Revolution", "addr": "6081 Hazeldean Road", "phone": "(613) 672-2739", "web": "https://brewrevolution.ca/", "index_s": null, "index_l": 0.0, "trek": "Bike" }, "geometry": { "type": "Point", "coordinates": [ -75.932632900001423, 45.272614700002791 ] } },
{ "type": "Feature", "properties": { "id": 68, "name": "Brewers Blackbird", "addr": "375 Wilson Street East", "phone": "(905) 648-8863", "web": "https://www.brewersblackbird.com/", "index_s": null, "index_l": 0.0, "trek": "Bike" }, "geometry": { "type": "Point", "coordinates": [ -79.976134500001649, 43.227881500002788 ] } },
{ "type": "Feature", "properties": { "id": 69, "name": "Bridgemasters Brewing Company", "addr": "29 Beckwith Street East", "phone": "(613) 201-2337", "web": "https://www.bridgemastersbrewing.com/", "index_s": null, "index_l": null, "trek": "Neither" }, "geometry": { "type": "Point", "coordinates": [ -76.24613980000143, 44.901489600002805 ] } },
{ "type": "Feature", "properties": { "id": 70, "name": "Bridgewater Brewery", "addr": "60 Niagara Street", "phone": "(905) 714-7467", "web": "https://bridgewaterbrewery.ca/", "index_s": null, "index_l": null, "trek": "Neither" }, "geometry": { "type": "Point", "coordinates": [ -79.252203100001609, 42.992810500002825 ] } },
{ "type": "Feature", "properties": { "id": 71, "name": "Brimstone Brewing Company", "addr": "209 Ridge Road N", "phone": "(647) 273-4194", "web": "http://www.brimstonebrewing.ca", "index_s": null, "index_l": null, "trek": "Neither" }, "geometry": { "type": "Point", "coordinates": [ -79.052190900001591, 42.880579600002839 ] } },
{ "type": "Feature", "properties": { "id": 72, "name": "Broadhead Brewing Company", "addr": "106-1680 Vimont Ct", "phone": "(613) 695-9444", "web": "http://broadheadbeer.com/", "index_s": null, "index_l": 0.0, "trek": "Bike" }, "geometry": { "type": "Point", "coordinates": [ -75.484401800001407, 45.489593600002799 ] } },
{ "type": "Feature", "properties": { "id": 73, "name": "Brock Street Brewing Company", "addr": "244 Brock Street South", "phone": "(833) 276-2578", "web": "https://brockstreetbrewing.com/", "index_s": null, "index_l": 0.0, "trek": "Bike" }, "geometry": { "type": "Point", "coordinates": [ -78.941678900001591, 43.877836900002798 ] } },
{ "type": "Feature", "properties": { "id": 74, "name": "Broken Rail Brewing", "addr": "480 Glass Street", "phone": "(226) 301-4677", "web": "https://www.brokenrailbrewing.ca/", "index_s": null, "index_l": null, "trek": "Neither" }, "geometry": { "type": "Point", "coordinates": [ -81.131401500001701, 43.271804800002755 ] } },
{ "type": "Feature", "properties": { "id": 75, "name": "Broken Stick Brewing Company", "addr": "600 Golf Road", "phone": "(613) 488-3254", "web": "http://www.brokenstickbrewing.com/", "index_s": null, "index_l": null, "trek": "Neither" }, "geometry": { "type": "Point", "coordinates": [ -75.263336100001396, 45.550041100002794 ] } },
{ "type": "Feature", "properties": { "id": 76, "name": "Brookston Oaks", "addr": "1578 South Malden Road", "phone": "(519) 990-1634", "web": "https://brookstonoaks.ca/", "index_s": null, "index_l": null, "trek": "Neither" }, "geometry": { "type": "Point", "coordinates": [ -82.889703800001783, 42.112427700002769 ] } },
{ "type": "Feature", "properties": { "id": 77, "name": "Brothers Brewing Company", "addr": "15 Wyndham Street North", "phone": "(226) 790-3767?", "web": "http://www.brothersbrewingcompany.ca", "index_s": 0.0, "index_l": 0.0, "trek": "Bike and Transit" }, "geometry": { "type": "Point", "coordinates": [ -80.248169900001656, 43.545108900002759 ] } },
{ "type": "Feature", "properties": { "id": 78, "name": "Brunswick Bierworks", "addr": "25 Curity Avenue", "phone": "(416) 285-1269", "web": "http://www.brunswickbierworks.com/", "index_s": null, "index_l": 0.0, "trek": "Bike" }, "geometry": { "type": "Point", "coordinates": [ -79.316841500001601, 43.710133500002783 ] } },
{ "type": "Feature", "properties": { "id": 79, "name": "Burdock", "addr": "1184 Bloor Street West", "phone": "(416) 546-4033", "web": "http://burdockto.com", "index_s": 0.0, "index_l": 0.0, "trek": "Bike and Transit" }, "geometry": { "type": "Point", "coordinates": [ -79.437935900001619, 43.659654900002799 ] } },
{ "type": "Feature", "properties": { "id": 80, "name": "Burdock Kensington", "addr": "6 Denison Square", "phone": "(416) 596-9981", "web": "http://burdockto.com", "index_s": null, "index_l": 0.0, "trek": "Bike" }, "geometry": { "type": "Point", "coordinates": [ -79.4021605000016, 43.653872200002809 ] } },
{ "type": "Feature", "properties": { "id": 81, "name": "Burlington Brewery", "addr": "3600 Dundas Street, G101", "phone": "(289) 245-1134", "web": "https://www.burlingtoncraft.com/", "index_s": null, "index_l": 0.0, "trek": "Bike" }, "geometry": { "type": "Point", "coordinates": [ -79.823532500001619, 43.391542100002788 ] } },
{ "type": "Feature", "properties": { "id": 82, "name": "Calabogie Brewing Company", "addr": "12612 Lanark Road", "phone": "(613) 752-2739", "web": "https://calabogiebrewing.com/", "index_s": null, "index_l": null, "trek": "Neither" }, "geometry": { "type": "Point", "coordinates": [ -76.721954600001453, 45.3000319000028 ] } },
{ "type": "Feature", "properties": { "id": 83, "name": "Calabogie Brewing Company - Kanata", "addr": "105 Schneider Road", "phone": "(613) 608-2739", "web": "https://calabogiebrewing.com/", "index_s": null, "index_l": 0.0, "trek": "Bike" }, "geometry": { "type": "Point", "coordinates": [ -75.902647900001426, 45.3410662000028 ] } },
{ "type": "Feature", "properties": { "id": 84, "name": "Caledon Hills Brewing Company", "addr": "17219 Hwy 50", "phone": "(416) 523-7839", "web": "https://www.caledonhillsbrewing.com/", "index_s": null, "index_l": null, "trek": "Neither" }, "geometry": { "type": "Point", "coordinates": [ -79.836634600001616, 43.950674100002757 ] } },
{ "type": "Feature", "properties": { "id": 85, "name": "Camerons Brewing Company", "addr": "1165 Invicta Road", "phone": "(905) 849-8282", "web": "http://www.cameronsbrewing.com", "index_s": null, "index_l": 0.0, "trek": "Bike" }, "geometry": { "type": "Point", "coordinates": [ -79.676683300001628, 43.474748000002798 ] } },
{ "type": "Feature", "properties": { "id": 86, "name": "Canadian Distribution Channel Inc", "addr": "636 Queensway Court", "phone": "(705) 750-0662", "web": "https://www.persianempire1.com/", "index_s": null, "index_l": 0.0, "trek": "Bike" }, "geometry": { "type": "Point", "coordinates": [ -78.337176900001566, 44.275641200002781 ] } },
{ "type": "Feature", "properties": { "id": 87, "name": "Canvas Brewing Company Inc", "addr": "12 John Street", "phone": "(705) 784-2080", "web": "https://canvasbrewing.com/", "index_s": null, "index_l": null, "trek": "Neither" }, "geometry": { "type": "Point", "coordinates": [ -79.214473800001599, 45.328832200002701 ] } },
{ "type": "Feature", "properties": { "id": 88, "name": "Caps Off Brewing Co", "addr": "168 Curtis Street", "phone": "(519) 280-3244", "web": "https://capsoffbrewing.com/", "index_s": null, "index_l": null, "trek": "Neither" }, "geometry": { "type": "Point", "coordinates": [ -81.191712700001702, 42.77949250000281 ] } },
{ "type": "Feature", "properties": { "id": 89, "name": "Cartwright Springs Brewery", "addr": "239 Deer Run Road", "phone": "(613) 295-3377", "web": "http://csbeer.ca/", "index_s": null, "index_l": null, "trek": "Neither" }, "geometry": { "type": "Point", "coordinates": [ -76.344622000001436, 45.347512000002759 ] } },
{ "type": "Feature", "properties": { "id": 90, "name": "Cecil'S Brewhouse & Kitchen", "addr": "300 Wyld Street", "phone": "(705) 472-7510", "web": "http://www.cecils.ca/", "index_s": null, "index_l": null, "trek": "Neither" }, "geometry": { "type": "Point", "coordinates": [ -79.462630400001601, 46.309169400002631 ] } },
{ "type": "Feature", "properties": { "id": 91, "name": "Ceeps Brewpub", "addr": "671 Richmond Street", "phone": "(519) 432-1425", "web": "http://www.ceeps.com/", "index_s": null, "index_l": 0.0, "trek": "Bike" }, "geometry": { "type": "Point", "coordinates": [ -81.252141400001705, 42.992460700002781 ] } },
{ "type": "Feature", "properties": { "id": 92, "name": "Chapter Two Brewing", "addr": "2345 Edna Street", "phone": "(519) 915-3118", "web": "http://www.chaptertwobrewing.com/", "index_s": null, "index_l": 0.0, "trek": "Bike" }, "geometry": { "type": "Point", "coordinates": [ -83.006509900001774, 42.321836900002751 ] } },
{ "type": "Feature", "properties": { "id": 93, "name": "Charlotteville Brewing Company", "addr": "1207 Charlotteville West 1/4 line road", "phone": "(519) 619-7868", "web": "https://charlottevillebrewingcompany.ca/", "index_s": null, "index_l": null, "trek": "Neither" }, "geometry": { "type": "Point", "coordinates": [ -80.429544500001654, 42.750625800002801 ] } },
{ "type": "Feature", "properties": { "id": 94, "name": "Cheetah International Brewers", "addr": "12-75 Milliken Road", "phone": "(416) 292-3434", "web": "http://www.cheetahbeer.com/", "index_s": null, "index_l": 0.0, "trek": "Bike" }, "geometry": { "type": "Point", "coordinates": [ -79.295568000001595, 43.8074851000028 ] } },
{ "type": "Feature", "properties": { "id": 95, "name": "Chronicle Brewing Company", "addr": "Unit 3- 422 Lake Road", "phone": "(905) 697-7722", "web": "https://www.chroniclebeer.com/", "index_s": null, "index_l": null, "trek": "Neither" }, "geometry": { "type": "Point", "coordinates": [ -78.659396800001559, 43.898407700002821 ] } },
{ "type": "Feature", "properties": { "id": 96, "name": "Church Key Brewing", "addr": "1678 County Road #38", "phone": "(705) 653-9950", "web": "https://churchkeybrewing.com/", "index_s": null, "index_l": null, "trek": "Neither" }, "geometry": { "type": "Point", "coordinates": [ -77.735506400001526, 44.353749100002801 ] } },
{ "type": "Feature", "properties": { "id": 97, "name": "Clear Lake Brewing Company", "addr": "4651 Southwood Road", "phone": "(705) 762-0234", "web": "https://muskokabeerspa.com/", "index_s": null, "index_l": null, "trek": "Neither" }, "geometry": { "type": "Point", "coordinates": [ -79.571277300001611, 44.990180600002731 ] } },
{ "type": "Feature", "properties": { "id": 98, "name": "Clifford Brewing Company", "addr": "398 Nash Road North", "phone": "(905) 560-5444", "web": "http://cliffordbrewing.com/", "index_s": null, "index_l": 0.0, "trek": "Bike" }, "geometry": { "type": "Point", "coordinates": [ -79.767239700001625, 43.242483300002817 ] } },
{ "type": "Feature", "properties": { "id": 99, "name": "Clock Tower Brewpub", "addr": "418 Richmond Road", "phone": "(343) 588-1562", "web": "http://clocktower.ca/", "index_s": null, "index_l": 0.0, "trek": "Bike" }, "geometry": { "type": "Point", "coordinates": [ -75.757458200001409, 45.39004850000282 ] } },
{ "type": "Feature", "properties": { "id": 100, "name": "Clock Tower Brewpub", "addr": "422 MacKay Street", "phone": "(613) 742-3169", "web": "http://clocktower.ca/", "index_s": null, "index_l": 0.0, "trek": "Bike" }, "geometry": { "type": "Point", "coordinates": [ -75.677087000001393, 45.439610700002824 ] } },
{ "type": "Feature", "properties": { "id": 101, "name": "Clock Tower Brewpub", "addr": "140 Rideau Street", "phone": "(613) 562.4878", "web": "http://clocktower.ca/", "index_s": null, "index_l": 0.0, "trek": "Bike" }, "geometry": { "type": "Point", "coordinates": [ -75.690258800001402, 45.426578000002799 ] } },
{ "type": "Feature", "properties": { "id": 102, "name": "Cold Bear Brewing Co Ltd", "addr": "100 Madawaska blvd", "phone": "(519) 362-1979", "web": "https://coldbear.ca/", "index_s": null, "index_l": null, "trek": "Neither" }, "geometry": { "type": "Point", "coordinates": [ -76.345772400001437, 45.434383900002786 ] } },
{ "type": "Feature", "properties": { "id": 103, "name": "Cold Break Brewing", "addr": "193 St. Paul Street West", "phone": "(289) 501-0638", "web": "https://coldbreak.ca/", "index_s": 0.0, "index_l": null, "trek": "Transit" }, "geometry": { "type": "Point", "coordinates": [ -79.255730900001595, 43.14623070000281 ] } },
{ "type": "Feature", "properties": { "id": 104, "name": "Cold Springs Brewing", "addr": "4242 Canning Road", "phone": "(416) 720-1041", "web": "https://coldspringsbrewery.ca/", "index_s": null, "index_l": null, "trek": "Neither" }, "geometry": { "type": "Point", "coordinates": [ -78.239601500001541, 44.069025100002804 ] } },
{ "type": "Feature", "properties": { "id": 105, "name": "Collective Arts Brewing", "addr": "207 Burlington Street East", "phone": "(289) 426-2374", "web": "http://collectiveartsbrewing.com/", "index_s": null, "index_l": 0.0, "trek": "Bike" }, "geometry": { "type": "Point", "coordinates": [ -79.852957000001652, 43.271182400002793 ] } },
{ "type": "Feature", "properties": { "id": 106, "name": "Collective Arts Toronto", "addr": "777 Dundas Street West", "phone": null, "web": "http://collectiveartsbrewing.com/", "index_s": null, "index_l": 0.0, "trek": "Bike" }, "geometry": { "type": "Point", "coordinates": [ -79.407305500001613, 43.651844600002804 ] } },
{ "type": "Feature", "properties": { "id": 107, "name": "Collingwood Brewery", "addr": "10 Sandford Fleming Drive", "phone": "(705) 444-2337", "web": "http://www.thecollingwoodbrewery.com/", "index_s": null, "index_l": null, "trek": "Neither" }, "geometry": { "type": "Point", "coordinates": [ -80.182177500001657, 44.491292600002737 ] } },
{ "type": "Feature", "properties": { "id": 108, "name": "Common Good Beer Company", "addr": "475 Ellesmere Road", "phone": "(416) 639-6579", "web": "http://commongoodbeer.com", "index_s": null, "index_l": null, "trek": "Neither" }, "geometry": { "type": "Point", "coordinates": [ -79.295754400001613, 43.761703200002785 ] } },
{ "type": "Feature", "properties": { "id": 109, "name": "Concession Road Brewing Company Ltd", "addr": "17-4 Talbot Street East", "phone": "(905) 928-5880", "web": "https://www.concessionroadbrew.com/", "index_s": null, "index_l": null, "trek": "Neither" }, "geometry": { "type": "Point", "coordinates": [ -79.855220300001633, 42.950630900002821 ] } },
{ "type": "Feature", "properties": { "id": 110, "name": "Conspiracy Theory Brewing", "addr": "2172 Robertson Road", "phone": "(613) 796-8882", "web": "http://www.ctbrewing.ca/", "index_s": null, "index_l": 0.0, "trek": "Bike" }, "geometry": { "type": "Point", "coordinates": [ -75.839175200001421, 45.319045600002816 ] } },
{ "type": "Feature", "properties": { "id": 111, "name": "Cool Beer Brewing", "addr": "164 Evans Avenue", "phone": "(416) 255-7100", "web": "http://coolbeer.com", "index_s": null, "index_l": 0.0, "trek": "Bike" }, "geometry": { "type": "Point", "coordinates": [ -79.510673500001616, 43.619255200002804 ] } },
{ "type": "Feature", "properties": { "id": 112, "name": "Copperworks Brewpub And Restaurant", "addr": "7 Division Street", "phone": "(905) 697-4022", "web": "https://copperworkspub.com/", "index_s": null, "index_l": null, "trek": "Neither" }, "geometry": { "type": "Point", "coordinates": [ -78.687755400001564, 43.911062400002812 ] } },
{ "type": "Feature", "properties": { "id": 113, "name": "Couchiching Craft Brewing Co.", "addr": "162 Mississaga Street East", "phone": "(705) 558-2337", "web": "https://couchichingbrewing.com/", "index_s": null, "index_l": null, "trek": "Neither" }, "geometry": { "type": "Point", "coordinates": [ -79.415630800001608, 44.61017070000274 ] } },
{ "type": "Feature", "properties": { "id": 114, "name": "Counterpart Brewing", "addr": "3659 Stanley Avenue Unit 8", "phone": "(289) 686-1028", "web": "https://counterpartbrewing.com/", "index_s": null, "index_l": 0.0, "trek": "Bike" }, "geometry": { "type": "Point", "coordinates": [ -79.087103100001585, 43.120057100002818 ] } },
{ "type": "Feature", "properties": { "id": 115, "name": "Counterpoint Brewing Company", "addr": "4-935 Frederick Street", "phone": "(226) 507-4274", "web": "https://counterpointbrewing.ca/", "index_s": null, "index_l": 0.0, "trek": "Bike" }, "geometry": { "type": "Point", "coordinates": [ -80.456618000001669, 43.465999500002788 ] } },
{ "type": "Feature", "properties": { "id": 116, "name": "Cowbell Brewing Company", "addr": "40035 Blyth Road", "phone": "(844) 523-4724", "web": "https://cowbellbrewing.com/", "index_s": null, "index_l": null, "trek": "Neither" }, "geometry": { "type": "Point", "coordinates": [ -81.433421000001715, 43.730377000002733 ] } },
{ "type": "Feature", "properties": { "id": 117, "name": "Craft Heads Brewing Company", "addr": "89 University Avenue W", "phone": "(226) 246-3925", "web": "http://www.craftheads.ca/", "index_s": null, "index_l": 0.0, "trek": "Bike" }, "geometry": { "type": "Point", "coordinates": [ -83.039703800001803, 42.317193100002754 ] } },
{ "type": "Feature", "properties": { "id": 118, "name": "Creemore Springs Brewery", "addr": "139 Mill Street", "phone": "(844) 887-3022", "web": "http://www.creemoresprings.com", "index_s": null, "index_l": null, "trek": "Neither" }, "geometry": { "type": "Point", "coordinates": [ -80.105329700001647, 44.324961200002747 ] } },
{ "type": "Feature", "properties": { "id": 119, "name": "Cured Craft Brewing", "addr": "43 Mill Street West", "phone": "(519) 419-3822", "web": "https://www.curedcraftbrewing.com/", "index_s": null, "index_l": null, "trek": "Neither" }, "geometry": { "type": "Point", "coordinates": [ -82.601465400001771, 42.052379200002783 ] } },
{ "type": "Feature", "properties": { "id": 120, "name": "Daft Brewing", "addr": "768 Princess Street", "phone": "(343) 477-0289", "web": "https://daftbrewing.com/", "index_s": null, "index_l": 0.0, "trek": "Bike" }, "geometry": { "type": "Point", "coordinates": [ -76.506249000001446, 44.238639500002847 ] } },
{ "type": "Feature", "properties": { "id": 121, "name": "Dawson Trail Craft Brewery", "addr": "1181 Golf Links Road", "phone": "(807) 623-2337", "web": "http://dawsontrailcraftbrewery.com/", "index_s": null, "index_l": null, "trek": "Neither" }, "geometry": { "type": "Point", "coordinates": [ -89.275357600001968, 48.41911120000217 ] } },
{ "type": "Feature", "properties": { "id": 122, "name": "Decew Falls Brewing Company", "addr": "207 St. Paul Street West Unit 2", "phone": "(905) 682-7238", "web": "https://decewfallsbrewing.ca/", "index_s": 0.0, "index_l": null, "trek": "Transit" }, "geometry": { "type": "Point", "coordinates": [ -79.256818600001608, 43.145894000002812 ] } },
{ "type": "Feature", "properties": { "id": 123, "name": "Dog House Brewing Company", "addr": "3477 Petawawa Blvd Unit A", "phone": "(833)356-6379", "web": "https://doghousebrewingcompany.ca/", "index_s": null, "index_l": null, "trek": "Neither" }, "geometry": { "type": "Point", "coordinates": [ -77.283140300001506, 45.899919800002728 ] } },
{ "type": "Feature", "properties": { "id": 124, "name": "Dominion City Brewing Company", "addr": "15-5510 Canotek Rd", "phone": "(613) 688-6207", "web": "https://www.dominioncity.ca", "index_s": null, "index_l": 0.0, "trek": "Bike" }, "geometry": { "type": "Point", "coordinates": [ -75.584705300001417, 45.457574700002795 ] } },
{ "type": "Feature", "properties": { "id": 125, "name": "Dune Hopper Brewing Company", "addr": "1613 County Road 12", "phone": "(613) 654-9770", "web": "https://dunehopper.ca/", "index_s": null, "index_l": null, "trek": "Neither" }, "geometry": { "type": "Point", "coordinates": [ -77.256082000001498, 43.929772000002835 ] } },
{ "type": "Feature", "properties": { "id": 126, "name": "Durham Brewing - C'Est What", "addr": "67 Front Street East", "phone": "(416) 867-9499", "web": "https://cestwhat.com/", "index_s": 0.0, "index_l": 0.0, "trek": "Bike and Transit" }, "geometry": { "type": "Point", "coordinates": [ -79.373360000001625, 43.648257000002801 ] } },
{ "type": "Feature", "properties": { "id": 127, "name": "Durham Brewing Company", "addr": "1885 Clements Road, unit 274", "phone": "(905) 686-3022", "web": "https://www.cestwhatdurham.com/", "index_s": null, "index_l": null, "trek": "Neither" }, "geometry": { "type": "Point", "coordinates": [ -79.05557510000159, 43.825415800002773 ] } },
{ "type": "Feature", "properties": { "id": 128, "name": "Eastbound Brewing Company", "addr": "700 Queen Street East", "phone": "(416) 901-1299", "web": "http://www.eastboundbeer.com", "index_s": null, "index_l": 0.0, "trek": "Bike" }, "geometry": { "type": "Point", "coordinates": [ -79.350196600001595, 43.658899000002798 ] } },
{ "type": "Feature", "properties": { "id": 129, "name": "Elora Brewing Company", "addr": "107 Geddes Street", "phone": "(519) 805-2829", "web": "http://elorabrewingcompany.ca/", "index_s": null, "index_l": null, "trek": "Neither" }, "geometry": { "type": "Point", "coordinates": [ -80.430069700001653, 43.683570200002762 ] } },
{ "type": "Feature", "properties": { "id": 130, "name": "Endswell Brewing", "addr": "26 Elm Street", "phone": null, "web": "https://www.endswell.ca/", "index_s": null, "index_l": null, "trek": "Neither" }, "geometry": { "type": "Point", "coordinates": [ -80.232594600001647, 44.501344200002727 ] } },
{ "type": "Feature", "properties": { "id": 131, "name": "Equals Brewing", "addr": "695 Sovereign Road", "phone": "(877) 378-2571", "web": "https://equalsbrewing.com/", "index_s": null, "index_l": null, "trek": "Neither" }, "geometry": { "type": "Point", "coordinates": [ -81.15013870000169, 43.005491400002775 ] } },
{ "type": "Feature", "properties": { "id": 132, "name": "Evergreen Craft Ales", "addr": "21-767 Silver Seven Road", "phone": "(613) 319-3106", "web": "http://www.evergreencraftales.com/", "index_s": null, "index_l": 0.0, "trek": "Bike" }, "geometry": { "type": "Point", "coordinates": [ -75.914818800001427, 45.301563000002801 ] } },
{ "type": "Feature", "properties": { "id": 133, "name": "Exchange Brewery", "addr": "7 Queen Street", "phone": "(905) 468-9888", "web": "http://exchangebrewery.com/", "index_s": null, "index_l": null, "trek": "Neither" }, "geometry": { "type": "Point", "coordinates": [ -79.071002400001589, 43.255054300002826 ] } },
{ "type": "Feature", "properties": { "id": 134, "name": "Fairweather Brewing Company", "addr": "5 Ofield Road Unit 1", "phone": "(905) 570-0606", "web": "http://fairweatherbrewing.com/", "index_s": null, "index_l": 0.0, "trek": "Bike" }, "geometry": { "type": "Point", "coordinates": [ -79.931788000001646, 43.255043400002805 ] } },
{ "type": "Feature", "properties": { "id": 135, "name": "Falcon Brewing Company", "addr": "30 Barr Road", "phone": "(905) 686-6686", "web": "https://www.falconbrewingcompany.com/", "index_s": null, "index_l": 0.0, "trek": "Bike" }, "geometry": { "type": "Point", "coordinates": [ -79.02307170000158, 43.830098100002807 ] } },
{ "type": "Feature", "properties": { "id": 136, "name": "Farm League Brewing", "addr": "295 Ainslie Street", "phone": "(226) 605-6443", "web": "https://farmleaguebrewing.com/", "index_s": null, "index_l": 0.0, "trek": "Bike" }, "geometry": { "type": "Point", "coordinates": [ -80.313201300001666, 43.351120500002793 ] } },
{ "type": "Feature", "properties": { "id": 137, "name": "Fenelon Falls", "addr": "4 May Street", "phone": "(647) 848-1748", "web": "https://www.fenelonfallsbrewing.com/", "index_s": null, "index_l": null, "trek": "Neither" }, "geometry": { "type": "Point", "coordinates": [ -78.738101600001571, 44.53665060000278 ] } },
{ "type": "Feature", "properties": { "id": 138, "name": "Fine Balance Brewing Co.", "addr": "677 Innovation Drive, Unit 3", "phone": "(613) 544-6696", "web": "https://finebalancebrewing.ca/", "index_s": null, "index_l": null, "trek": "Neither" }, "geometry": { "type": "Point", "coordinates": [ -76.441913500001448, 44.271544600002848 ] } },
{ "type": "Feature", "properties": { "id": 139, "name": "Fixed Gear Brewing Company", "addr": "20 Alma Street South", "phone": "(519) 265-7025", "web": "https://fixedgearbrewing.com/", "index_s": null, "index_l": 0.0, "trek": "Bike" }, "geometry": { "type": "Point", "coordinates": [ -80.261983000001635, 43.535623400002798 ] } },
{ "type": "Feature", "properties": { "id": 140, "name": "Flight Risk Brewing", "addr": "5970 DWYER HILL RD", "phone": null, "web": "https://flightriskbrewing.com/", "index_s": null, "index_l": null, "trek": "Neither" }, "geometry": { "type": "Point", "coordinates": [ -75.906028800001408, 45.078624900002794 ] } },
{ "type": "Feature", "properties": { "id": 141, "name": "Flora Hall Brewing", "addr": "37 Flora Street", "phone": "(613) 695-2339?", "web": "https://florahallbrewing.ca/", "index_s": null, "index_l": 0.0, "trek": "Bike" }, "geometry": { "type": "Point", "coordinates": [ -75.693297400001413, 45.410857200002809 ] } },
{ "type": "Feature", "properties": { "id": 142, "name": "Flux Brewing Company", "addr": "185 Oakland Road", "phone": "(226) 655-0222", "web": "https://www.fluxbrews.ca/", "index_s": null, "index_l": null, "trek": "Neither" }, "geometry": { "type": "Point", "coordinates": [ -80.343942000001661, 43.028907000002796 ] } },
{ "type": "Feature", "properties": { "id": 143, "name": "Flying Monkeys Craft Brewery", "addr": "107 Dunlop Street", "phone": "(705) 806-7089", "web": "http://www.flyingmonkeys.ca", "index_s": null, "index_l": 0.0, "trek": "Bike" }, "geometry": { "type": "Point", "coordinates": [ -79.686674100001625, 44.389024100002757 ] } },
{ "type": "Feature", "properties": { "id": 144, "name": "Focal Brewing Company", "addr": "98 County Rd 35", "phone": "(416) 428-3977", "web": "http://www.focalbrewingco.ca/", "index_s": null, "index_l": null, "trek": "Neither" }, "geometry": { "type": "Point", "coordinates": [ -77.928782000001533, 44.281935500002803 ] } },
{ "type": "Feature", "properties": { "id": 145, "name": "Fogorig Brewing", "addr": "2445 County Road 8", "phone": null, "web": "https://www.fogorig.com/", "index_s": null, "index_l": null, "trek": "Neither" }, "geometry": { "type": "Point", "coordinates": [ -77.687445200001505, 44.289699700002821 ] } },
{ "type": "Feature", "properties": { "id": 146, "name": "Forked River Brewing", "addr": "45 Pacific Court, Unit 4", "phone": "(519) 913-2337", "web": "http://forkedriverbrewing.com/", "index_s": null, "index_l": null, "trek": "Neither" }, "geometry": { "type": "Point", "coordinates": [ -81.175684600001702, 43.010344100002783 ] } },
{ "type": "Feature", "properties": { "id": 147, "name": "Foundry Brewing", "addr": "74 Grand Avenue South", "phone": "(519) 624-9253", "web": "https://foundrybrewing.ca/", "index_s": null, "index_l": 0.0, "trek": "Bike" }, "geometry": { "type": "Point", "coordinates": [ -80.317991200001643, 43.354594100002799 ] } },
{ "type": "Feature", "properties": { "id": 148, "name": "Four Fathers Brewing", "addr": "125 Guelph Ave", "phone": "(519) 575-3687", "web": "http://fourfathersbrewing.ca/", "index_s": null, "index_l": 0.0, "trek": "Bike" }, "geometry": { "type": "Point", "coordinates": [ -80.310786900001659, 43.436328100002775 ] } },
{ "type": "Feature", "properties": { "id": 149, "name": "Frank Brewing", "addr": "12000 Tecumseh Road", "phone": "(519) 956-9822", "web": "https://frankbeer.ca/", "index_s": null, "index_l": 0.0, "trek": "Bike" }, "geometry": { "type": "Point", "coordinates": [ -82.891613800001792, 42.312225800002764 ] } },
{ "type": "Feature", "properties": { "id": 150, "name": "Full Beard Brewing", "addr": "219 Wilson Avenue", "phone": "(705) 268-0444", "web": "https://fullbeardbrewing.com/", "index_s": null, "index_l": null, "trek": "Neither" }, "geometry": { "type": "Point", "coordinates": [ -81.341118900001689, 48.475134500002454 ] } },
{ "type": "Feature", "properties": { "id": 151, "name": "Furnace Room Brewery", "addr": "1 Elgin Street", "phone": "(905) 702-7372", "web": "https://furnaceroombrewery.ca/", "index_s": 0.0, "index_l": null, "trek": "Transit" }, "geometry": { "type": "Point", "coordinates": [ -79.916720000001632, 43.65570800000279 ] } },
{ "type": "Feature", "properties": { "id": 152, "name": "Ganaraska Brewing Company", "addr": "33 Mill Street South", "phone": "(905) 885-9029", "web": "https://ganaraskabrewingcompany.ca/", "index_s": null, "index_l": null, "trek": "Neither" }, "geometry": { "type": "Point", "coordinates": [ -78.291182000001541, 43.949848500002787 ] } },
{ "type": "Feature", "properties": { "id": 153, "name": "Garage Time Brewing Company", "addr": "658 Danforth Road", "phone": "(613) 399-5090", "web": "https://www.garagetimebrewing.ca/", "index_s": null, "index_l": null, "trek": "Neither" }, "geometry": { "type": "Point", "coordinates": [ -77.377158300001511, 43.968864300002828 ] } },
{ "type": "Feature", "properties": { "id": 154, "name": "Gateway City Brewing Company", "addr": "490 Gormanville Road", "phone": "(705) 478-0809", "web": "https://www.gatewaycity.ca/", "index_s": null, "index_l": null, "trek": "Neither" }, "geometry": { "type": "Point", "coordinates": [ -79.487587100001619, 46.324870700002663 ] } },
{ "type": "Feature", "properties": { "id": 155, "name": "Gillingham Brewing", "addr": "1316 Wilson Road", "phone": "(613) 503-3030", "web": "https://gillinghambrewing.ca/", "index_s": null, "index_l": null, "trek": "Neither" }, "geometry": { "type": "Point", "coordinates": [ -77.351712000001513, 43.990559900002822 ] } },
{ "type": "Feature", "properties": { "id": 156, "name": "Gl Heritage Brewing Co", "addr": "8728 Howard Road", "phone": "(519) 736-7361", "web": "www.glheritagebrewing.ca", "index_s": null, "index_l": null, "trek": "Neither" }, "geometry": { "type": "Point", "coordinates": [ -83.004838400001802, 42.061023900002773 ] } },
{ "type": "Feature", "properties": { "id": 157, "name": "Glasstown Brewing Company", "addr": "331 James Street", "phone": "(226) 746-2337", "web": "https://www.glasstownbrewingco.ca/", "index_s": null, "index_l": null, "trek": "Neither" }, "geometry": { "type": "Point", "coordinates": [ -82.383162800001756, 42.594292700002782 ] } },
{ "type": "Feature", "properties": { "id": 158, "name": "Glb Brewpub", "addr": "11 Lower Jarvis, Unit 5-8", "phone": "(416) 777-2662", "web": "https://www.greatlakesbrewpub.com/", "index_s": 0.0, "index_l": 0.0, "trek": "Bike and Transit" }, "geometry": { "type": "Point", "coordinates": [ -79.369318700001614, 43.644862300002792 ] } },
{ "type": "Feature", "properties": { "id": 159, "name": "Godspeed Brewery", "addr": "242 Coxwell Avenue", "phone": "(416) 551-2282", "web": "https://godspeedbrewery.com/", "index_s": null, "index_l": 0.0, "trek": "Bike" }, "geometry": { "type": "Point", "coordinates": [ -79.319270400001599, 43.672515300002807 ] } },
{ "type": "Feature", "properties": { "id": 160, "name": "Goldenfield Brewery", "addr": "71 Sunrise Avenue", "phone": "(833) 388-2337", "web": "https://goldenfieldbrewery.com/", "index_s": null, "index_l": 0.0, "trek": "Bike" }, "geometry": { "type": "Point", "coordinates": [ -79.306371200001607, 43.718167100002802 ] } },
{ "type": "Feature", "properties": { "id": 161, "name": "Goodlot Farmstead Brewing", "addr": "18825 Shaws Creek Road", "phone": "(416) 875-3635", "web": "https://www.goodlot.beer/", "index_s": null, "index_l": null, "trek": "Neither" }, "geometry": { "type": "Point", "coordinates": [ -80.060873700001636, 43.819645400002756 ] } },
{ "type": "Feature", "properties": { "id": 162, "name": "Goose Island", "addr": "70 The Esplanade", "phone": "(416) 862-7575", "web": "https://gooseisland.ca/", "index_s": 0.0, "index_l": 0.0, "trek": "Bike and Transit" }, "geometry": { "type": "Point", "coordinates": [ -79.373813300001601, 43.647331100002788 ] } },
{ "type": "Feature", "properties": { "id": 163, "name": "Grain And Grit Beer Co", "addr": "11 Ewen Road", "phone": "(905) 769-1320", "web": "http://www.grainandgritbeer.com/", "index_s": null, "index_l": 0.0, "trek": "Bike" }, "geometry": { "type": "Point", "coordinates": [ -79.931634800001632, 43.256722400002808 ] } },
{ "type": "Feature", "properties": { "id": 164, "name": "Grand Valley Brewery Co", "addr": "173488 Dufferin County Road 25", "phone": "(877) 635-9321", "web": "https://grandvalleybrewery.com/", "index_s": null, "index_l": null, "trek": "Neither" }, "geometry": { "type": "Point", "coordinates": [ -80.321260000001658, 43.916880000002763 ] } },
{ "type": "Feature", "properties": { "id": 165, "name": "Granite Brewery And Tied House", "addr": "245 Eglinton E", "phone": "(416) 322-0723", "web": "http://www.granitebrewery.ca/", "index_s": 0.0, "index_l": 0.0, "trek": "Bike and Transit" }, "geometry": { "type": "Point", "coordinates": [ -79.389570000001612, 43.708176400002799 ] } },
{ "type": "Feature", "properties": { "id": 166, "name": "Great Lakes Brewery", "addr": "30 Queen Elizabeth Blvd", "phone": "(416) 255-4510", "web": "http://www.greatlakesbeer.com/", "index_s": 0.0, "index_l": 0.0, "trek": "Bike and Transit" }, "geometry": { "type": "Point", "coordinates": [ -79.505026300001617, 43.623079300002793 ] } },
{ "type": "Feature", "properties": { "id": 167, "name": "Grey Matter Brewery", "addr": "726 Queen Street", "phone": "(226) 396-2337", "web": "https://www.greymatterbeer.com/", "index_s": null, "index_l": null, "trek": "Neither" }, "geometry": { "type": "Point", "coordinates": [ -81.636490600001721, 44.175627200002701 ] } },
{ "type": "Feature", "properties": { "id": 168, "name": "Haliburton Highlands Brewing", "addr": "15543 Highway 35", "phone": "(705) 754-2739", "web": "https://haliburtonhighlandsbrewing.ca/", "index_s": null, "index_l": null, "trek": "Neither" }, "geometry": { "type": "Point", "coordinates": [ -78.698463100001575, 45.049316500002732 ] } },
{ "type": "Feature", "properties": { "id": 169, "name": "Hallett Brewing", "addr": "408 Scott Street", "phone": "(807) 271-2036", "web": "https://www.facebook.com/hallettbrewing/?locale=hi_IN", "index_s": null, "index_l": null, "trek": "Neither" }, "geometry": { "type": "Point", "coordinates": [ -93.392215600002018, 48.610222300001993 ] } },
{ "type": "Feature", "properties": { "id": 170, "name": "Halo Brewery", "addr": "247 Wallace Ave", "phone": "(416) 606-7778", "web": "https://halobrewery.com/", "index_s": 0.0, "index_l": 0.0, "trek": "Bike and Transit" }, "geometry": { "type": "Point", "coordinates": [ -79.446463500001599, 43.66179070000279 ] } },
{ "type": "Feature", "properties": { "id": 171, "name": "Haven Brewing Company", "addr": "687 Rye Street, Unit 6", "phone": "(705) 743-4747", "web": "https://havenbrewing.ca/", "index_s": null, "index_l": 0.0, "trek": "Bike" }, "geometry": { "type": "Point", "coordinates": [ -78.348959700001558, 44.277880800002798 ] } },
{ "type": "Feature", "properties": { "id": 172, "name": "Henderson Brewing Company Inc", "addr": "128A Sterling Road", "phone": "(416) 535-1212", "web": "https://shophendersonbrewing.com/", "index_s": 0.0, "index_l": 0.0, "trek": "Bike and Transit" }, "geometry": { "type": "Point", "coordinates": [ -79.445629200001619, 43.65355380000279 ] } },
{ "type": "Feature", "properties": { "id": 173, "name": "High Park Brewery", "addr": "839 Runnymede Road", "phone": "(647) 398-9336", "web": "https://highparkbrewery.com/", "index_s": null, "index_l": 0.0, "trek": "Bike" }, "geometry": { "type": "Point", "coordinates": [ -79.483436700001604, 43.669906600002804 ] } },
{ "type": "Feature", "properties": { "id": 174, "name": "Hockley Valley Brewing Company Inc", "addr": "25 Centennial Road", "phone": "(519) 941-8887", "web": "http://www.hockleybeer.ca/", "index_s": null, "index_l": null, "trek": "Neither" }, "geometry": { "type": "Point", "coordinates": [ -80.108397000001645, 43.912867700002778 ] } },
{ "type": "Feature", "properties": { "id": 175, "name": "Huether Hotel", "addr": "59 King Street N", "phone": "(519) 886-3350", "web": "http://huetherhotel.com/", "index_s": 0.0, "index_l": 0.0, "trek": "Bike and Transit" }, "geometry": { "type": "Point", "coordinates": [ -80.523136500001684, 43.466975200002778 ] } },
{ "type": "Feature", "properties": { "id": 176, "name": "Imperial City Brewhouse", "addr": "1330 Exmouth Street", "phone": "(519) 491-5191", "web": "https://www.imperialcitybrew.com/", "index_s": null, "index_l": null, "trek": "Neither" }, "geometry": { "type": "Point", "coordinates": [ -82.355462700001752, 42.984913400002746 ] } },
{ "type": "Feature", "properties": { "id": 177, "name": "Indie Alehouse", "addr": "2876 Dundas Street West", "phone": "(416) 760-9691", "web": "https://indiealehouse.com/", "index_s": null, "index_l": 0.0, "trek": "Bike" }, "geometry": { "type": "Point", "coordinates": [ -79.46536000000161, 43.665658000002793 ] } },
{ "type": "Feature", "properties": { "id": 178, "name": "Indie Alehouse Eataly - Birroteca", "addr": "55 Bloor Street West", "phone": "(416) 760-9691", "web": "https://indiealehouse.com/", "index_s": 0.0, "index_l": 0.0, "trek": "Bike and Transit" }, "geometry": { "type": "Point", "coordinates": [ -79.388159200001624, 43.669204100002787 ] } },
{ "type": "Feature", "properties": { "id": 179, "name": "Ingersoll Rails House Of Brews", "addr": "99 Victoria Street", "phone": "(519) 709-9061", "web": "https://ingersollrails.beer/", "index_s": null, "index_l": 0.0, "trek": "Bike" }, "geometry": { "type": "Point", "coordinates": [ -80.889812000001697, 43.040283300002791 ] } },
{ "type": "Feature", "properties": { "id": 180, "name": "Innocente Brewing Company", "addr": "283 Northfield Drive E, Unit 8", "phone": "(519) 725-1253", "web": "http://www.innocente.ca/", "index_s": null, "index_l": 0.0, "trek": "Bike" }, "geometry": { "type": "Point", "coordinates": [ -80.520532900001669, 43.511840900002774 ] } },
{ "type": "Feature", "properties": { "id": 181, "name": "Jackass Brewing", "addr": "100 Sheldon Drive, Unit 36", "phone": "(519) 624-9423", "web": "https://www.jackassbrewing.ca/", "index_s": null, "index_l": 0.0, "trek": "Bike" }, "geometry": { "type": "Point", "coordinates": [ -80.318059300001664, 43.403926000002791 ] } },
{ "type": "Feature", "properties": { "id": 182, "name": "Jobsite Brewing Co.", "addr": "45 Cambria Street", "phone": "(519) 305-3335", "web": "https://jobsitebrewing.ca/", "index_s": null, "index_l": null, "trek": "Neither" }, "geometry": { "type": "Point", "coordinates": [ -80.983991800001689, 43.363519100002769 ] } },
{ "type": "Feature", "properties": { "id": 183, "name": "Junction Craft Brewery", "addr": "150 Symes Road", "phone": "(416) 766-1616", "web": "https://www.junctioncraft.com/", "index_s": null, "index_l": 0.0, "trek": "Bike" }, "geometry": { "type": "Point", "coordinates": [ -79.479441500001599, 43.672956300002795 ] } },
{ "type": "Feature", "properties": { "id": 184, "name": "Kame & Kettle Beer Works", "addr": "25 Pelham Town Square", "phone": "(289) 273-2550", "web": "http://www.kameandkettle.ca/", "index_s": null, "index_l": null, "trek": "Neither" }, "geometry": { "type": "Point", "coordinates": [ -79.285296200001596, 43.043934400002819 ] } },
{ "type": "Feature", "properties": { "id": 185, "name": "Kichesippi Beer Company", "addr": "2265 Robertson Road", "phone": "(613) 728-7845", "web": "https://www.kbeer.ca/", "index_s": null, "index_l": 0.0, "trek": "Bike" }, "geometry": { "type": "Point", "coordinates": [ -75.84415160000141, 45.318097600002787 ] } },
{ "type": "Feature", "properties": { "id": 186, "name": "Kick And Push Brewing Company", "addr": "24613 Hwy 7", "phone": "(613) 279-1414", "web": "https://kapbrewing.ca/", "index_s": null, "index_l": null, "trek": "Neither" }, "geometry": { "type": "Point", "coordinates": [ -76.683528400001478, 44.796756000002823 ] } },
{ "type": "Feature", "properties": { "id": 187, "name": "Kilannan Brewing Company", "addr": "599448 2nd Concession North", "phone": "(226) 909-2122", "web": "https://www.coffinridge.ca/pages/kilannan-brewery", "index_s": null, "index_l": null, "trek": "Neither" }, "geometry": { "type": "Point", "coordinates": [ -80.775525100001673, 44.663457600002701 ] } },
{ "type": "Feature", "properties": { "id": 188, "name": "Kingston Brewing Company", "addr": "34 Clarence Street", "phone": "(613) 542-4978", "web": "https://www.kingstonbrewing.ca/", "index_s": null, "index_l": 0.0, "trek": "Bike" }, "geometry": { "type": "Point", "coordinates": [ -76.481271300001467, 44.229197800002851 ] } },
{ "type": "Feature", "properties": { "id": 189, "name": "Kingsville Brewing Company", "addr": "140 Park Street", "phone": "(519) 712-9404", "web": "https://kingsvillebrewery.ca/", "index_s": null, "index_l": null, "trek": "Neither" }, "geometry": { "type": "Point", "coordinates": [ -82.733845000001779, 42.029138100002776 ] } },
{ "type": "Feature", "properties": { "id": 190, "name": "Labatt Brewing Company", "addr": "150 Simcoe Street", "phone": null, "web": "https://www.labatt.com/company/?language=en", "index_s": 0.0, "index_l": 0.0, "trek": "Bike and Transit" }, "geometry": { "type": "Point", "coordinates": [ -81.246695400001698, 42.978251700002765 ] } },
{ "type": "Feature", "properties": { "id": 191, "name": "Lake Of Bays Brewing - Baysville", "addr": "2681 Muskoka Road 117", "phone": "(705) 767-2313", "web": "http://lakeofbaysbrewing.ca/", "index_s": null, "index_l": null, "trek": "Neither" }, "geometry": { "type": "Point", "coordinates": [ -79.114340500001589, 45.150188700002722 ] } },
{ "type": "Feature", "properties": { "id": 192, "name": "Lake Of Bays Brewing - Bracebridge", "addr": "59 Main Street East", "phone": "(705) 789-7931", "web": "http://lakeofbaysbrewing.ca/", "index_s": null, "index_l": null, "trek": "Neither" }, "geometry": { "type": "Point", "coordinates": [ -79.315622100001605, 45.043542800002747 ] } },
{ "type": "Feature", "properties": { "id": 193, "name": "Lake Of Bays Brewing - Huntsville", "addr": "295 Wellington Street, Unit 15", "phone": "(705) 645-2122", "web": "http://lakeofbaysbrewing.ca/", "index_s": null, "index_l": null, "trek": "Neither" }, "geometry": { "type": "Point", "coordinates": [ -79.321841700001585, 45.042873500002713 ] } },
{ "type": "Feature", "properties": { "id": 194, "name": "Lake Of The Woods Brewing Company", "addr": "350 Second Street South", "phone": "(833) 321-2337", "web": "https://www.lowbrewco.com/", "index_s": null, "index_l": null, "trek": "Neither" }, "geometry": { "type": "Point", "coordinates": [ -94.486752600002049, 49.765423400001879 ] } },
{ "type": "Feature", "properties": { "id": 195, "name": "Lake On The Mountain Brewing Company", "addr": "11369 Loyalist Parkway", "phone": "(613) 476-1321", "web": "https://lakeonthemountainbrewco.com/", "index_s": null, "index_l": null, "trek": "Neither" }, "geometry": { "type": "Point", "coordinates": [ -77.066511100001478, 44.042551700002832 ] } },
{ "type": "Feature", "properties": { "id": 196, "name": "Lakehead Brewing Company", "addr": "206 Park Ave", "phone": "(807) 577-7766", "web": "https://www.lakeheadbeer.ca/", "index_s": null, "index_l": null, "trek": "Neither" }, "geometry": { "type": "Point", "coordinates": [ -89.220649100001964, 48.434058600002174 ] } },
{ "type": "Feature", "properties": { "id": 197, "name": "Left Field Brewery", "addr": "36 Wagstaff Drive", "phone": "647-346-5001", "web": "https://www.leftfieldbrewery.ca/", "index_s": 0.0, "index_l": 0.0, "trek": "Bike and Transit" }, "geometry": { "type": "Point", "coordinates": [ -79.330322600001608, 43.673826800002807 ] } },
{ "type": "Feature", "properties": { "id": 198, "name": "Left Field Liberty Village", "addr": "40 Hanna Ave", "phone": null, "web": "https://www.leftfieldbrewery.ca/", "index_s": 0.0, "index_l": 0.0, "trek": "Bike and Transit" }, "geometry": { "type": "Point", "coordinates": [ -79.41989200000161, 43.639088700002766 ] } },
{ "type": "Feature", "properties": { "id": 199, "name": "Lightcaster Brewing", "addr": "716 Wilson Road South", "phone": "(905) 623-8886", "web": "https://lightcasterbrewery.com/", "index_s": null, "index_l": null, "trek": "Neither" }, "geometry": { "type": "Point", "coordinates": [ -78.836252300001576, 43.881809200002813 ] } },
{ "type": "Feature", "properties": { "id": 200, "name": "Lindsay Brewing Company", "addr": "8 Cambridge Street North", "phone": "(705) 212-2200", "web": "http://www.lindsaybrewingcompany.ca/", "index_s": null, "index_l": null, "trek": "Neither" }, "geometry": { "type": "Point", "coordinates": [ -78.739289000001563, 44.35514940000278 ] } },
{ "type": "Feature", "properties": { "id": 201, "name": "Little Beasts Brewing Company", "addr": "2075 Forbes Street B-4", "phone": "(905) 723-2337", "web": "https://www.littlebeastsbrewing.com/", "index_s": null, "index_l": 0.0, "trek": "Bike" }, "geometry": { "type": "Point", "coordinates": [ -78.892534800001584, 43.859817500002791 ] } },
{ "type": "Feature", "properties": { "id": 202, "name": "Lock Street Brewing Company", "addr": "15 Lock Street", "phone": "(905) 935-2124", "web": "https://lockstreet.ca/", "index_s": null, "index_l": null, "trek": "Neither" }, "geometry": { "type": "Point", "coordinates": [ -79.266538500001602, 43.202155600002818 ] } },
{ "type": "Feature", "properties": { "id": 203, "name": "London Brewing Co-Operative", "addr": "521 Burbrook Place", "phone": "(226) 667-6363", "web": "http://www.londonbrewing.ca/", "index_s": null, "index_l": 0.0, "trek": "Bike" }, "geometry": { "type": "Point", "coordinates": [ -81.216900000001687, 42.997400000002784 ] } },
{ "type": "Feature", "properties": { "id": 204, "name": "Longslice Brewery", "addr": "484 Front Street East", "phone": "(647) 479-2469", "web": "https://longslice.com/", "index_s": null, "index_l": 0.0, "trek": "Bike" }, "geometry": { "type": "Point", "coordinates": [ -79.354636300001602, 43.653724800002777 ] } },
{ "type": "Feature", "properties": { "id": 205, "name": "Longtooth Beverage Company", "addr": "429 West Front Street", "phone": "(705) 868-5557", "web": "https://longtooth.ca/", "index_s": null, "index_l": null, "trek": "Neither" }, "geometry": { "type": "Point", "coordinates": [ -77.563781000001526, 44.291816300002829 ] } },
{ "type": "Feature", "properties": { "id": 206, "name": "Lost Craft", "addr": "837 Runnymede Road", "phone": "(416) 587-6753", "web": "https://lostcraft.ca/", "index_s": null, "index_l": 0.0, "trek": "Bike" }, "geometry": { "type": "Point", "coordinates": [ -79.483380100001611, 43.669913300002811 ] } },
{ "type": "Feature", "properties": { "id": 207, "name": "Lost Villages Brewery", "addr": "16133 Country Road 36", "phone": "(613) 550-0717", "web": "https://www.lostvillagesbrewery.com/", "index_s": null, "index_l": null, "trek": "Neither" }, "geometry": { "type": "Point", "coordinates": [ -74.879514400001355, 45.035257500002849 ] } },
{ "type": "Feature", "properties": { "id": 208, "name": "Lot 10 Brewing Co.", "addr": "263 Dalhousie Street", "phone": "(226) 773-7755", "web": "https://lot10brewery.ca/", "index_s": null, "index_l": null, "trek": "Neither" }, "geometry": { "type": "Point", "coordinates": [ -83.112570400001772, 42.101940400002761 ] } },
{ "type": "Feature", "properties": { "id": 209, "name": "Lovebird Brewing Company", "addr": "49 Bruce Street Sout", "phone": "(416)388-3673", "web": "https://lovebirdbrewing.com/", "index_s": null, "index_l": null, "trek": "Neither" }, "geometry": { "type": "Point", "coordinates": [ -80.454001000001668, 44.560636600002738 ] } },
{ "type": "Feature", "properties": { "id": 210, "name": "The Lowertown Brewery", "addr": "73 York Street", "phone": "(613) 722-1454", "web": "http://www.lowertownbrewery.ca/", "index_s": null, "index_l": 0.0, "trek": "Bike" }, "geometry": { "type": "Point", "coordinates": [ -75.692192500001397, 45.428818900002803 ] } },
{ "type": "Feature", "properties": { "id": 211, "name": "Mackinnon Brothers Brewing Company", "addr": "1915 County Road 22", "phone": "(613) 777-6277", "web": "https://www.mackinnonbrewing.com/", "index_s": null, "index_l": null, "trek": "Neither" }, "geometry": { "type": "Point", "coordinates": [ -76.795596200001469, 44.201456400002847 ] } },
{ "type": "Feature", "properties": { "id": 212, "name": "Magnotta Brewery", "addr": "271 Chrislea Road", "phone": "(905) 738-9463", "web": "https://www.magnotta.com/", "index_s": 0.0, "index_l": 0.0, "trek": "Bike and Transit" }, "geometry": { "type": "Point", "coordinates": [ -79.542719400001616, 43.797770300002774 ] } },
{ "type": "Feature", "properties": { "id": 213, "name": "Maltaroma Brewery", "addr": "20 Melham Court, Suite 9", "phone": null, "web": null, "index_s": null, "index_l": null, "trek": "Neither" }, "geometry": { "type": "Point", "coordinates": [ -79.24010910000159, 43.810534700002776 ] } },
{ "type": "Feature", "properties": { "id": 214, "name": "Manitoulin Brewing Company", "addr": "43 Manitowaning Road, Hwy 6", "phone": "(705) 370-5633", "web": "http://www.manitoulinbrewing.co/", "index_s": null, "index_l": null, "trek": "Neither" }, "geometry": { "type": "Point", "coordinates": [ -81.924249100001731, 45.976524000002577 ] } },
{ "type": "Feature", "properties": { "id": 215, "name": "Market Brewing Company", "addr": "17775 Leslie Street, Unit 4", "phone": "(905) 235-9333", "web": "https://marketbrewingco.com/", "index_s": null, "index_l": 0.0, "trek": "Bike" }, "geometry": { "type": "Point", "coordinates": [ -79.433051600001619, 44.072787200002772 ] } },
{ "type": "Feature", "properties": { "id": 216, "name": "Mascot Brewery", "addr": "37 Advance Road #106", "phone": "(416) 239-9902", "web": "http://www.mascotbrewery.com/", "index_s": 0.0, "index_l": 0.0, "trek": "Bike and Transit" }, "geometry": { "type": "Point", "coordinates": [ -79.527694500001616, 43.63363860000279 ] } },
{ "type": "Feature", "properties": { "id": 217, "name": "Mascot Brewery Downtown", "addr": "220 King Street West", "phone": "(647) 347-9553", "web": "http://www.mascotbrewery.com/", "index_s": 0.0, "index_l": 0.0, "trek": "Bike and Transit" }, "geometry": { "type": "Point", "coordinates": [ -79.387075000001602, 43.647432600002801 ] } },
{ "type": "Feature", "properties": { "id": 218, "name": "Mascot Brewery Vaughan", "addr": "1033 Edgeley Blvd", "phone": "(905) 532-0769", "web": "http://www.mascotbrewery.com/", "index_s": null, "index_l": null, "trek": "Neither" }, "geometry": { "type": "Point", "coordinates": [ -79.537875800001601, 43.819966600002793 ] } },
{ "type": "Feature", "properties": { "id": 219, "name": "Matron Fine Beer", "addr": "65 Barkers Lane", "phone": "(613) 393-9195", "web": "https://matronfinebeer.ca/", "index_s": null, "index_l": null, "trek": "Neither" }, "geometry": { "type": "Point", "coordinates": [ -77.229462100001498, 43.981368500002837 ] } },
{ "type": "Feature", "properties": { "id": 220, "name": "Merit Brewing Company Inc.", "addr": "107 James Street North", "phone": "(905) 393-1024", "web": "https://www.meritbrewing.ca/", "index_s": 0.0, "index_l": 0.0, "trek": "Bike and Transit" }, "geometry": { "type": "Point", "coordinates": [ -79.86799790000164, 43.259504000002778 ] } },
{ "type": "Feature", "properties": { "id": 221, "name": "Meuse Brewing", "addr": "1853 Windham Road 3", "phone": "(519) 709-9327", "web": "https://meusebrewing.com/", "index_s": null, "index_l": null, "trek": "Neither" }, "geometry": { "type": "Point", "coordinates": [ -80.367065300001642, 42.987397200002796 ] } },
{ "type": "Feature", "properties": { "id": 222, "name": "Meyers Creek Brewing Company", "addr": "60 Dundas Street East", "phone": "(613) 707-7258", "web": "https://www.meyerscreekbrewing.ca/", "index_s": null, "index_l": 0.0, "trek": "Bike" }, "geometry": { "type": "Point", "coordinates": [ -77.379988500001502, 44.161669200002827 ] } },
{ "type": "Feature", "properties": { "id": 223, "name": "Midtown Brewing Company", "addr": "266 Wellington Main Street", "phone": "(613) 399-1001", "web": "https://midtownbrewingcompany.com/", "index_s": null, "index_l": null, "trek": "Neither" }, "geometry": { "type": "Point", "coordinates": [ -77.349170400001498, 43.951934800002832 ] } },
{ "type": "Feature", "properties": { "id": 224, "name": "Mill Street Brew Pub & Beer Hall", "addr": "21 Tankhouse Lane", "phone": "(613) 567-2337", "web": "https://millstreetbrewery.com/", "index_s": null, "index_l": 0.0, "trek": "Bike" }, "geometry": { "type": "Point", "coordinates": [ -79.358392000001587, 43.650379400002798 ] } },
{ "type": "Feature", "properties": { "id": 225, "name": "Mill Street Brewery", "addr": "125 Bermondsey Road", "phone": null, "web": "https://millstreetbrewery.com/", "index_s": null, "index_l": 0.0, "trek": "Bike" }, "geometry": { "type": "Point", "coordinates": [ -79.3128424000016, 43.718559300002802 ] } },
{ "type": "Feature", "properties": { "id": 226, "name": "Mill Street Brewery Ottawa", "addr": "555 Wellington Street", "phone": "(416) 681-0338", "web": "https://millstreetbrewery.com/", "index_s": null, "index_l": 0.0, "trek": "Bike" }, "geometry": { "type": "Point", "coordinates": [ -75.71268490000142, 45.419700300002816 ] } },
{ "type": "Feature", "properties": { "id": 227, "name": "Miski Brewing", "addr": "70 Ellis Dr Unit 4", "phone": "(888) 395-8338", "web": "https://miskibrewing.com/", "index_s": null, "index_l": 0.0, "trek": "Bike" }, "geometry": { "type": "Point", "coordinates": [ -79.674584200001618, 44.34864610000276 ] } },
{ "type": "Feature", "properties": { "id": 228, "name": "Molson Beverage Company", "addr": "33 Carlingview Drive", "phone": null, "web": "https://www.molsoncoors.com/", "index_s": null, "index_l": 0.0, "trek": "Bike" }, "geometry": { "type": "Point", "coordinates": [ -79.587838900001614, 43.674817400002759 ] } },
{ "type": "Feature", "properties": { "id": 229, "name": "Mono Centre Brewing Co", "addr": "388113 Mono Centre Road", "phone": "(519) 943-0055", "web": "https://monocentrebrewing.ca/", "index_s": null, "index_l": null, "trek": "Neither" }, "geometry": { "type": "Point", "coordinates": [ -80.031395300001634, 44.048045800002768 ] } },
{ "type": "Feature", "properties": { "id": 230, "name": "Muddy York Brewing Company", "addr": "50 Innovator Ave Unit 1", "phone": "(416) 619-7819", "web": "https://www.muddyyorkbrewing.com/", "index_s": null, "index_l": 0.0, "trek": "Bike" }, "geometry": { "type": "Point", "coordinates": [ -79.266653900001586, 43.962759400002788 ] } },
{ "type": "Feature", "properties": { "id": 231, "name": "Mudtown Station", "addr": "1198 First Avenue East", "phone": "(519) 371-3575", "web": "https://www.mudtownstation.ca/", "index_s": null, "index_l": null, "trek": "Neither" }, "geometry": { "type": "Point", "coordinates": [ -80.942306700001694, 44.572205000002697 ] } },
{ "type": "Feature", "properties": { "id": 232, "name": "Muskoka Brewery", "addr": "1964 Muskoka Beach Road", "phone": "(705) 646-1266", "web": "https://muskokabrewery.com/", "index_s": null, "index_l": null, "trek": "Neither" }, "geometry": { "type": "Point", "coordinates": [ -79.319904800001595, 44.998096400002758 ] } },
{ "type": "Feature", "properties": { "id": 233, "name": "Natterjack Brewing Company", "addr": "25292 Talbot Line", "phone": "(226) 289-1472", "web": "https://natterjackbrewing.ca/", "index_s": null, "index_l": null, "trek": "Neither" }, "geometry": { "type": "Point", "coordinates": [ -81.562433300001715, 42.568309400002775 ] } },
{ "type": "Feature", "properties": { "id": 234, "name": "Neustadt Springs Brewery", "addr": "456 Jacob Street", "phone": "(519) 799-5790", "web": "http://www.neustadtsprings.com/", "index_s": null, "index_l": null, "trek": "Neither" }, "geometry": { "type": "Point", "coordinates": [ -81.003479100001712, 44.074959500002734 ] } },
{ "type": "Feature", "properties": { "id": 235, "name": "New Limburg Brewery", "addr": "2353 Nixon Road", "phone": "(519) 707-4141", "web": "http://newlimburg.com/", "index_s": null, "index_l": null, "trek": "Neither" }, "geometry": { "type": "Point", "coordinates": [ -80.401959400001658, 42.8539253000028 ] } },
{ "type": "Feature", "properties": { "id": 236, "name": "Newark Brewing Company", "addr": "4766 Christie Dr", "phone": "(289) 432-1224", "web": "https://newarkbrewing.com/", "index_s": null, "index_l": null, "trek": "Neither" }, "geometry": { "type": "Point", "coordinates": [ -79.472525000001625, 43.188148400002824 ] } },
{ "type": "Feature", "properties": { "id": 237, "name": "Niagara Brewing Company", "addr": "4915-A Clifton Hill", "phone": "(905) 374-5247", "web": "https://niagarabrewingcompany.com/", "index_s": null, "index_l": 0.0, "trek": "Bike" }, "geometry": { "type": "Point", "coordinates": [ -79.073536500001595, 43.09104200000283 ] } },
{ "type": "Feature", "properties": { "id": 238, "name": "Niagara College Teaching Brewery", "addr": "135 Taylor Road", "phone": "(905) 641-2252", "web": "https://www.ncteachingbrewery.ca/", "index_s": null, "index_l": 0.0, "trek": "Bike" }, "geometry": { "type": "Point", "coordinates": [ -79.166354800001585, 43.150147200002834 ] } },
{ "type": "Feature", "properties": { "id": 239, "name": "Niagara Oast House Brewers", "addr": "2017 Niagara Stone Road", "phone": "(289) 868-9627", "web": "https://oasthousebrewers.com/", "index_s": null, "index_l": null, "trek": "Neither" }, "geometry": { "type": "Point", "coordinates": [ -79.098797400001587, 43.240160900002827 ] } },
{ "type": "Feature", "properties": { "id": 240, "name": "Nickel Brook Brewing Company -Burling", "addr": "3426 Mainway", "phone": "(905) 681-2739", "web": "https://nickelbrook.com/", "index_s": null, "index_l": 0.0, "trek": "Bike" }, "geometry": { "type": "Point", "coordinates": [ -79.798527500001626, 43.368360500002801 ] } },
{ "type": "Feature", "properties": { "id": 241, "name": "Nickel Brook Brewing Company - Etobicoke", "addr": "3-1589 The Queensway", "phone": "(905) 681-2739", "web": "https://nickelbrook.com/", "index_s": null, "index_l": null, "trek": "Neither" }, "geometry": { "type": "Point", "coordinates": [ -79.542172500001627, 43.615987900002786 ] } },
{ "type": "Feature", "properties": { "id": 242, "name": "Nita Beer Company", "addr": "190 Colonnade Road Unit 17", "phone": "(613) 688-2337", "web": "https://nitabeer.com/", "index_s": null, "index_l": 0.0, "trek": "Bike" }, "geometry": { "type": "Point", "coordinates": [ -75.715591000001425, 45.342155000002826 ] } },
{ "type": "Feature", "properties": { "id": 243, "name": "Norse Brewery", "addr": "11 Ritchie Drive", "phone": "(705) 345-0274", "web": "http://norsebrewery.com/", "index_s": null, "index_l": null, "trek": "Neither" }, "geometry": { "type": "Point", "coordinates": [ -80.203319900001645, 45.491840500002674 ] } },
{ "type": "Feature", "properties": { "id": 244, "name": "Northern Superior Brewing Company", "addr": "50 Pim Street", "phone": "(705) 450-SHOT", "web": "https://northernsuperior.org/", "index_s": null, "index_l": null, "trek": "Neither" }, "geometry": { "type": "Point", "coordinates": [ -84.32367010000182, 46.504814300002494 ] } },
{ "type": "Feature", "properties": { "id": 245, "name": "Northumberland Hills Brewery", "addr": "1024 Division Street", "phone": "(289) 435-2004", "web": "nhb.beer", "index_s": null, "index_l": null, "trek": "Neither" }, "geometry": { "type": "Point", "coordinates": [ -78.174108300001535, 43.980166500002824 ] } },
{ "type": "Feature", "properties": { "id": 246, "name": "Northwinds Brewhouse & Eatery", "addr": "180 Jozo Weider Blvd", "phone": "(705) 445-6666", "web": "https://northwindsbrewery.com/", "index_s": null, "index_l": null, "trek": "Neither" }, "geometry": { "type": "Point", "coordinates": [ -80.310087900001633, 44.503018300002729 ] } },
{ "type": "Feature", "properties": { "id": 247, "name": "Northwinds Brewhouse & Eatery", "addr": "499 First Street", "phone": "(705) 293-6666", "web": "https://northwindsbrewery.com/", "index_s": null, "index_l": null, "trek": "Neither" }, "geometry": { "type": "Point", "coordinates": [ -80.231869900001655, 44.501814000002732 ] } },
{ "type": "Feature", "properties": { "id": 248, "name": "Old Credit Brewing Company", "addr": "6 Queen Street West", "phone": "(905) 271-9888", "web": "https://www.oldcreditbrewing.com/", "index_s": 0.0, "index_l": 0.0, "trek": "Bike and Transit" }, "geometry": { "type": "Point", "coordinates": [ -79.59338640000162, 43.549710300002801 ] } },
{ "type": "Feature", "properties": { "id": 249, "name": "Old Dog Brewing Company Inc.", "addr": "30 King Street East", "phone": "(705) 731-1123", "web": "https://olddogbrewing.com/", "index_s": null, "index_l": null, "trek": "Neither" }, "geometry": { "type": "Point", "coordinates": [ -78.541963900001562, 44.536215800002772 ] } },
{ "type": "Feature", "properties": { "id": 250, "name": "Old Flame Brewing Co - Distillery", "addr": "45 Tank House Lane", "phone": "(416) 360-1209", "web": "http://oldflamebrewingco.ca/", "index_s": null, "index_l": 0.0, "trek": "Bike" }, "geometry": { "type": "Point", "coordinates": [ -79.3574592000016, 43.650649100002795 ] } },
{ "type": "Feature", "properties": { "id": 251, "name": "Old Flame Brewing Co - Newmarket", "addr": "140 Main Street South", "phone": "(289) 803-9111", "web": "http://oldflamebrewingco.ca/", "index_s": 0.0, "index_l": 0.0, "trek": "Bike and Transit" }, "geometry": { "type": "Point", "coordinates": [ -79.458613700001621, 44.054607700002769 ] } },
{ "type": "Feature", "properties": { "id": 252, "name": "Old Flame Brewing Co - Port Perry", "addr": "135 Perry Street", "phone": "(289) 485-2739", "web": "http://oldflamebrewingco.ca/", "index_s": null, "index_l": null, "trek": "Neither" }, "geometry": { "type": "Point", "coordinates": [ -78.943541100001582, 44.104025900002803 ] } },
{ "type": "Feature", "properties": { "id": 253, "name": "Orange Snail Brewers", "addr": "32 Steeles Ave East Unit 1", "phone": "(289) 270-1680", "web": "http://orangesnailbrewers.ca/", "index_s": null, "index_l": 0.0, "trek": "Bike" }, "geometry": { "type": "Point", "coordinates": [ -79.89872680000164, 43.516792600002788 ] } },
{ "type": "Feature", "properties": { "id": 254, "name": "Oranje Son Brewing", "addr": "118 Sutherland Street West", "phone": null, "web": "https://oranjeson.ca/", "index_s": null, "index_l": null, "trek": "Neither" }, "geometry": { "type": "Point", "coordinates": [ -79.955546100001655, 43.076273300002804 ] } },
{ "type": "Feature", "properties": { "id": 255, "name": "Original Local Beers", "addr": "411 St. Laurent", "phone": "(613) 807-1242", "web": "https://www.localbeers.ca/", "index_s": null, "index_l": 0.0, "trek": "Bike" }, "geometry": { "type": "Point", "coordinates": [ -75.650147900001386, 45.447873600002808 ] } },
{ "type": "Feature", "properties": { "id": 256, "name": "Orleans Brewing Company", "addr": "4380 Innes Road", "phone": "(613) 850-6220", "web": "https://www.orleansbrewing.com/", "index_s": null, "index_l": 0.0, "trek": "Bike" }, "geometry": { "type": "Point", "coordinates": [ -75.490070800001405, 45.45991130000278 ] } },
{ "type": "Feature", "properties": { "id": 257, "name": "Outlaw Brew Company", "addr": "196 High Street", "phone": "(519) 797-1515", "web": "https://outlawbrewco.com/", "index_s": null, "index_l": null, "trek": "Neither" }, "geometry": { "type": "Point", "coordinates": [ -81.3715046000017, 44.4959287000027 ] } },
{ "type": "Feature", "properties": { "id": 258, "name": "Outspoken Brewing", "addr": "350 Queen Street East", "phone": "(705) 206-2858", "web": "https://www.outspokenbrewing.com/", "index_s": null, "index_l": null, "trek": "Neither" }, "geometry": { "type": "Point", "coordinates": [ -84.334454300001823, 46.512947400002489 ] } },
{ "type": "Feature", "properties": { "id": 259, "name": "Overflow Brewery", "addr": "2477 Kaladar Ave", "phone": "(613) 695-2337", "web": "https://overflowbeer.com/", "index_s": null, "index_l": 0.0, "trek": "Bike" }, "geometry": { "type": "Point", "coordinates": [ -75.669266600001407, 45.375947400002801 ] } },
{ "type": "Feature", "properties": { "id": 260, "name": "Paris Beer Company", "addr": "31 Mechanic Street", "phone": "(519) 442-4447", "web": "https://www.parisbrewing.com/", "index_s": null, "index_l": null, "trek": "Neither" }, "geometry": { "type": "Point", "coordinates": [ -80.385089100001665, 43.191860000002805 ] } },
{ "type": "Feature", "properties": { "id": 261, "name": "Parsons Brewing Company", "addr": "876 County Road 49", "phone": "(613) 476-9977", "web": "https://www.parsonsbrewing.com/", "index_s": null, "index_l": null, "trek": "Neither" }, "geometry": { "type": "Point", "coordinates": [ -77.139876800001488, 44.036267800002825 ] } },
{ "type": "Feature", "properties": { "id": 262, "name": "Passage Brewery", "addr": "285 Maple Street", "phone": null, "web": "https://passagebrewery.com/", "index_s": null, "index_l": null, "trek": "Neither" }, "geometry": { "type": "Point", "coordinates": [ -80.218820400001661, 44.496074400002726 ] } },
{ "type": "Feature", "properties": { "id": 263, "name": "Peel St. Beverage Company", "addr": "68 Huron Street", "phone": "(226) 241-9922", "web": "https://www.peelstbevco.com/", "index_s": null, "index_l": null, "trek": "Neither" }, "geometry": { "type": "Point", "coordinates": [ -80.71093170000168, 43.378400400002789 ] } },
{ "type": "Feature", "properties": { "id": 264, "name": "Pepperwood Bistro", "addr": "1455 Lakeshore Road", "phone": "(905) 333-6999", "web": "https://pepperwood.on.ca/", "index_s": null, "index_l": 0.0, "trek": "Bike" }, "geometry": { "type": "Point", "coordinates": [ -79.797360500001616, 43.324362600002807 ] } },
{ "type": "Feature", "properties": { "id": 265, "name": "Perth Brewery", "addr": "121 Dufferin Street, Hwy 7", "phone": "(613) 264-1087", "web": "https://www.perthbrewery.ca/", "index_s": null, "index_l": null, "trek": "Neither" }, "geometry": { "type": "Point", "coordinates": [ -76.270173000001435, 44.906766300002836 ] } },
{ "type": "Feature", "properties": { "id": 266, "name": "Point Brewing Company Inc", "addr": "705 Lite Street", "phone": "(519) 333-7904", "web": "https://pointbrewing.ca/", "index_s": null, "index_l": null, "trek": "Neither" }, "geometry": { "type": "Point", "coordinates": [ -82.405717900001761, 42.99064900000274 ] } },
{ "type": "Feature", "properties": { "id": 267, "name": "Powerhouse Brewing Company", "addr": "100 Kellogg Lane", "phone": "(226) 667-4536", "web": "https://powerhousebrewery.beer/", "index_s": null, "index_l": 0.0, "trek": "Bike" }, "geometry": { "type": "Point", "coordinates": [ -81.214061600001699, 42.992235000002765 ] } },
{ "type": "Feature", "properties": { "id": 268, "name": "Prince Eddy'S Brewing Company", "addr": "13 MacSteven Drive", "phone": "(613) 476-2253", "web": "http://www.princeeddys.com/", "index_s": null, "index_l": null, "trek": "Neither" }, "geometry": { "type": "Point", "coordinates": [ -77.145979400001494, 44.015511400002858 ] } },
{ "type": "Feature", "properties": { "id": 269, "name": "Prospector Brewhouse", "addr": "27 Cumberland Street", "phone": "(807) 345-5833", "web": "https://prospectorsteakhouse.com/", "index_s": null, "index_l": null, "trek": "Neither" }, "geometry": { "type": "Point", "coordinates": [ -89.218018500001961, 48.435805300002208 ] } },
{ "type": "Feature", "properties": { "id": 270, "name": "Publican House Brewery", "addr": "300 Charlotte Street", "phone": "(705) 874-5743", "web": "https://www.publicanhouse.com/", "index_s": null, "index_l": 0.0, "trek": "Bike" }, "geometry": { "type": "Point", "coordinates": [ -78.326151900001562, 44.303300300002789 ] } },
{ "type": "Feature", "properties": { "id": 271, "name": "Quayle'S Brewery", "addr": "4567 Line 12 North", "phone": "(705) 298-0204", "web": "https://quaylesbrewery.ca/", "index_s": null, "index_l": null, "trek": "Neither" }, "geometry": { "type": "Point", "coordinates": [ -79.57830190000162, 44.65252540000273 ] } },
{ "type": "Feature", "properties": { "id": 272, "name": "Quetico Brewing Company", "addr": "Banning Lake Road", "phone": "(807) 947-2391", "web": "https://www.queticobrewingcompany.com/", "index_s": null, "index_l": null, "trek": "Neither" }, "geometry": { "type": "Point", "coordinates": [ -91.960998500001992, 48.736854500002039 ] } },
{ "type": "Feature", "properties": { "id": 273, "name": "Radical Road Brewing Company", "addr": "1177 Queen Street East", "phone": "(647) 794-7909", "web": "https://www.radicalroadbrew.com/", "index_s": null, "index_l": 0.0, "trek": "Bike" }, "geometry": { "type": "Point", "coordinates": [ -79.332407300001606, 43.662560600002791 ] } },
{ "type": "Feature", "properties": { "id": 274, "name": "Railway City Brewing Company", "addr": "130 Edward Street", "phone": "(519) 631-1881", "web": "https://www.railwaycitybrewing.com/", "index_s": null, "index_l": null, "trek": "Neither" }, "geometry": { "type": "Point", "coordinates": [ -81.169572700001694, 42.786278500002773 ] } },
{ "type": "Feature", "properties": { "id": 275, "name": "Rainhard Brewing Company", "addr": "100 Symes Road Unit 108", "phone": "(416) 763-2337", "web": "https://rainhardbrewing.com/", "index_s": null, "index_l": 0.0, "trek": "Bike" }, "geometry": { "type": "Point", "coordinates": [ -79.479009500001609, 43.672606300002769 ] } },
{ "type": "Feature", "properties": { "id": 276, "name": "Ramblin' Road", "addr": "2970 Swimming Pool Road", "phone": "(519) 582-1444", "web": "http://www.ramblinroad.ca/", "index_s": null, "index_l": null, "trek": "Neither" }, "geometry": { "type": "Point", "coordinates": [ -80.505580000001657, 42.884940000002821 ] } },
{ "type": "Feature", "properties": { "id": 277, "name": "Red Barn Brewing Company", "addr": "20466 Lagoon Road", "phone": "(226) 229-0918", "web": "https://www.redbarnbrewing.com/", "index_s": null, "index_l": null, "trek": "Neither" }, "geometry": { "type": "Point", "coordinates": [ -82.052413900001753, 42.331695500002787 ] } },
{ "type": "Feature", "properties": { "id": 278, "name": "Red Tape Brewery", "addr": "159 Main Street", "phone": "(416) 690-0007", "web": "https://www.redtapebrewery.com/", "index_s": 0.0, "index_l": 0.0, "trek": "Bike and Transit" }, "geometry": { "type": "Point", "coordinates": [ -79.299907400001601, 43.683725400002778 ] } },
{ "type": "Feature", "properties": { "id": 279, "name": "Refined Fool Brewing Company - Downtown", "addr": "137 Davis Street", "phone": "(519) 704-1335", "web": "https://www.refinedfool.com/", "index_s": null, "index_l": null, "trek": "Neither" }, "geometry": { "type": "Point", "coordinates": [ -82.407314700001763, 42.970578500002745 ] } },
{ "type": "Feature", "properties": { "id": 280, "name": "Refined Fool Brewing Company - Sports Bar", "addr": "1326 London Road", "phone": "(519) 704-1665", "web": "https://www.refinedfool.com/", "index_s": null, "index_l": null, "trek": "Neither" }, "geometry": { "type": "Point", "coordinates": [ -82.357035700001745, 42.980387400002712 ] } },
{ "type": "Feature", "properties": { "id": 281, "name": "Ridge Rock Brewing Company", "addr": "421 Donald B. Munro Drive", "phone": "(613) 470-2337", "web": "https://ridgerockbrewco.ca/", "index_s": null, "index_l": 0.0, "trek": "Bike" }, "geometry": { "type": "Point", "coordinates": [ -76.035116700001424, 45.344249700002791 ] } },
{ "type": "Feature", "properties": { "id": 282, "name": "River Run Brew Co", "addr": "146 Christina Street North", "phone": "(519) 312-9511", "web": "https://riverrunbrewco.com/", "index_s": null, "index_l": null, "trek": "Neither" }, "geometry": { "type": "Point", "coordinates": [ -82.407049900001766, 42.972030500002752 ] } },
{ "type": "Feature", "properties": { "id": 283, "name": "Riverhead Brewing Company", "addr": "631 Fortune Crescent", "phone": "(613) 384-2337", "web": "https://www.riverheadbrewing.com/", "index_s": null, "index_l": 0.0, "trek": "Bike" }, "geometry": { "type": "Point", "coordinates": [ -76.567488300001443, 44.273065000002852 ] } },
{ "type": "Feature", "properties": { "id": 284, "name": "Rorschach Brewing Co", "addr": "1001 Eastern Avenue", "phone": "(416) 901-3233", "web": "https://www.rorschachbrewing.com/", "index_s": null, "index_l": 0.0, "trek": "Bike" }, "geometry": { "type": "Point", "coordinates": [ -79.319893500001612, 43.663427500002797 ] } },
{ "type": "Feature", "properties": { "id": 285, "name": "Rose City Beer Works", "addr": "888 Erie Street East", "phone": null, "web": "https://rosecitybeerworks.ca/", "index_s": null, "index_l": 0.0, "trek": "Bike" }, "geometry": { "type": "Point", "coordinates": [ -83.021040700001777, 42.313614700002752 ] } },
{ "type": "Feature", "properties": { "id": 286, "name": "Rouge River Brewing Company", "addr": "50 Bullock Drive,  Unit 8", "phone": "(905) 209-1236", "web": "https://www.rougeriverbrewingcompany.com/", "index_s": 0.0, "index_l": 0.0, "trek": "Bike and Transit" }, "geometry": { "type": "Point", "coordinates": [ -79.266113600001603, 43.878890700002778 ] } },
{ "type": "Feature", "properties": { "id": 287, "name": "Royal City Brewing Company", "addr": "199 Victoria Road South Unit C8", "phone": "(888) 485-2739", "web": "https://royalcitybrew.ca/", "index_s": null, "index_l": 0.0, "trek": "Bike" }, "geometry": { "type": "Point", "coordinates": [ -80.224946000001651, 43.55230700000277 ] } },
{ "type": "Feature", "properties": { "id": 288, "name": "Rural Roots Brewing Company", "addr": "21B Industrial Drive", "phone": "(519) 210-2102", "web": "https://ruralrootsbrewery.ca/", "index_s": null, "index_l": null, "trek": "Neither" }, "geometry": { "type": "Point", "coordinates": [ -80.560326700001667, 43.589028500002762 ] } },
{ "type": "Feature", "properties": { "id": 289, "name": "Rurban Brewing", "addr": "412 Cumberland Street", "phone": "(613) 360-0661", "web": "http://www.rurbanbrewing.com/", "index_s": null, "index_l": 0.0, "trek": "Bike" }, "geometry": { "type": "Point", "coordinates": [ -74.739444400001346, 45.019444400002833 ] } },
{ "type": "Feature", "properties": { "id": 290, "name": "Rusty Wrench Brewing Company", "addr": "9 Front Street West", "phone": "(226) 448-9081", "web": "http://www.rustywrench.ca/", "index_s": null, "index_l": null, "trek": "Neither" }, "geometry": { "type": "Point", "coordinates": [ -81.624717700001725, 42.95846930000274 ] } },
{ "type": "Feature", "properties": { "id": 291, "name": "Sandwich Brewing Company", "addr": "3232 Sandwich Street", "phone": "(519) 800-2019", "web": "https://sandwichbrewing.com/", "index_s": null, "index_l": 0.0, "trek": "Bike" }, "geometry": { "type": "Point", "coordinates": [ -83.076487400001795, 42.301553500002768 ] } },
{ "type": "Feature", "properties": { "id": 292, "name": "Sassy Britches", "addr": "111 Sherwood Dr #4, Brantford", "phone": null, "web": null, "index_s": null, "index_l": null, "trek": "Neither" }, "geometry": { "type": "Point", "coordinates": [ -80.279158900001647, 43.133174200002799 ] } },
{ "type": "Feature", "properties": { "id": 293, "name": "Saulter Street Brewery", "addr": "31 Saulter Street #1", "phone": "(416) 463-9379", "web": "https://www.saulterstreetbrewery.ca/", "index_s": null, "index_l": 0.0, "trek": "Bike" }, "geometry": { "type": "Point", "coordinates": [ -79.346534400001602, 43.658026300002795 ] } },
{ "type": "Feature", "properties": { "id": 294, "name": "Sawdust City Brewing Company", "addr": "397 Muskoka Road North", "phone": "(705) 681-1100", "web": "https://www.sawdustcitybrewing.com/", "index_s": null, "index_l": null, "trek": "Neither" }, "geometry": { "type": "Point", "coordinates": [ -79.375435900001605, 44.921921400002731 ] } },
{ "type": "Feature", "properties": { "id": 295, "name": "Schooner Street Brewing", "addr": "200 Bathurst Drive", "phone": "(519) 500-6766", "web": "https://schoonerstreet.com/", "index_s": null, "index_l": 0.0, "trek": "Bike" }, "geometry": { "type": "Point", "coordinates": [ -80.528759500001669, 43.512448600002777 ] } },
{ "type": "Feature", "properties": { "id": 296, "name": "The Second Wedge Brewing Company", "addr": "14 Victoria Street", "phone": "(905) 852-3232", "web": "https://thesecondwedge.ca/", "index_s": null, "index_l": null, "trek": "Neither" }, "geometry": { "type": "Point", "coordinates": [ -79.1264083000016, 44.109400500002778 ] } },
{ "type": "Feature", "properties": { "id": 297, "name": "Shacklands Brewing Company", "addr": "100 Symes Road, Unit 101", "phone": "(416) 763-2424", "web": "http://www.shacklands.com/", "index_s": null, "index_l": 0.0, "trek": "Bike" }, "geometry": { "type": "Point", "coordinates": [ -79.478459000001621, 43.672387000002779 ] } },
{ "type": "Feature", "properties": { "id": 298, "name": "Shakespeare Brewing Company", "addr": "2178 Line 34", "phone": "(519) 777-5469", "web": "https://shakespearebrewingcompany.ca/", "index_s": null, "index_l": null, "trek": "Neither" }, "geometry": { "type": "Point", "coordinates": [ -80.834373500001675, 43.370043300002763 ] } },
{ "type": "Feature", "properties": { "id": 299, "name": "Shawn & Ed Brewing Company", "addr": "65 Hatt Street", "phone": "(289) 238-9979", "web": "http://lagershed.com/", "index_s": null, "index_l": 0.0, "trek": "Bike" }, "geometry": { "type": "Point", "coordinates": [ -79.957711700001653, 43.265899100002798 ] } },
{ "type": "Feature", "properties": { "id": 300, "name": "Shillow Beer Company", "addr": "1458 Cyrville Road", "phone": "(613) 695-9550", "web": "http://www.shillowbeer.com/", "index_s": null, "index_l": 0.0, "trek": "Bike" }, "geometry": { "type": "Point", "coordinates": [ -75.620183000001404, 45.419740600002797 ] } },
{ "type": "Feature", "properties": { "id": 301, "name": "Short Finger Brewing Company", "addr": "20 Hurst Avenue", "phone": "(226) 647-7322", "web": "https://shortfingerbrewing.com/", "index_s": 0.0, "index_l": 0.0, "trek": "Bike and Transit" }, "geometry": { "type": "Point", "coordinates": [ -80.480190500001669, 43.440831600002788 ] } },
{ "type": "Feature", "properties": { "id": 302, "name": "Side Launch Brewing Company Inc", "addr": "200 Mountain Road, Unit 1", "phone": "(705) 293-5511", "web": "https://www.sidelaunchbrewing.com/", "index_s": null, "index_l": null, "trek": "Neither" }, "geometry": { "type": "Point", "coordinates": [ -80.249038600001654, 44.498596100002736 ] } },
{ "type": "Feature", "properties": { "id": 303, "name": "Signal Brewing Company", "addr": "86-87 River Road", "phone": "(613) 779-8633", "web": "https://spearheadbeer.com/pages/signal-bp-shi", "index_s": null, "index_l": 0.0, "trek": "Bike" }, "geometry": { "type": "Point", "coordinates": [ -77.387575200001507, 44.219018200002822 ] } },
{ "type": "Feature", "properties": { "id": 304, "name": "The Silversmith Brewing Company - Etobicoke", "addr": "75 Horner Avenue", "phone": "(416) 252-2739", "web": "https://www.silversmithbrewing.com/", "index_s": null, "index_l": null, "trek": "Neither" },