{
"type": "FeatureCollection",
"name": "ontario_stations",
"crs": { "type": "name", "properties": { "name": "urn:ogc:def:crs:OGC:1.3:CRS84" } },
"features": [
{ "type": "Feature", "properties": { "LOCATION_N": "Creditstone", "STATUS": "Existing", "TECHNOLOGY": "BRT", "NAME": "Highway 7 West BRT" }, "geometry": { "type": "Point", "coordinates": [ -79.51778229820188, 43.795728616119838 ] } },
{ "type": "Feature", "properties": { "LOCATION_N": "Keele", "STATUS": "Existing", "TECHNOLOGY": "BRT", "NAME": "Highway 7 West BRT" }, "geometry": { "type": "Point", "coordinates": [ -79.499413566859104, 43.800328712214913 ] } },
{ "type": "Feature", "properties": { "LOCATION_N": "Eagle", "STATUS": "Existing", "TECHNOLOGY": "BRT", "NAME": "Yonge North BRT" }, "geometry": { "type": "Point", "coordinates": [ -79.478163051467746, 44.045444553574136 ] } },
{ "type": "Feature", "properties": { "LOCATION_N": "Mulock", "STATUS": "Existing", "TECHNOLOGY": "BRT", "NAME": "Yonge North BRT" }, "geometry": { "type": "Point", "coordinates": [ -79.476038150625328, 44.036295652207684 ] } },
{ "type": "Feature", "properties": { "LOCATION_N": "19th-Gamble", "STATUS": "Existing", "TECHNOLOGY": "BRT", "NAME": "Yonge South BRT" }, "geometry": { "type": "Point", "coordinates": [ -79.44578099803951, 43.907898306022943 ] } },
{ "type": "Feature", "properties": { "LOCATION_N": "Major Mackenzie", "STATUS": "Existing", "TECHNOLOGY": "BRT", "NAME": "Yonge South BRT" }, "geometry": { "type": "Point", "coordinates": [ -79.437217593646679, 43.871290175050483 ] } },
{ "type": "Feature", "properties": { "LOCATION_N": "Elgin Mills", "STATUS": "Existing", "TECHNOLOGY": "BRT", "NAME": "Yonge South BRT" }, "geometry": { "type": "Point", "coordinates": [ -79.441417851306653, 43.889625197079994 ] } },
{ "type": "Feature", "properties": { "LOCATION_N": "Bernard", "STATUS": "Existing", "TECHNOLOGY": "BRT", "NAME": "Yonge South BRT" }, "geometry": { "type": "Point", "coordinates": [ -79.444083299672712, 43.900789575618973 ] } },
{ "type": "Feature", "properties": { "LOCATION_N": "Bantry-Scott", "STATUS": "Existing", "TECHNOLOGY": "BRT", "NAME": "Yonge South BRT" }, "geometry": { "type": "Point", "coordinates": [ -79.431407716486049, 43.846401622024018 ] } },
{ "type": "Feature", "properties": { "LOCATION_N": "16th-Carrville", "STATUS": "Existing", "TECHNOLOGY": "BRT", "NAME": "Yonge South BRT" }, "geometry": { "type": "Point", "coordinates": [ -79.432976526036455, 43.853124180382608 ] } },
{ "type": "Feature", "properties": { "LOCATION_N": "Weldrick", "STATUS": "Existing", "TECHNOLOGY": "BRT", "NAME": "Yonge South BRT" }, "geometry": { "type": "Point", "coordinates": [ -79.435381001398682, 43.863424752592962 ] } },
{ "type": "Feature", "properties": { "LOCATION_N": "Bathurst/Hwy 7", "STATUS": "Existing", "TECHNOLOGY": "BRT", "NAME": "Highway 7 West BRT" }, "geometry": { "type": "Point", "coordinates": [ -79.454365172691126, 43.832116266133468 ] } },
{ "type": "Feature", "properties": { "LOCATION_N": "Atkinson", "STATUS": "Existing", "TECHNOLOGY": "BRT", "NAME": "Highway 7 West BRT" }, "geometry": { "type": "Point", "coordinates": [ -79.451553670758486, 43.817291214010439 ] } },
{ "type": "Feature", "properties": { "LOCATION_N": "Disera-Promenade", "STATUS": "Existing", "TECHNOLOGY": "BRT", "NAME": "Highway 7 West BRT" }, "geometry": { "type": "Point", "coordinates": [ -79.45370999826406, 43.810157037442991 ] } },
{ "type": "Feature", "properties": { "LOCATION_N": "Taiga", "STATUS": "Existing", "TECHNOLOGY": "BRT", "NAME": "Highway 7 West BRT" }, "geometry": { "type": "Point", "coordinates": [ -79.461052148040764, 43.8085949428161 ] } },
{ "type": "Feature", "properties": { "LOCATION_N": "Dufferin", "STATUS": "Existing", "TECHNOLOGY": "BRT", "NAME": "Highway 7 West BRT" }, "geometry": { "type": "Point", "coordinates": [ -79.474576376340934, 43.805650810440753 ] } },
{ "type": "Feature", "properties": { "LOCATION_N": "Commerce", "STATUS": "Existing", "TECHNOLOGY": "BRT", "NAME": "Highway 7 West BRT" }, "geometry": { "type": "Point", "coordinates": [ -79.533714807067923, 43.792160820581209 ] } },
{ "type": "Feature", "properties": { "LOCATION_N": "Weston", "STATUS": "Existing", "TECHNOLOGY": "BRT", "NAME": "Highway 7 West BRT" }, "geometry": { "type": "Point", "coordinates": [ -79.547575452932946, 43.789376247067338 ] } },
{ "type": "Feature", "properties": { "LOCATION_N": "Pine Valley", "STATUS": "Existing", "TECHNOLOGY": "BRT", "NAME": "Highway 7 West BRT" }, "geometry": { "type": "Point", "coordinates": [ -79.573103755919334, 43.78416803180621 ] } },
{ "type": "Feature", "properties": { "LOCATION_N": "Ansley Grove", "STATUS": "Existing", "TECHNOLOGY": "BRT", "NAME": "Highway 7 West BRT" }, "geometry": { "type": "Point", "coordinates": [ -79.560009407064456, 43.786809103650931 ] } },
{ "type": "Feature", "properties": { "LOCATION_N": "Wigwoss-Helen", "STATUS": "Existing", "TECHNOLOGY": "BRT", "NAME": "Highway 7 West BRT" }, "geometry": { "type": "Point", "coordinates": [ -79.579702581315274, 43.782717896840992 ] } },
{ "type": "Feature", "properties": { "LOCATION_N": "Southlake", "STATUS": "Existing", "TECHNOLOGY": "BRT", "NAME": "Davis Drive BRT" }, "geometry": { "type": "Point", "coordinates": [ -79.4526442005142, 44.0610678761863 ] } },
{ "type": "Feature", "properties": { "LOCATION_N": "Main", "STATUS": "Existing", "TECHNOLOGY": "BRT", "NAME": "Davis Drive BRT" }, "geometry": { "type": "Point", "coordinates": [ -79.461197095246277, 44.059143754375746 ] } },
{ "type": "Feature", "properties": { "LOCATION_N": "Longford", "STATUS": "Existing", "TECHNOLOGY": "BRT", "NAME": "Davis Drive BRT" }, "geometry": { "type": "Point", "coordinates": [ -79.472059141820012, 44.056703629574741 ] } },
{ "type": "Feature", "properties": { "LOCATION_N": "Yonge/Davis", "STATUS": "Existing", "TECHNOLOGY": "BRT", "NAME": "Davis Drive BRT" }, "geometry": { "type": "Point", "coordinates": [ -79.480359462824595, 44.054794401893339 ] } },
{ "type": "Feature", "properties": { "LOCATION_N": "Bayview", "STATUS": "Existing", "TECHNOLOGY": "BRT", "NAME": "Highway 7 East BRT" }, "geometry": { "type": "Point", "coordinates": [ -79.40543220531768, 43.840091809950913 ] } },
{ "type": "Feature", "properties": { "LOCATION_N": "Chalmers", "STATUS": "Existing", "TECHNOLOGY": "BRT", "NAME": "Highway 7 East BRT" }, "geometry": { "type": "Point", "coordinates": [ -79.39830292916902, 43.840712147005313 ] } },
{ "type": "Feature", "properties": { "LOCATION_N": "Valleymede", "STATUS": "Existing", "TECHNOLOGY": "BRT", "NAME": "Highway 7 East BRT" }, "geometry": { "type": "Point", "coordinates": [ -79.391747705537881, 43.842169223922191 ] } },
{ "type": "Feature", "properties": { "LOCATION_N": "West Beaver Creek", "STATUS": "Existing", "TECHNOLOGY": "BRT", "NAME": "Highway 7 East BRT" }, "geometry": { "type": "Point", "coordinates": [ -79.386522504178302, 43.843354323644782 ] } },
{ "type": "Feature", "properties": { "LOCATION_N": "Leslie", "STATUS": "Existing", "TECHNOLOGY": "BRT", "NAME": "Highway 7 East BRT" }, "geometry": { "type": "Point", "coordinates": [ -79.382275001763716, 43.844333623083777 ] } },
{ "type": "Feature", "properties": { "LOCATION_N": "East Beaver Creek", "STATUS": "Existing", "TECHNOLOGY": "BRT", "NAME": "Highway 7 East BRT" }, "geometry": { "type": "Point", "coordinates": [ -79.37799217896999, 43.845385562403592 ] } },
{ "type": "Feature", "properties": { "LOCATION_N": "Allstate Parkway", "STATUS": "Existing", "TECHNOLOGY": "BRT", "NAME": "Highway 7 East BRT" }, "geometry": { "type": "Point", "coordinates": [ -79.36381964520551, 43.848657535664486 ] } },
{ "type": "Feature", "properties": { "LOCATION_N": "Woodbine", "STATUS": "Existing", "TECHNOLOGY": "BRT", "NAME": "Highway 7 East BRT" }, "geometry": { "type": "Point", "coordinates": [ -79.358872554887526, 43.849750476985157 ] } },
{ "type": "Feature", "properties": { "LOCATION_N": "Montgomery", "STATUS": "Existing", "TECHNOLOGY": "BRT", "NAME": "Highway 7 East BRT" }, "geometry": { "type": "Point", "coordinates": [ -79.352004576992357, 43.85116859831431 ] } },
{ "type": "Feature", "properties": { "LOCATION_N": "Town Centre Blvd.", "STATUS": "Existing", "TECHNOLOGY": "BRT", "NAME": "Highway 7 East BRT" }, "geometry": { "type": "Point", "coordinates": [ -79.339284064466327, 43.854149245144768 ] } },
{ "type": "Feature", "properties": { "LOCATION_N": "Cedarland", "STATUS": "Existing", "TECHNOLOGY": "BRT", "NAME": "Highway 7 East BRT" }, "geometry": { "type": "Point", "coordinates": [ -79.337146359847765, 43.851219324146285 ] } },
{ "type": "Feature", "properties": { "LOCATION_N": "Warden", "STATUS": "Existing", "TECHNOLOGY": "BRT", "NAME": "Highway 7 East BRT" }, "geometry": { "type": "Point", "coordinates": [ -79.331369557944768, 43.848886625171055 ] } },
{ "type": "Feature", "properties": { "LOCATION_N": "Kipling", "STATUS": "Existing", "TECHNOLOGY": "Subway", "NAME": "Line 2: Bloor-Danforth Subway" }, "geometry": { "type": "Point", "coordinates": [ -79.536279963741521, 43.636943838354725 ] } },
{ "type": "Feature", "properties": { "LOCATION_N": "Islington", "STATUS": "Existing", "TECHNOLOGY": "Subway", "NAME": "Line 2: Bloor-Danforth Subway" }, "geometry": { "type": "Point", "coordinates": [ -79.524597445767355, 43.645333277840514 ] } },
{ "type": "Feature", "properties": { "LOCATION_N": "Royal York", "STATUS": "Existing", "TECHNOLOGY": "Subway", "NAME": "Line 2: Bloor-Danforth Subway" }, "geometry": { "type": "Point", "coordinates": [ -79.511289493304702, 43.648122856760224 ] } },
{ "type": "Feature", "properties": { "LOCATION_N": "Old Mill", "STATUS": "Existing", "TECHNOLOGY": "Subway", "NAME": "Line 2: Bloor-Danforth Subway" }, "geometry": { "type": "Point", "coordinates": [ -79.495093795216789, 43.65008319618849 ] } },
{ "type": "Feature", "properties": { "LOCATION_N": "Jane", "STATUS": "Existing", "TECHNOLOGY": "Subway", "NAME": "Line 2: Bloor-Danforth Subway" }, "geometry": { "type": "Point", "coordinates": [ -79.484462859106955, 43.649795825091829 ] } },
{ "type": "Feature", "properties": { "LOCATION_N": "Runnymede", "STATUS": "Existing", "TECHNOLOGY": "Subway", "NAME": "Line 2: Bloor-Danforth Subway" }, "geometry": { "type": "Point", "coordinates": [ -79.476207523689268, 43.651663652330654 ] } },
{ "type": "Feature", "properties": { "LOCATION_N": "High Park", "STATUS": "Existing", "TECHNOLOGY": "Subway", "NAME": "Line 2: Bloor-Danforth Subway" }, "geometry": { "type": "Point", "coordinates": [ -79.466224313487942, 43.654058700220723 ] } },
{ "type": "Feature", "properties": { "LOCATION_N": "Keele", "STATUS": "Existing", "TECHNOLOGY": "Subway", "NAME": "Line 2: Bloor-Danforth Subway" }, "geometry": { "type": "Point", "coordinates": [ -79.459854210308876, 43.655475281406979 ] } },
{ "type": "Feature", "properties": { "LOCATION_N": "Dundas West", "STATUS": "Existing", "TECHNOLOGY": "Subway", "NAME": "Line 2: Bloor-Danforth Subway" }, "geometry": { "type": "Point", "coordinates": [ -79.452411936657001, 43.657180866306476 ] } },
{ "type": "Feature", "properties": { "LOCATION_N": "Lansdowne", "STATUS": "Existing", "TECHNOLOGY": "Subway", "NAME": "Line 2: Bloor-Danforth Subway" }, "geometry": { "type": "Point", "coordinates": [ -79.442623876659624, 43.659126637717989 ] } },
{ "type": "Feature", "properties": { "LOCATION_N": "Dufferin", "STATUS": "Existing", "TECHNOLOGY": "Subway", "NAME": "Line 2: Bloor-Danforth Subway" }, "geometry": { "type": "Point", "coordinates": [ -79.435489661887601, 43.660251222702996 ] } },
{ "type": "Feature", "properties": { "LOCATION_N": "Ossington", "STATUS": "Existing", "TECHNOLOGY": "Subway", "NAME": "Line 2: Bloor-Danforth Subway" }, "geometry": { "type": "Point", "coordinates": [ -79.425938496897444, 43.66242489538314 ] } },
{ "type": "Feature", "properties": { "LOCATION_N": "Christie", "STATUS": "Existing", "TECHNOLOGY": "Subway", "NAME": "Line 2: Bloor-Danforth Subway" }, "geometry": { "type": "Point", "coordinates": [ -79.41834650686539, 43.664077759308547 ] } },
{ "type": "Feature", "properties": { "LOCATION_N": "Bathurst", "STATUS": "Existing", "TECHNOLOGY": "Subway", "NAME": "Line 2: Bloor-Danforth Subway" }, "geometry": { "type": "Point", "coordinates": [ -79.411490508315779, 43.665725240415711 ] } },
{ "type": "Feature", "properties": { "LOCATION_N": "St. George", "STATUS": "Existing", "TECHNOLOGY": "Subway", "NAME": "Line 1: Yonge-University Subway" }, "geometry": { "type": "Point", "coordinates": [ -79.399307859293998, 43.668283547722076 ] } },
{ "type": "Feature", "properties": { "LOCATION_N": "Bay", "STATUS": "Existing", "TECHNOLOGY": "Subway", "NAME": "Line 2: Bloor-Danforth Subway" }, "geometry": { "type": "Point", "coordinates": [ -79.389869078057686, 43.670215070404041 ] } },
{ "type": "Feature", "properties": { "LOCATION_N": "Bloor-Yonge", "STATUS": "Existing", "TECHNOLOGY": "Subway", "NAME": "Line 1: Yonge-University Subway" }, "geometry": { "type": "Point", "coordinates": [ -79.385721340465992, 43.67100393805822 ] } },
{ "type": "Feature", "properties": { "LOCATION_N": "Sherbourne", "STATUS": "Existing", "TECHNOLOGY": "Subway", "NAME": "Line 2: Bloor-Danforth Subway" }, "geometry": { "type": "Point", "coordinates": [ -79.376846984196547, 43.672362493575612 ] } },
{ "type": "Feature", "properties": { "LOCATION_N": "Castle Frank", "STATUS": "Existing", "TECHNOLOGY": "Subway", "NAME": "Line 2: Bloor-Danforth Subway" }, "geometry": { "type": "Point", "coordinates": [ -79.368497458306265, 43.673867078739917 ] } },
{ "type": "Feature", "properties": { "LOCATION_N": "Broadview", "STATUS": "Existing", "TECHNOLOGY": "Subway", "NAME": "Line 2: Bloor-Danforth Subway" }, "geometry": { "type": "Point", "coordinates": [ -79.358787615475848, 43.676838512052591 ] } },
{ "type": "Feature", "properties": { "LOCATION_N": "Chester", "STATUS": "Existing", "TECHNOLOGY": "Subway", "NAME": "Line 2: Bloor-Danforth Subway" }, "geometry": { "type": "Point", "coordinates": [ -79.352258129375542, 43.678349976450662 ] } },
{ "type": "Feature", "properties": { "LOCATION_N": "Pape", "STATUS": "Existing", "TECHNOLOGY": "Subway", "NAME": "Line 2: Bloor-Danforth Subway" }, "geometry": { "type": "Point", "coordinates": [ -79.345177202270165, 43.67974099416643 ] } },
{ "type": "Feature", "properties": { "LOCATION_N": "Donlands", "STATUS": "Existing", "TECHNOLOGY": "Subway", "NAME": "Line 2: Bloor-Danforth Subway" }, "geometry": { "type": "Point", "coordinates": [ -79.337782945474416, 43.681184391224114 ] } },
{ "type": "Feature", "properties": { "LOCATION_N": "Greenwood", "STATUS": "Existing", "TECHNOLOGY": "Subway", "NAME": "Line 2: Bloor-Danforth Subway" }, "geometry": { "type": "Point", "coordinates": [ -79.330285118502601, 43.68281084196699 ] } },
{ "type": "Feature", "properties": { "LOCATION_N": "Coxwell", "STATUS": "Existing", "TECHNOLOGY": "Subway", "NAME": "Line 2: Bloor-Danforth Subway" }, "geometry": { "type": "Point", "coordinates": [ -79.323100387333085, 43.684332709952997 ] } },
{ "type": "Feature", "properties": { "LOCATION_N": "Woodbine", "STATUS": "Existing", "TECHNOLOGY": "Subway", "NAME": "Line 2: Bloor-Danforth Subway" }, "geometry": { "type": "Point", "coordinates": [ -79.312988532599377, 43.686549937079121 ] } },
{ "type": "Feature", "properties": { "LOCATION_N": "Main Street", "STATUS": "Existing", "TECHNOLOGY": "Subway", "NAME": "Line 2: Bloor-Danforth Subway" }, "geometry": { "type": "Point", "coordinates": [ -79.302015836230069, 43.688982285675884 ] } },
{ "type": "Feature", "properties": { "LOCATION_N": "Victoria Park", "STATUS": "Existing", "TECHNOLOGY": "Subway", "NAME": "Line 2: Bloor-Danforth Subway" }, "geometry": { "type": "Point", "coordinates": [ -79.289450037058316, 43.694621486879313 ] } },
{ "type": "Feature", "properties": { "LOCATION_N": "Warden", "STATUS": "Existing", "TECHNOLOGY": "Subway", "NAME": "Line 2: Bloor-Danforth Subway" }, "geometry": { "type": "Point", "coordinates": [ -79.279204972269468, 43.711186750072592 ] } },
{ "type": "Feature", "properties": { "LOCATION_N": "Kennedy", "STATUS": "Existing", "TECHNOLOGY": "Subway", "NAME": "Line 2: Bloor-Danforth Subway" }, "geometry": { "type": "Point", "coordinates": [ -79.264532363275194, 43.732266101735114 ] } },
{ "type": "Feature", "properties": { "LOCATION_N": "Union", "STATUS": "Existing", "TECHNOLOGY": "Subway", "NAME": "Line 1: Yonge-University Subway" }, "geometry": { "type": "Point", "coordinates": [ -79.379135559797618, 43.646021901663175 ] } },
{ "type": "Feature", "properties": { "LOCATION_N": "St. Andrew", "STATUS": "Existing", "TECHNOLOGY": "Subway", "NAME": "Line 1: Yonge-University Subway" }, "geometry": { "type": "Point", "coordinates": [ -79.384795646063822, 43.647662366214838 ] } },
{ "type": "Feature", "properties": { "LOCATION_N": "King", "STATUS": "Existing", "TECHNOLOGY": "Subway", "NAME": "Line 1: Yonge-University Subway" }, "geometry": { "type": "Point", "coordinates": [ -79.377907605213437, 43.649149352013737 ] } },
{ "type": "Feature", "properties": { "LOCATION_N": "Osgoode", "STATUS": "Existing", "TECHNOLOGY": "Subway", "NAME": "Line 1: Yonge-University Subway" }, "geometry": { "type": "Point", "coordinates": [ -79.386618655733713, 43.65085632718074 ] } },
{ "type": "Feature", "properties": { "LOCATION_N": "Queen", "STATUS": "Existing", "TECHNOLOGY": "Subway", "NAME": "Line 1: Yonge-University Subway" }, "geometry": { "type": "Point", "coordinates": [ -79.379256634250368, 43.652439240452445 ] } },
{ "type": "Feature", "properties": { "LOCATION_N": "St. Patrick", "STATUS": "Existing", "TECHNOLOGY": "Subway", "NAME": "Line 1: Yonge-University Subway" }, "geometry": { "type": "Point", "coordinates": [ -79.38830576848008, 43.654793900324933 ] } },
{ "type": "Feature", "properties": { "LOCATION_N": "Dundas", "STATUS": "Existing", "TECHNOLOGY": "Subway", "NAME": "Line 1: Yonge-University Subway" }, "geometry": { "type": "Point", "coordinates": [ -79.380914549357286, 43.656327401261152 ] } },
{ "type": "Feature", "properties": { "LOCATION_N": "Queen's Park", "STATUS": "Existing", "TECHNOLOGY": "Subway", "NAME": "Line 1: Yonge-University Subway" }, "geometry": { "type": "Point", "coordinates": [ -79.390466217022052, 43.65985799872778 ] } },
{ "type": "Feature", "properties": { "LOCATION_N": "College", "STATUS": "Existing", "TECHNOLOGY": "Subway", "NAME": "Line 1: Yonge-University Subway" }, "geometry": { "type": "Point", "coordinates": [ -79.383142532089423, 43.661453395902242 ] } },
{ "type": "Feature", "properties": { "LOCATION_N": "Wellesley", "STATUS": "Existing", "TECHNOLOGY": "Subway", "NAME": "Line 1: Yonge-University Subway" }, "geometry": { "type": "Point", "coordinates": [ -79.383527557422951, 43.665268428649341 ] } },
{ "type": "Feature", "properties": { "LOCATION_N": "Museum", "STATUS": "Existing", "TECHNOLOGY": "Subway", "NAME": "Line 1: Yonge-University Subway" }, "geometry": { "type": "Point", "coordinates": [ -79.393566344735774, 43.667368989978335 ] } },
{ "type": "Feature", "properties": { "LOCATION_N": "Rosedale", "STATUS": "Existing", "TECHNOLOGY": "Subway", "NAME": "Line 1: Yonge-University Subway" }, "geometry": { "type": "Point", "coordinates": [ -79.388524351915322, 43.677095901262064 ] } },
{ "type": "Feature", "properties": { "LOCATION_N": "Summerhill", "STATUS": "Existing", "TECHNOLOGY": "Subway", "NAME": "Line 1: Yonge-University Subway" }, "geometry": { "type": "Point", "coordinates": [ -79.39124599013212, 43.683342619032018 ] } },
{ "type": "Feature", "properties": { "LOCATION_N": "St. Clair", "STATUS": "Existing", "TECHNOLOGY": "Subway", "NAME": "Line 1: Yonge-University Subway" }, "geometry": { "type": "Point", "coordinates": [ -79.393400944710692, 43.688302583630509 ] } },
{ "type": "Feature", "properties": { "LOCATION_N": "Davisville", "STATUS": "Existing", "TECHNOLOGY": "Subway", "NAME": "Line 1: Yonge-University Subway" }, "geometry": { "type": "Point", "coordinates": [ -79.397267395405322, 43.697986518443258 ] } },
{ "type": "Feature", "properties": { "LOCATION_N": "Eglinton", "STATUS": "Existing", "TECHNOLOGY": "Subway", "NAME": "Line 1: Yonge-University Subway" }, "geometry": { "type": "Point", "coordinates": [ -79.398438168448877, 43.706726878677138 ] } },
{ "type": "Feature", "properties": { "LOCATION_N": "Lawrence", "STATUS": "Existing", "TECHNOLOGY": "Subway", "NAME": "Line 1: Yonge-University Subway" }, "geometry": { "type": "Point", "coordinates": [ -79.402178327991578, 43.724957385448903 ] } },
{ "type": "Feature", "properties": { "LOCATION_N": "York Mills", "STATUS": "Existing", "TECHNOLOGY": "Subway", "NAME": "Line 1: Yonge-University Subway" }, "geometry": { "type": "Point", "coordinates": [ -79.406201310683642, 43.744271469835184 ] } },
{ "type": "Feature", "properties": { "LOCATION_N": "Sheppard-Yonge", "STATUS": "Existing", "TECHNOLOGY": "Subway", "NAME": "Line 1: Yonge-University Subway" }, "geometry": { "type": "Point", "coordinates": [ -79.410923903091998, 43.761521806830551 ] } },
{ "type": "Feature", "properties": { "LOCATION_N": "North York Centre", "STATUS": "Existing", "TECHNOLOGY": "Subway", "NAME": "Line 1: Yonge-University Subway" }, "geometry": { "type": "Point", "coordinates": [ -79.412775578399476, 43.768840102252213 ] } },
{ "type": "Feature", "properties": { "LOCATION_N": "Finch", "STATUS": "Existing", "TECHNOLOGY": "Subway", "NAME": "Line 1: Yonge-University Subway" }, "geometry": { "type": "Point", "coordinates": [ -79.415570207680361, 43.779770611576801 ] } },
{ "type": "Feature", "properties": { "LOCATION_N": "Spadina", "STATUS": "Existing", "TECHNOLOGY": "Subway", "NAME": "Line 1: Yonge-University Subway" }, "geometry": { "type": "Point", "coordinates": [ -79.404762438573769, 43.668962141206592 ] } },
{ "type": "Feature", "properties": { "LOCATION_N": "Dupont", "STATUS": "Existing", "TECHNOLOGY": "Subway", "NAME": "Line 1: Yonge-University Subway" }, "geometry": { "type": "Point", "coordinates": [ -79.407110503437153, 43.674856393231401 ] } },
{ "type": "Feature", "properties": { "LOCATION_N": "St Clair West", "STATUS": "Existing", "TECHNOLOGY": "Subway", "NAME": "Line 1: Yonge-University Subway" }, "geometry": { "type": "Point", "coordinates": [ -79.415338886793123, 43.683823864125984 ] } },
{ "type": "Feature", "properties": { "LOCATION_N": "Eglinton West", "STATUS": "Existing", "TECHNOLOGY": "Subway", "NAME": "Line 1: Yonge-University Subway" }, "geometry": { "type": "Point", "coordinates": [ -79.435994637409749, 43.6988362449123 ] } },
{ "type": "Feature", "properties": { "LOCATION_N": "Glencairn", "STATUS": "Existing", "TECHNOLOGY": "Subway", "NAME": "Line 1: Yonge-University Subway" }, "geometry": { "type": "Point", "coordinates": [ -79.441182427505979, 43.709540531219574 ] } },
{ "type": "Feature", "properties": { "LOCATION_N": "Lawrence West", "STATUS": "Existing", "TECHNOLOGY": "Subway", "NAME": "Line 1: Yonge-University Subway" }, "geometry": { "type": "Point", "coordinates": [ -79.444189433775847, 43.716064609572726 ] } },
{ "type": "Feature", "properties": { "LOCATION_N": "Yorkdale", "STATUS": "Existing", "TECHNOLOGY": "Subway", "NAME": "Line 1: Yonge-University Subway" }, "geometry": { "type": "Point", "coordinates": [ -79.447868489772134, 43.725615657193629 ] } },
{ "type": "Feature", "properties": { "LOCATION_N": "Wilson", "STATUS": "Existing", "TECHNOLOGY": "Subway", "NAME": "Line 1: Yonge-University Subway" }, "geometry": { "type": "Point", "coordinates": [ -79.449920980694898, 43.734093180247037 ] } },
{ "type": "Feature", "properties": { "LOCATION_N": "Sheppard West", "STATUS": "Existing", "TECHNOLOGY": "Subway", "NAME": "Line 1: Yonge-University Subway" }, "geometry": { "type": "Point", "coordinates": [ -79.462475464169017, 43.750438450391414 ] } },
{ "type": "Feature", "properties": { "LOCATION_N": "Bayview", "STATUS": "Existing", "TECHNOLOGY": "Subway", "NAME": "Line 4: Sheppard Subway" }, "geometry": { "type": "Point", "coordinates": [ -79.387755742653312, 43.766663445395238 ] } },
{ "type": "Feature", "properties": { "LOCATION_N": "Bessarion", "STATUS": "Existing", "TECHNOLOGY": "Subway", "NAME": "Line 4: Sheppard Subway" }, "geometry": { "type": "Point", "coordinates": [ -79.376652369854668, 43.769193809223012 ] } },
{ "type": "Feature", "properties": { "LOCATION_N": "Leslie", "STATUS": "Existing", "TECHNOLOGY": "Subway", "NAME": "Line 4: Sheppard Subway" }, "geometry": { "type": "Point", "coordinates": [ -79.368136395932154, 43.771024496894618 ] } },
{ "type": "Feature", "properties": { "LOCATION_N": "Don Mills", "STATUS": "Existing", "TECHNOLOGY": "Subway", "NAME": "Line 4: Sheppard Subway" }, "geometry": { "type": "Point", "coordinates": [ -79.346976001746995, 43.775143626666697 ] } },
{ "type": "Feature", "properties": { "LOCATION_N": "Kennedy", "STATUS": "Existing", "TECHNOLOGY": "Subway (To Be Removed)", "NAME": "Line 3: Scarborough RT" }, "geometry": { "type": "Point", "coordinates": [ -79.264532363275194, 43.732266101735114 ] } },
{ "type": "Feature", "properties": { "LOCATION_N": "Lawrence East", "STATUS": "Existing", "TECHNOLOGY": "Subway (To Be Removed)", "NAME": "Line 3: Scarborough RT" }, "geometry": { "type": "Point", "coordinates": [ -79.270046889041637, 43.750502869872392 ] } },
{ "type": "Feature", "properties": { "LOCATION_N": "Ellesmere", "STATUS": "Existing", "TECHNOLOGY": "Subway (To Be Removed)", "NAME": "Line 3: Scarborough RT" }, "geometry": { "type": "Point", "coordinates": [ -79.276142138087408, 43.766874708646249 ] } },
{ "type": "Feature", "properties": { "LOCATION_N": "Midland", "STATUS": "Existing", "TECHNOLOGY": "Subway (To Be Removed)", "NAME": "Line 3: Scarborough RT" }, "geometry": { "type": "Point", "coordinates": [ -79.271987201968798, 43.770455070321958 ] } },
{ "type": "Feature", "properties": { "LOCATION_N": "Scarborough Town Centre", "STATUS": "Existing", "TECHNOLOGY": "Subway (To Be Removed)", "NAME": "Line 3: Scarborough RT" }, "geometry": { "type": "Point", "coordinates": [ -79.257855291037771, 43.774452266620763 ] } },
{ "type": "Feature", "properties": { "LOCATION_N": "McCowan", "STATUS": "Existing", "TECHNOLOGY": "Subway (To Be Removed)", "NAME": "Line 3: Scarborough RT" }, "geometry": { "type": "Point", "coordinates": [ -79.251603242190768, 43.774911568637933 ] } },
{ "type": "Feature", "properties": { "LOCATION_N": "Downsview Park", "STATUS": "Existing", "TECHNOLOGY": "Subway", "NAME": "Line 1: Yonge-University Subway" }, "geometry": { "type": "Point", "coordinates": [ -79.478333892742853, 43.753606512225382 ] } },
{ "type": "Feature", "properties": { "LOCATION_N": "Finch West", "STATUS": "Existing", "TECHNOLOGY": "Subway", "NAME": "Line 1: Yonge-University Subway" }, "geometry": { "type": "Point", "coordinates": [ -79.490986782053199, 43.763490496298999 ] } },
{ "type": "Feature", "properties": { "LOCATION_N": "York University", "STATUS": "Existing", "TECHNOLOGY": "Subway", "NAME": "Line 1: Yonge-University Subway" }, "geometry": { "type": "Point", "coordinates": [ -79.499644727595552, 43.77412869603959 ] } },
{ "type": "Feature", "properties": { "LOCATION_N": "Pioneer Village", "STATUS": "Existing", "TECHNOLOGY": "Subway", "NAME": "Line 1: Yonge-University Subway" }, "geometry": { "type": "Point", "coordinates": [ -79.511635307136203, 43.777522527029333 ] } },
{ "type": "Feature", "properties": { "LOCATION_N": "Highway 407", "STATUS": "Existing", "TECHNOLOGY": "Subway", "NAME": "Line 1: Yonge-University Subway" }, "geometry": { "type": "Point", "coordinates": [ -79.523236728128168, 43.783556163356252 ] } },
{ "type": "Feature", "properties": { "LOCATION_N": "Vaughan Metropolitan Centre", "STATUS": "Existing", "TECHNOLOGY": "Subway", "NAME": "Line 1: Yonge-University Subway" }, "geometry": { "type": "Point", "coordinates": [ -79.527273641238139, 43.793513826936689 ] } },
{ "type": "Feature", "properties": { "LOCATION_N": "Weston", "STATUS": "Existing", "TECHNOLOGY": "UP Express - 15-Min", "NAME": "UP Express" }, "geometry": { "type": "Point", "coordinates": [ -79.51107390346607, 43.699157245702871 ] } },
{ "type": "Feature", "properties": { "LOCATION_N": "Bloor", "STATUS": "Existing", "TECHNOLOGY": "UP Express - 15-Min", "NAME": "UP Express" }, "geometry": { "type": "Point", "coordinates": [ -79.451934733671905, 43.659026975981682 ] } },
{ "type": "Feature", "properties": { "LOCATION_N": "Union", "STATUS": "Existing", "TECHNOLOGY": "UP Express - 15-Min", "NAME": "UP Express" }, "geometry": { "type": "Point", "coordinates": [ -79.378656955982706, 43.644952304674689 ] } },
{ "type": "Feature", "properties": { "LOCATION_N": "Terminal 1", "STATUS": "Existing", "TECHNOLOGY": "UP Express - 15-Min", "NAME": "UP Express" }, "geometry": { "type": "Point", "coordinates": [ -79.613185710167556, 43.682765482436217 ] } },
{ "type": "Feature", "properties": { "LOCATION_N": "Erin Mills", "STATUS": "Existing", "TECHNOLOGY": "BRT", "NAME": "Mississauga Transitway" }, "geometry": { "type": "Point", "coordinates": [ -79.700096211276744, 43.552294551237921 ] } },
{ "type": "Feature", "properties": { "LOCATION_N": "Winston Churchill", "STATUS": "Existing", "TECHNOLOGY": "BRT", "NAME": "Mississauga Transitway" }, "geometry": { "type": "Point", "coordinates": [ -79.712203073402222, 43.542067807662541 ] } },
{ "type": "Feature", "properties": { "LOCATION_N": "Square One GO Bus terminal", "STATUS": "Existing", "TECHNOLOGY": "BRT", "NAME": "Mississauga Transitway" }, "geometry": { "type": "Point", "coordinates": [ -79.647118160536508, 43.594339815733328 ] } },
{ "type": "Feature", "properties": { "LOCATION_N": "Central Parkway", "STATUS": "Existing", "TECHNOLOGY": "BRT", "NAME": "Mississauga Transitway" }, "geometry": { "type": "Point", "coordinates": [ -79.635946061962471, 43.607958559126743 ] } },
{ "type": "Feature", "properties": { "LOCATION_N": "Cawthra", "STATUS": "Existing", "TECHNOLOGY": "BRT", "NAME": "Mississauga Transitway" }, "geometry": { "type": "Point", "coordinates": [ -79.628033962577135, 43.617243008129776 ] } },
{ "type": "Feature", "properties": { "LOCATION_N": "Tomken", "STATUS": "Existing", "TECHNOLOGY": "BRT", "NAME": "Mississauga Transitway" }, "geometry": { "type": "Point", "coordinates": [ -79.623701682459185, 43.621522283427659 ] } },
{ "type": "Feature", "properties": { "LOCATION_N": "Dixie", "STATUS": "Existing", "TECHNOLOGY": "BRT", "NAME": "Mississauga Transitway" }, "geometry": { "type": "Point", "coordinates": [ -79.614440380950029, 43.630205230349283 ] } },
{ "type": "Feature", "properties": { "LOCATION_N": "Tahoe", "STATUS": "Existing", "TECHNOLOGY": "BRT", "NAME": "Mississauga Transitway" }, "geometry": { "type": "Point", "coordinates": [ -79.61017027487614, 43.638790329812565 ] } },
{ "type": "Feature", "properties": { "LOCATION_N": "Etobicoke Creek", "STATUS": "Existing", "TECHNOLOGY": "BRT", "NAME": "Mississauga Transitway" }, "geometry": { "type": "Point", "coordinates": [ -79.611302252124162, 43.644562606827911 ] } },
{ "type": "Feature", "properties": { "LOCATION_N": "Spectrum", "STATUS": "Existing", "TECHNOLOGY": "BRT", "NAME": "Mississauga Transitway" }, "geometry": { "type": "Point", "coordinates": [ -79.606366262747528, 43.649193145950207 ] } },
{ "type": "Feature", "properties": { "LOCATION_N": "Renforth", "STATUS": "Existing", "TECHNOLOGY": "BRT", "NAME": "Mississauga Transitway" }, "geometry": { "type": "Point", "coordinates": [ -79.591461128418274, 43.662748908943463 ] } },
{ "type": "Feature", "properties": { "LOCATION_N": "Orbitor", "STATUS": "Existing", "TECHNOLOGY": "BRT", "NAME": "Mississauga Transitway" }, "geometry": { "type": "Point", "coordinates": [ -79.598427755000245, 43.656362816079636 ] } },
{ "type": "Feature", "properties": { "LOCATION_N": "Sheppard-Yonge", "STATUS": "Existing", "TECHNOLOGY": "Subway", "NAME": "Line 4: Sheppard Subway" }, "geometry": { "type": "Point", "coordinates": [ -79.410923903091998, 43.761521806830551 ] } },
{ "type": "Feature", "properties": { "LOCATION_N": "Spadina", "STATUS": "Existing", "TECHNOLOGY": "Subway", "NAME": "Line 2: Bloor-Danforth Subway" }, "geometry": { "type": "Point", "coordinates": [ -79.403973058014387, 43.667288970818561 ] } },
{ "type": "Feature", "properties": { "LOCATION_N": "St. George", "STATUS": "Existing", "TECHNOLOGY": "Subway", "NAME": "Line 2: Bloor-Danforth Subway" }, "geometry": { "type": "Point", "coordinates": [ -79.399307859293998, 43.668283547722076 ] } },
{ "type": "Feature", "properties": { "LOCATION_N": "Bloor-Yonge", "STATUS": "Existing", "TECHNOLOGY": "Subway", "NAME": "Line 2: Bloor-Danforth Subway" }, "geometry": { "type": "Point", "coordinates": [ -79.385721340465992, 43.67100393805822 ] } },
{ "type": "Feature", "properties": { "LOCATION_N": "Ajax", "STATUS": "Existing", "TECHNOLOGY": "GO Rail", "NAME": "Lakeshore East" }, "geometry": { "type": "Point", "coordinates": [ -79.042275123801687, 43.848061902647942 ] } },
{ "type": "Feature", "properties": { "LOCATION_N": "Whitby", "STATUS": "Existing", "TECHNOLOGY": "GO Rail", "NAME": "Lakeshore East" }, "geometry": { "type": "Point", "coordinates": [ -78.938219006338429, 43.864805384412293 ] } },
{ "type": "Feature", "properties": { "LOCATION_N": "Oshawa", "STATUS": "Existing", "TECHNOLOGY": "GO Rail", "NAME": "Lakeshore East" }, "geometry": { "type": "Point", "coordinates": [ -78.885055148473398, 43.870748652900716 ] } },
{ "type": "Feature", "properties": { "LOCATION_N": "Pickering", "STATUS": "Existing", "TECHNOLOGY": "GO Rail", "NAME": "Lakeshore East" }, "geometry": { "type": "Point", "coordinates": [ -79.084597244021893, 43.831615207573883 ] } },
{ "type": "Feature", "properties": { "LOCATION_N": "Danforth", "STATUS": "Existing", "TECHNOLOGY": "GO Rail", "NAME": "Lakeshore East" }, "geometry": { "type": "Point", "coordinates": [ -79.299049757127889, 43.686645619931923 ] } },
{ "type": "Feature", "properties": { "LOCATION_N": "Scarborough", "STATUS": "Existing", "TECHNOLOGY": "GO Rail", "NAME": "Lakeshore East" }, "geometry": { "type": "Point", "coordinates": [ -79.254829254195272, 43.717262021929706 ] } },
{ "type": "Feature", "properties": { "LOCATION_N": "Eglinton", "STATUS": "Existing", "TECHNOLOGY": "GO Rail", "NAME": "Lakeshore East" }, "geometry": { "type": "Point", "coordinates": [ -79.230612216728986, 43.740410974572626 ] } },
{ "type": "Feature", "properties": { "LOCATION_N": "Guildwood", "STATUS": "Existing", "TECHNOLOGY": "GO Rail", "NAME": "Lakeshore East" }, "geometry": { "type": "Point", "coordinates": [ -79.198087073795037, 43.754975186446224 ] } },
{ "type": "Feature", "properties": { "LOCATION_N": "Rouge Hill", "STATUS": "Existing", "TECHNOLOGY": "GO Rail", "NAME": "Lakeshore East" }, "geometry": { "type": "Point", "coordinates": [ -79.130658919214682, 43.779700643863556 ] } },
{ "type": "Feature", "properties": { "LOCATION_N": "Oriole", "STATUS": "Existing", "TECHNOLOGY": "GO Rail", "NAME": "Richmond Hill" }, "geometry": { "type": "Point", "coordinates": [ -79.365483248542517, 43.766572567439134 ] } },
{ "type": "Feature", "properties": { "LOCATION_N": "Old Cummer", "STATUS": "Existing", "TECHNOLOGY": "GO Rail", "NAME": "Richmond Hill" }, "geometry": { "type": "Point", "coordinates": [ -79.371358934596884, 43.792617550804223 ] } },
{ "type": "Feature", "properties": { "LOCATION_N": "Langstaff", "STATUS": "Existing", "TECHNOLOGY": "GO Rail", "NAME": "Richmond Hill" }, "geometry": { "type": "Point", "coordinates": [ -79.422450624421884, 43.837354549346124 ] } },
{ "type": "Feature", "properties": { "LOCATION_N": "Richmond Hill", "STATUS": "Existing", "TECHNOLOGY": "GO Rail", "NAME": "Richmond Hill" }, "geometry": { "type": "Point", "coordinates": [ -79.426259177169115, 43.873687815928221 ] } },
{ "type": "Feature", "properties": { "LOCATION_N": "Old Elm", "STATUS": "Existing", "TECHNOLOGY": "GO Rail", "NAME": "Stouffville" }, "geometry": { "type": "Point", "coordinates": [ -79.232418069885128, 43.998477555835699 ] } },
{ "type": "Feature", "properties": { "LOCATION_N": "Stouffville", "STATUS": "Existing", "TECHNOLOGY": "GO Rail", "NAME": "Stouffville" }, "geometry": { "type": "Point", "coordinates": [ -79.250060056937428, 43.972246578412857 ] } },
{ "type": "Feature", "properties": { "LOCATION_N": "Mount Joy", "STATUS": "Existing", "TECHNOLOGY": "GO Rail", "NAME": "Stouffville" }, "geometry": { "type": "Point", "coordinates": [ -79.263110250604399, 43.899349253703107 ] } },
{ "type": "Feature", "properties": { "LOCATION_N": "Markham", "STATUS": "Existing", "TECHNOLOGY": "GO Rail", "NAME": "Stouffville" }, "geometry": { "type": "Point", "coordinates": [ -79.262791464282543, 43.882347860849393 ] } },
{ "type": "Feature", "properties": { "LOCATION_N": "Centennial", "STATUS": "Existing", "TECHNOLOGY": "GO Rail", "NAME": "Stouffville" }, "geometry": { "type": "Point", "coordinates": [ -79.288577299822961, 43.87391801541991 ] } },
{ "type": "Feature", "properties": { "LOCATION_N": "Unionville", "STATUS": "Existing", "TECHNOLOGY": "GO Rail", "NAME": "Stouffville" }, "geometry": { "type": "Point", "coordinates": [ -79.314833041109296, 43.850934657062837 ] } },
{ "type": "Feature", "properties": { "LOCATION_N": "Milliken", "STATUS": "Existing", "TECHNOLOGY": "GO Rail", "NAME": "Stouffville" }, "geometry": { "type": "Point", "coordinates": [ -79.301460596080631, 43.823048603154454 ] } },
{ "type": "Feature", "properties": { "LOCATION_N": "Agincourt", "STATUS": "Existing", "TECHNOLOGY": "GO Rail", "NAME": "Stouffville" }, "geometry": { "type": "Point", "coordinates": [ -79.284372098001185, 43.786397036141643 ] } },
{ "type": "Feature", "properties": { "LOCATION_N": "Kennedy", "STATUS": "Existing", "TECHNOLOGY": "GO Rail", "NAME": "Stouffville" }, "geometry": { "type": "Point", "coordinates": [ -79.262699463404061, 43.73291262659513 ] } },
{ "type": "Feature", "properties": { "LOCATION_N": "Guelph", "STATUS": "Existing", "TECHNOLOGY": "GO Rail", "NAME": "Kitchener" }, "geometry": { "type": "Point", "coordinates": [ -80.245790635626136, 43.545130766935905 ] } },
{ "type": "Feature", "properties": { "LOCATION_N": "Kitchener", "STATUS": "Existing", "TECHNOLOGY": "GO Rail", "NAME": "Kitchener" }, "geometry": { "type": "Point", "coordinates": [ -80.493292817726612, 43.45586655390337 ] } },
{ "type": "Feature", "properties": { "LOCATION_N": "Acton", "STATUS": "Existing", "TECHNOLOGY": "GO Rail", "NAME": "Kitchener" }, "geometry": { "type": "Point", "coordinates": [ -80.034187690775411, 43.633904274588104 ] } },
{ "type": "Feature", "properties": { "LOCATION_N": "Bramalea", "STATUS": "Existing", "TECHNOLOGY": "GO Rail", "NAME": "Kitchener" }, "geometry": { "type": "Point", "coordinates": [ -79.691348144492594, 43.701607433125275 ] } },
{ "type": "Feature", "properties": { "LOCATION_N": "Brampton", "STATUS": "Existing", "TECHNOLOGY": "GO Rail", "NAME": "Kitchener" }, "geometry": { "type": "Point", "coordinates": [ -79.763824594224417, 43.68699464111053 ] } },
{ "type": "Feature", "properties": { "LOCATION_N": "Mount Pleasant", "STATUS": "Existing", "TECHNOLOGY": "GO Rail", "NAME": "Kitchener" }, "geometry": { "type": "Point", "coordinates": [ -79.82243206339777, 43.675139285240704 ] } },
{ "type": "Feature", "properties": { "LOCATION_N": "Georgetown", "STATUS": "Existing", "TECHNOLOGY": "GO Rail", "NAME": "Kitchener" }, "geometry": { "type": "Point", "coordinates": [ -79.918218906785214, 43.655683482868234 ] } },
{ "type": "Feature", "properties": { "LOCATION_N": "Rutherford", "STATUS": "Existing", "TECHNOLOGY": "GO Rail", "NAME": "Barrie" }, "geometry": { "type": "Point", "coordinates": [ -79.498108863318365, 43.837502888885403 ] } },
{ "type": "Feature", "properties": { "LOCATION_N": "Maple", "STATUS": "Existing", "TECHNOLOGY": "GO Rail", "NAME": "Barrie" }, "geometry": { "type": "Point", "coordinates": [ -79.507197704526988, 43.859586494574401 ] } },
{ "type": "Feature", "properties": { "LOCATION_N": "King City", "STATUS": "Existing", "TECHNOLOGY": "GO Rail", "NAME": "Barrie" }, "geometry": { "type": "Point", "coordinates": [ -79.526744047253757, 43.919151226447617 ] } },
{ "type": "Feature", "properties": { "LOCATION_N": "Aurora", "STATUS": "Existing", "TECHNOLOGY": "GO Rail", "NAME": "Barrie" }, "geometry": { "type": "Point", "coordinates": [ -79.459555996113508, 43.999813514083392 ] } },
{ "type": "Feature", "properties": { "LOCATION_N": "Newmarket", "STATUS": "Existing", "TECHNOLOGY": "GO Rail", "NAME": "Barrie" }, "geometry": { "type": "Point", "coordinates": [ -79.459453371026868, 44.059527507385532 ] } },
{ "type": "Feature", "properties": { "LOCATION_N": "East Gwillimbury", "STATUS": "Existing", "TECHNOLOGY": "GO Rail", "NAME": "Barrie" }, "geometry": { "type": "Point", "coordinates": [ -79.455647449077276, 44.079259659711227 ] } },
{ "type": "Feature", "properties": { "LOCATION_N": "Bradford", "STATUS": "Existing", "TECHNOLOGY": "GO Rail", "NAME": "Barrie" }, "geometry": { "type": "Point", "coordinates": [ -79.55602625752509, 44.117182605222332 ] } },
{ "type": "Feature", "properties": { "LOCATION_N": "Barrie South", "STATUS": "Existing", "TECHNOLOGY": "GO Rail", "NAME": "Barrie" }, "geometry": { "type": "Point", "coordinates": [ -79.62717436474351, 44.351170466064751 ] } },
{ "type": "Feature", "properties": { "LOCATION_N": "Allandale Waterfront", "STATUS": "Existing", "TECHNOLOGY": "GO Rail", "NAME": "Barrie" }, "geometry": { "type": "Point", "coordinates": [ -79.686867634929101, 44.373376509707526 ] } },
{ "type": "Feature", "properties": { "LOCATION_N": "Weston", "STATUS": "Existing", "TECHNOLOGY": "GO Rail", "NAME": "Kitchener" }, "geometry": { "type": "Point", "coordinates": [ -79.51107390346607, 43.699157245702871 ] } },
{ "type": "Feature", "properties": { "LOCATION_N": "Etobicoke North", "STATUS": "Existing", "TECHNOLOGY": "GO Rail", "NAME": "Kitchener" }, "geometry": { "type": "Point", "coordinates": [ -79.56185628765185, 43.706368908718076 ] } },
{ "type": "Feature", "properties": { "LOCATION_N": "Malton", "STATUS": "Existing", "TECHNOLOGY": "GO Rail", "NAME": "Kitchener" }, "geometry": { "type": "Point", "coordinates": [ -79.638032745259025, 43.704875192938083 ] } },
{ "type": "Feature", "properties": { "LOCATION_N": "Bloor", "STATUS": "Existing", "TECHNOLOGY": "GO Rail", "NAME": "Kitchener" }, "geometry": { "type": "Point", "coordinates": [ -79.451934733671905, 43.659026975981682 ] } },
{ "type": "Feature", "properties": { "LOCATION_N": "Kipling", "STATUS": "Existing", "TECHNOLOGY": "GO Rail", "NAME": "Milton" }, "geometry": { "type": "Point", "coordinates": [ -79.537597363498548, 43.635422290158743 ] } },
{ "type": "Feature", "properties": { "LOCATION_N": "Dixie", "STATUS": "Existing", "TECHNOLOGY": "GO Rail", "NAME": "Milton" }, "geometry": { "type": "Point", "coordinates": [ -79.577001053820752, 43.608049298943044 ] } },
{ "type": "Feature", "properties": { "LOCATION_N": "Cooksville", "STATUS": "Existing", "TECHNOLOGY": "GO Rail", "NAME": "Milton" }, "geometry": { "type": "Point", "coordinates": [ -79.623535032389697, 43.583455958445377 ] } },
{ "type": "Feature", "properties": { "LOCATION_N": "Erindale", "STATUS": "Existing", "TECHNOLOGY": "GO Rail", "NAME": "Milton" }, "geometry": { "type": "Point", "coordinates": [ -79.668576072689376, 43.566886339829971 ] } },
{ "type": "Feature", "properties": { "LOCATION_N": "Streetsville", "STATUS": "Existing", "TECHNOLOGY": "GO Rail", "NAME": "Milton" }, "geometry": { "type": "Point", "coordinates": [ -79.709054476092803, 43.576117211979316 ] } },
{ "type": "Feature", "properties": { "LOCATION_N": "Meadowvale", "STATUS": "Existing", "TECHNOLOGY": "GO Rail", "NAME": "Milton" }, "geometry": { "type": "Point", "coordinates": [ -79.753457246200938, 43.597614898333873 ] } },
{ "type": "Feature", "properties": { "LOCATION_N": "Lisgar", "STATUS": "Existing", "TECHNOLOGY": "GO Rail", "NAME": "Milton" }, "geometry": { "type": "Point", "coordinates": [ -79.788928527313359, 43.590002539934332 ] } },
{ "type": "Feature", "properties": { "LOCATION_N": "Milton", "STATUS": "Existing", "TECHNOLOGY": "GO Rail", "NAME": "Milton" }, "geometry": { "type": "Point", "coordinates": [ -79.866175991659972, 43.52368536672364 ] } },
{ "type": "Feature", "properties": { "LOCATION_N": "Hamilton", "STATUS": "Existing", "TECHNOLOGY": "GO Rail", "NAME": "Lakeshore West" }, "geometry": { "type": "Point", "coordinates": [ -79.868723599146705, 43.252963170599479 ] } },
{ "type": "Feature", "properties": { "LOCATION_N": "Union", "STATUS": "Existing", "TECHNOLOGY": "GO Rail", "NAME": "ALL" }, "geometry": { "type": "Point", "coordinates": [ -79.378656955982706, 43.644952304674689 ] } },
{ "type": "Feature", "properties": { "LOCATION_N": "Exhibition", "STATUS": "Existing", "TECHNOLOGY": "GO Rail", "NAME": "Lakeshore West" }, "geometry": { "type": "Point", "coordinates": [ -79.419031518535462, 43.636016792616672 ] } },
{ "type": "Feature", "properties": { "LOCATION_N": "Mimico", "STATUS": "Existing", "TECHNOLOGY": "GO Rail", "NAME": "Lakeshore West" }, "geometry": { "type": "Point", "coordinates": [ -79.496809879963848, 43.616677032681785 ] } },
{ "type": "Feature", "properties": { "LOCATION_N": "Long Branch", "STATUS": "Existing", "TECHNOLOGY": "GO Rail", "NAME": "Lakeshore West" }, "geometry": { "type": "Point", "coordinates": [ -79.544974381104211, 43.592182088671329 ] } },
{ "type": "Feature", "properties": { "LOCATION_N": "Port Credit", "STATUS": "Existing", "TECHNOLOGY": "GO Rail", "NAME": "Lakeshore West" }, "geometry": { "type": "Point", "coordinates": [ -79.587148467876247, 43.556015723583712 ] } },
{ "type": "Feature", "properties": { "LOCATION_N": "Clarkson", "STATUS": "Existing", "TECHNOLOGY": "GO Rail", "NAME": "Lakeshore West" }, "geometry": { "type": "Point", "coordinates": [ -79.634618101855096, 43.512358987729364 ] } },
{ "type": "Feature", "properties": { "LOCATION_N": "Oakville", "STATUS": "Existing", "TECHNOLOGY": "GO Rail", "NAME": "Lakeshore West" }, "geometry": { "type": "Point", "coordinates": [ -79.682464891225919, 43.454896415764345 ] } },
{ "type": "Feature", "properties": { "LOCATION_N": "Bronte", "STATUS": "Existing", "TECHNOLOGY": "GO Rail", "NAME": "Lakeshore West" }, "geometry": { "type": "Point", "coordinates": [ -79.722579036156915, 43.416424559235715 ] } },
{ "type": "Feature", "properties": { "LOCATION_N": "Appleby", "STATUS": "Existing", "TECHNOLOGY": "GO Rail", "NAME": "Lakeshore West" }, "geometry": { "type": "Point", "coordinates": [ -79.760870924560351, 43.379650451555662 ] } },
{ "type": "Feature", "properties": { "LOCATION_N": "Burlington", "STATUS": "Existing", "TECHNOLOGY": "GO Rail", "NAME": "Lakeshore West" }, "geometry": { "type": "Point", "coordinates": [ -79.809054525186625, 43.341176149115391 ] } },
{ "type": "Feature", "properties": { "LOCATION_N": "Aldershot", "STATUS": "Existing", "TECHNOLOGY": "GO Rail", "NAME": "Lakeshore West" }, "geometry": { "type": "Point", "coordinates": [ -79.854456567768793, 43.313236008786923 ] } },
{ "type": "Feature", "properties": { "LOCATION_N": "Niagara Falls", "STATUS": "Existing", "TECHNOLOGY": "GO Rail", "NAME": "Niagara Falls" }, "geometry": { "type": "Point", "coordinates": [ -79.063064825679945, 43.10899703780845 ] } },
{ "type": "Feature", "properties": { "LOCATION_N": "St. Catharines", "STATUS": "Existing", "TECHNOLOGY": "GO Rail", "NAME": "Niagara Falls" }, "geometry": { "type": "Point", "coordinates": [ -79.25581869468823, 43.147537122711483 ] } },
{ "type": "Feature", "properties": { "LOCATION_N": "West Harbour", "STATUS": "Existing", "TECHNOLOGY": "GO Rail", "NAME": "Lakeshore West" }, "geometry": { "type": "Point", "coordinates": [ -79.864801193141133, 43.266455182059296 ] } },
{ "type": "Feature", "properties": { "LOCATION_N": "Gormley", "STATUS": "Existing", "TECHNOLOGY": "GO Rail", "NAME": "Richmond Hill" }, "geometry": { "type": "Point", "coordinates": [ -79.398383110878456, 43.940025967084438 ] } },
{ "type": "Feature", "properties": { "LOCATION_N": "Downsview Park", "STATUS": "Existing", "TECHNOLOGY": "GO Rail", "NAME": "Barrie" }, "geometry": { "type": "Point", "coordinates": [ -79.478333892742853, 43.753606512225382 ] } },
{ "type": "Feature", "properties": { "LOCATION_N": "Bloomington", "STATUS": "Existing", "TECHNOLOGY": "GO Rail", "NAME": "Richmond Hill" }, "geometry": { "type": "Point", "coordinates": [ -79.39729763171735, 43.975657448425125 ] } },
{ "type": "Feature", "properties": { "LOCATION_N": "Richmond Hill Centre", "STATUS": "Existing", "TECHNOLOGY": "BRT", "NAME": "Highway 7 East BRT" }, "geometry": { "type": "Point", "coordinates": [ -79.426715999600844, 43.839382298566214 ] } },
{ "type": "Feature", "properties": { "LOCATION_N": "Conestoga", "STATUS": "Existing", "TECHNOLOGY": "LRT", "NAME": "ION LRT" }, "geometry": { "type": "Point", "coordinates": [ -80.529451437890927, 43.498136927244502 ] } },
{ "type": "Feature", "properties": { "LOCATION_N": "Northfield", "STATUS": "Existing", "TECHNOLOGY": "LRT", "NAME": "ION LRT" }, "geometry": { "type": "Point", "coordinates": [ -80.543212026199143, 43.49721126124787 ] } },
{ "type": "Feature", "properties": { "LOCATION_N": "Research and Technology", "STATUS": "Existing", "TECHNOLOGY": "LRT", "NAME": "ION LRT" }, "geometry": { "type": "Point", "coordinates": [ -80.545158058333385, 43.481623567746894 ] } },
{ "type": "Feature", "properties": { "LOCATION_N": "University of Waterloo", "STATUS": "Existing", "TECHNOLOGY": "LRT", "NAME": "ION LRT" }, "geometry": { "type": "Point", "coordinates": [ -80.541164797625754, 43.473238098317211 ] } },
{ "type": "Feature", "properties": { "LOCATION_N": "Laurier-Waterloo Park", "STATUS": "Existing", "TECHNOLOGY": "LRT", "NAME": "ION LRT" }, "geometry": { "type": "Point", "coordinates": [ -80.534404427367022, 43.468857177250172 ] } },
{ "type": "Feature", "properties": { "LOCATION_N": "Waterloo Public Square", "STATUS": "Existing", "TECHNOLOGY": "LRT", "NAME": "ION LRT" }, "geometry": { "type": "Point", "coordinates": [ -80.522988667624659, 43.464141377081745 ] } },
{ "type": "Feature", "properties": { "LOCATION_N": "Willis Way", "STATUS": "Existing", "TECHNOLOGY": "LRT", "NAME": "ION LRT" }, "geometry": { "type": "Point", "coordinates": [ -80.523369042377908, 43.462143999176739 ] } },
{ "type": "Feature", "properties": { "LOCATION_N": "Allen", "STATUS": "Existing", "TECHNOLOGY": "LRT", "NAME": "ION LRT" }, "geometry": { "type": "Point", "coordinates": [ -80.518360786269753, 43.459835910057578 ] } },
{ "type": "Feature", "properties": { "LOCATION_N": "Grand River Hospital", "STATUS": "Existing", "TECHNOLOGY": "LRT", "NAME": "ION LRT" }, "geometry": { "type": "Point", "coordinates": [ -80.51205622272272, 43.45728346164217 ] } },
{ "type": "Feature", "properties": { "LOCATION_N": "Central Station", "STATUS": "Existing", "TECHNOLOGY": "LRT", "NAME": "ION LRT" }, "geometry": { "type": "Point", "coordinates": [ -80.49913146293855, 43.453175620726697 ] } },
{ "type": "Feature", "properties": { "LOCATION_N": "Kitchener City Hall", "STATUS": "Existing", "TECHNOLOGY": "LRT", "NAME": "ION LRT" }, "geometry": { "type": "Point", "coordinates": [ -80.490802878621736, 43.45192775100741 ] } },
{ "type": "Feature", "properties": { "LOCATION_N": "Victoria Park", "STATUS": "Existing", "TECHNOLOGY": "LRT", "NAME": "ION LRT" }, "geometry": { "type": "Point", "coordinates": [ -80.493708023900879, 43.450184801224317 ] } },
{ "type": "Feature", "properties": { "LOCATION_N": "Frederick", "STATUS": "Existing", "TECHNOLOGY": "LRT", "NAME": "ION LRT" }, "geometry": { "type": "Point", "coordinates": [ -80.487345992889814, 43.449647709895693 ] } },
{ "type": "Feature", "properties": { "LOCATION_N": "Queen", "STATUS": "Existing", "TECHNOLOGY": "LRT", "NAME": "ION LRT" }, "geometry": { "type": "Point", "coordinates": [ -80.48942320139524, 43.448626004069276 ] } },
{ "type": "Feature", "properties": { "LOCATION_N": "Kitchener Market", "STATUS": "Existing", "TECHNOLOGY": "LRT", "NAME": "ION LRT" }, "geometry": { "type": "Point", "coordinates": [ -80.483591844572885, 43.446294700895379 ] } },
{ "type": "Feature", "properties": { "LOCATION_N": "Mill", "STATUS": "Existing", "TECHNOLOGY": "LRT", "NAME": "ION LRT" }, "geometry": { "type": "Point", "coordinates": [ -80.477876475233558, 43.433581584078993 ] } },
{ "type": "Feature", "properties": { "LOCATION_N": "Block Line", "STATUS": "Existing", "TECHNOLOGY": "LRT", "NAME": "ION LRT" }, "geometry": { "type": "Point", "coordinates": [ -80.463081951689816, 43.422824864182658 ] } },
{ "type": "Feature", "properties": { "LOCATION_N": "Fairway", "STATUS": "Existing", "TECHNOLOGY": "LRT", "NAME": "ION LRT" }, "geometry": { "type": "Point", "coordinates": [ -80.441803426429416, 43.422326784250451 ] } },
{ "type": "Feature", "properties": { "LOCATION_N": "Borden", "STATUS": "Existing", "TECHNOLOGY": "LRT", "NAME": "ION LRT" }, "geometry": { "type": "Point", "coordinates": [ -80.475373102439193, 43.44240342046416 ] } },
{ "type": "Feature", "properties": { "LOCATION_N": "Stratford", "STATUS": "Existing", "TECHNOLOGY": "GO Rail", "NAME": "Kitchener" }, "geometry": { "type": "Point", "coordinates": [ -80.965491212371262, 43.364241859164331 ] } },
{ "type": "Feature", "properties": { "LOCATION_N": "St. Marys", "STATUS": "Existing", "TECHNOLOGY": "GO Rail", "NAME": "Kitchener" }, "geometry": { "type": "Point", "coordinates": [ -81.138753156818325, 43.241894629627446 ] } },
{ "type": "Feature", "properties": { "LOCATION_N": "London", "STATUS": "Existing", "TECHNOLOGY": "GO Rail", "NAME": "Kitchener" }, "geometry": { "type": "Point", "coordinates": [ -81.250359468508421, 42.979959078040849 ] } }
]
}
