{
"type": "FeatureCollection",
"name": "ontario_trek_brews",
"crs": { "type": "name", "properties": { "name": "urn:ogc:def:crs:OGC:1.3:CRS84" } },
"features": [
{ "type": "Feature", "properties": { "name": "100 Acre Brewing", "addr": "395 Ashburnham Drive", "phone": "705-243-2444", "web": "https://100acrebrewingco.com/", "brewsday": null, "trek": "Bike" }, "geometry": { "type": "Point", "coordinates": [ -78.290707800001556, 44.277183500002792 ] } },
{ "type": "Feature", "properties": { "name": "1000 Islands Brewing Company", "addr": "65 King Street West", "phone": "613-342-3772", "web": "1000islandsbrewery.ca/", "brewsday": null, "trek": "Neither" }, "geometry": { "type": "Point", "coordinates": [ -75.684285800001405, 44.589524400002851 ] } },
{ "type": "Feature", "properties": { "name": "3 Brewers", "addr": "275 Yonge Street", "phone": "647-347-6286", "web": "https://www.les3brasseurs.ca/en/find-a-3-brasseurs/", "brewsday": null, "trek": "Bike and Transit" }, "geometry": { "type": "Point", "coordinates": [ -79.380429000001612, 43.655530200002787 ] } },
{ "type": "Feature", "properties": { "name": "3 Brewers", "addr": "2041 Winston Park Drive", "phone": "289-813-2239", "web": "https://www.les3brasseurs.ca/en/find-a-3-brasseurs/", "brewsday": null, "trek": "Bike" }, "geometry": { "type": "Point", "coordinates": [ -79.668563900001601, 43.508860000002805 ] } },
{ "type": "Feature", "properties": { "name": "3 Brewers", "addr": "240 Sparks Street, Local C215", "phone": "613-380-8140", "web": "https://www.les3brasseurs.ca/en/find-a-3-brasseurs/", "brewsday": null, "trek": "Bike" }, "geometry": { "type": "Point", "coordinates": [ -75.7014797000014, 45.420911100002797 ] } },
{ "type": "Feature", "properties": { "name": "3 Brewers", "addr": "565 Kanata Ave", "phone": "613-380-8190", "web": "https://www.les3brasseurs.ca/en/find-a-3-brasseurs/", "brewsday": null, "trek": "Bike" }, "geometry": { "type": "Point", "coordinates": [ -75.908254600001413, 45.310074300002796 ] } },
{ "type": "Feature", "properties": { "name": "4 Degrees Brewing", "addr": "275 Brockville Street", "phone": "613-205-1564", "web": "http://4degreesbrewing.com", "brewsday": null, "trek": "Neither" }, "geometry": { "type": "Point", "coordinates": [ -76.015604900001435, 44.882514200002809 ] } },
{ "type": "Feature", "properties": { "name": "46 North Brewing Corporation", "addr": "1275 Kelly Lake Road, Unit 1", "phone": "705-586-1870", "web": "https://www.46north.ca/", "brewsday": null, "trek": "Bike" }, "geometry": { "type": "Point", "coordinates": [ -81.032197000001673, 46.465644600002598 ] } },
{ "type": "Feature", "properties": { "name": "5 Paddles Brewing Company", "addr": "1390 Hopkins Street, Unit #3", "phone": "(905) 665-3042", "web": "https://www.5paddlesbrewing.ca", "brewsday": null, "trek": "Bike" }, "geometry": { "type": "Point", "coordinates": [ -78.917708000001596, 43.871901600002801 ] } },
{ "type": "Feature", "properties": { "name": "555 Brewing", "addr": "124 Main Street", "phone": "613.476.5556", "web": "http://www.555beer.com/", "brewsday": null, "trek": "Neither" }, "geometry": { "type": "Point", "coordinates": [ -77.144449000001487, 44.00573410000284 ] } },
{ "type": "Feature", "properties": { "name": "762 Craft Brewers", "addr": "162 Russell Street", "phone": null, "web": "https://www.762brew.com/home", "brewsday": null, "trek": "Neither" }, "geometry": { "type": "Point", "coordinates": [ -77.475464100001503, 44.506966400002803 ] } },
{ "type": "Feature", "properties": { "name": "All My Friends Beer", "addr": "8 Stanley St, Unit 5", "phone": null, "web": "https://amfbeer.com/", "brewsday": null, "trek": "Neither" }, "geometry": { "type": "Point", "coordinates": [ -77.232472500001492, 43.984277100002856 ] } },
{ "type": "Feature", "properties": { "name": "All Or Nothing Brewhouse", "addr": "439 Ritson Road South", "phone": "905-337-0133", "web": "http://allornothing.beer/", "brewsday": null, "trek": "Neither" }, "geometry": { "type": "Point", "coordinates": [ -78.848010500001593, 43.888908700002787 ] } },
{ "type": "Feature", "properties": { "name": "Amber Brewery", "addr": "130 Riviera Drive #3", "phone": "(905) 305-8383", "web": "http://amberbrewery.com/", "brewsday": null, "trek": "Bike" }, "geometry": { "type": "Point", "coordinates": [ -79.339521800001592, 43.833288400002779 ] } },
{ "type": "Feature", "properties": { "name": "Amsterdam Brewery", "addr": "45 Esandar Drive", "phone": "(416) 504-1040", "web": "http://www.amsterdambeer.com/", "brewsday": "1", "trek": "Bike" }, "geometry": { "type": "Point", "coordinates": [ -79.357094300001606, 43.706382800002778 ] } },
{ "type": "Feature", "properties": { "name": "Amsterdam Brewhouse", "addr": "247 Queens Quay W", "phone": "(416) 504-1020", "web": "http://www.amsterdambeer.com/", "brewsday": "1", "trek": "Bike and Transit" }, "geometry": { "type": "Point", "coordinates": [ -79.38472690000161, 43.637876300002794 ] } },
{ "type": "Feature", "properties": { "name": "Anderson Craft Ales", "addr": "1030 Elias Street", "phone": "548-888-ALES", "web": "http://andersoncraftales.ca", "brewsday": null, "trek": "Bike" }, "geometry": { "type": "Point", "coordinates": [ -81.217694700001701, 42.998143200002787 ] } },
{ "type": "Feature", "properties": { "name": "Andrew Peller Limited", "addr": "1219 Niagara Stone Road", "phone": "1-844-643-7799", "web": "https://waynegretzkyestates.com/beer/", "brewsday": null, "trek": "Neither" }, "geometry": { "type": "Point", "coordinates": [ -79.621705600001619, 43.212226000002794 ] } },
{ "type": "Feature", "properties": { "name": "Arbru", "addr": "71 Quabbin Road", "phone": "613-699-7258", "web": "https://www.arbrubeer.com/", "brewsday": null, "trek": "Neither" }, "geometry": { "type": "Point", "coordinates": [ -75.887501900001425, 44.480149900002864 ] } },
{ "type": "Feature", "properties": { "name": "Ashton Brewing Company", "addr": "113 Old Mill Road", "phone": "613-257-4423", "web": "http://ashtonbrewingcompany.com/", "brewsday": null, "trek": "Neither" }, "geometry": { "type": "Point", "coordinates": [ -76.033440400001439, 45.156675900002796 ] } },
{ "type": "Feature", "properties": { "name": "Avling Kitchen & Brewery", "addr": "1042 Queen Street East", "phone": "416-469-1010", "web": "https://www.avling.ca/", "brewsday": null, "trek": "Bike" }, "geometry": { "type": "Point", "coordinates": [ -79.338112100001595, 43.661613400002778 ] } },
{ "type": "Feature", "properties": { "name": "Bad Apple Brewing Company", "addr": "73463 Bluewater Highway", "phone": "519-236-7908", "web": "https://badapplebrewingco.com/", "brewsday": null, "trek": "Neither" }, "geometry": { "type": "Point", "coordinates": [ -81.70368950000173, 43.44421760000273 ] } },
{ "type": "Feature", "properties": { "name": "Badlands Brewing Company", "addr": "13926 Chinguacousy Road", "phone": null, "web": "http://www.badlandsbrewing.ca/", "brewsday": null, "trek": "Neither" }, "geometry": { "type": "Point", "coordinates": [ -79.898209500001641, 43.751554000002784 ] } },
{ "type": "Feature", "properties": { "name": "Bancroft Brewing Company", "addr": "4 Hastings Street N", "phone": "613-334-8154", "web": "http://bancroftbrewing.ca", "brewsday": null, "trek": "Neither" }, "geometry": { "type": "Point", "coordinates": [ -77.853468800001522, 45.056412800002754 ] } },
{ "type": "Feature", "properties": { "name": "Banded Goose", "addr": "15 Main Street East", "phone": "519-733-6900", "web": "http://bandedgoosebrewing.com/", "brewsday": null, "trek": "Neither" }, "geometry": { "type": "Point", "coordinates": [ -82.738820000001795, 42.037650000002778 ] } },
{ "type": "Feature", "properties": { "name": "Bandit Brewery", "addr": "2125 Dundas Street West", "phone": null, "web": "http://banditbrewery.ca/", "brewsday": "1", "trek": "Bike and Transit" }, "geometry": { "type": "Point", "coordinates": [ -79.449539300001604, 43.652537200002783 ] } },
{ "type": "Feature", "properties": { "name": "Banter And Co Brewing", "addr": "66 Baldwin Street, Suite 100", "phone": "905-493-6720", "web": "https://www.banterandcompany.com/", "brewsday": null, "trek": "Bike" }, "geometry": { "type": "Point", "coordinates": [ -78.960699000001583, 43.957989800002792 ] } },
{ "type": "Feature", "properties": { "name": "Bar Volo", "addr": "17 St. Nicholas Street", "phone": "416-928-0018", "web": "https://barvolo.com/", "brewsday": null, "trek": "Bike and Transit" }, "geometry": { "type": "Point", "coordinates": [ -79.38557210000161, 43.665601100002782 ] } },
{ "type": "Feature", "properties": { "name": "Barnstormer Brewing And Distilling", "addr": "384 Yonge Street", "phone": null, "web": "https://www.barnstormerbrewing.com/", "brewsday": null, "trek": "Bike" }, "geometry": { "type": "Point", "coordinates": [ -79.664034700001622, 44.366948500002771 ] } },
{ "type": "Feature", "properties": { "name": "Barrel Heart Brewing", "addr": "104 King Street West", "phone": "289-808-6501", "web": "https://barrelheart.com/", "brewsday": null, "trek": "Bike" }, "geometry": { "type": "Point", "coordinates": [ -79.958308500001635, 43.266443600002816 ] } },
{ "type": "Feature", "properties": { "name": "Bayfield Brewing Company Incorporated", "addr": "14 Bayfield Main Street N", "phone": "519-525-7880", "web": "https://bayfieldbrewingco.com/", "brewsday": null, "trek": "Neither" }, "geometry": { "type": "Point", "coordinates": [ -81.700085600001714, 43.564271700002735 ] } },
{ "type": "Feature", "properties": { "name": "Bayside Brewing", "addr": "970 Ross Lane", "phone": "519.676.1888", "web": "http://baysidebrewing.com/", "brewsday": null, "trek": "Neither" }, "geometry": { "type": "Point", "coordinates": [ -81.917222200001731, 42.261111100002779 ] } },
{ "type": "Feature", "properties": { "name": "Beaches Brewing Company", "addr": "1953 Queen Street East", "phone": "647-492-3224", "web": "https://beachesbrewing.com/", "brewsday": null, "trek": "Bike" }, "geometry": { "type": "Point", "coordinates": [ -79.302343200001602, 43.669442200002798 ] } },
{ "type": "Feature", "properties": { "name": "Beau'S All Natural Brewing Company", "addr": "10 Terry Fox Dr.", "phone": "(866) 585 BEER", "web": "https://beaus.ca/", "brewsday": null, "trek": "Neither" }, "geometry": { "type": "Point", "coordinates": [ -74.637244500001344, 45.516903400002811 ] } },
{ "type": "Feature", "properties": { "name": "Beerded Dog", "addr": "21 King Street East", "phone": "226-207-0448", "web": "https://www.beerdeddog.ca/", "brewsday": null, "trek": "Neither" }, "geometry": { "type": "Point", "coordinates": [ -82.917495500001777, 42.035300300002767 ] } },
{ "type": "Feature", "properties": { "name": "Beerlab!", "addr": "420 Talbot Street", "phone": "519-889-8853", "web": "https://www.beerlab.com/", "brewsday": null, "trek": "Bike and Transit" }, "geometry": { "type": "Point", "coordinates": [ -81.25189390000169, 42.983554800002786 ] } },
{ "type": "Feature", "properties": { "name": "Belgian Moon", "addr": "28 Bathurst Street", "phone": "416-384-9987", "web": "https://stacktmarket.com/", "brewsday": null, "trek": "Bike" }, "geometry": { "type": "Point", "coordinates": [ -79.402170000001604, 43.640960000002799 ] } },
{ "type": "Feature", "properties": { "name": "Belle River Brewhouse", "addr": "499 Notre Dame Street", "phone": "519-715-9553", "web": "http://www.belleriverbrewhouse.com/", "brewsday": null, "trek": "Neither" }, "geometry": { "type": "Point", "coordinates": [ -82.706153800001758, 42.293216700002766 ] } },
{ "type": "Feature", "properties": { "name": "Bellwoods Brewing - Hafis", "addr": "20 Hafis Rd", "phone": "416.535.4586", "web": "http://www.bellwoodsbrewery.com/", "brewsday": "1", "trek": "Neither" }, "geometry": { "type": "Point", "coordinates": [ -79.46939510000162, 43.706764900002803 ] } },
{ "type": "Feature", "properties": { "name": "Bellwoods Brewing - Ossington", "addr": "124 Ossington", "phone": "416.535.4586", "web": "http://www.bellwoodsbrewery.com/", "brewsday": "1", "trek": "Bike" }, "geometry": { "type": "Point", "coordinates": [ -79.420148000001603, 43.647059500002783 ] } },
{ "type": "Feature", "properties": { "name": "Belmont Lake Brewery", "addr": "54 FR 17", "phone": "705) 803-3001", "web": "belmontlakebrewery.com", "brewsday": null, "trek": "Neither" }, "geometry": { "type": "Point", "coordinates": [ -77.815711300001524, 44.5274043000028 ] } },
{ "type": "Feature", "properties": { "name": "Bench Brewing Company", "addr": "3991 King Street", "phone": "905-562-3991", "web": "https://benchbrewing.com/", "brewsday": null, "trek": "Neither" }, "geometry": { "type": "Point", "coordinates": [ -79.423838000001609, 43.158489600002824 ] } },
{ "type": "Feature", "properties": { "name": "Beyond The Pale Brewing Company", "addr": "250 City Centre Ave Bay 106", "phone": "613-695-2991", "web": "http://beyondthepale.ca", "brewsday": null, "trek": "Bike" }, "geometry": { "type": "Point", "coordinates": [ -75.718492000001419, 45.407762000002791 ] } },
{ "type": "Feature", "properties": { "name": "Bickford Brewing Co", "addr": "292A Harbord Street", "phone": null, "web": "https://bickfordbrewing.ca/", "brewsday": null, "trek": "Bike and Transit" }, "geometry": { "type": "Point", "coordinates": [ -79.415184800001626, 43.6605305000028 ] } },
{ "type": "Feature", "properties": { "name": "Bicycle Craft Brewing", "addr": "850 Industrial Ave, Unit 12", "phone": "(613) 733 BEER", "web": "http://www.bicyclecraftbrewery.ca", "brewsday": null, "trek": "Bike" }, "geometry": { "type": "Point", "coordinates": [ -75.63227650000141, 45.406592100002797 ] } },
{ "type": "Feature", "properties": { "name": "Big Rig Brewery", "addr": "2750 Iris Street", "phone": "613-688-3336", "web": "http://bigrigbrew.com/locations/iris-restaurant/", "brewsday": null, "trek": "Bike" }, "geometry": { "type": "Point", "coordinates": [ -75.787220000001412, 45.347519000002819 ] } },
{ "type": "Feature", "properties": { "name": "Big Rig Brewery", "addr": "1980 Ogilvie Road", "phone": "613-552-3336", "web": "http://bigrigbrew.com/ogilvie-restaurant/", "brewsday": null, "trek": "Bike" }, "geometry": { "type": "Point", "coordinates": [ -75.610147000001405, 45.432484400002799 ] } },
{ "type": "Feature", "properties": { "name": "Big Rig Brewery", "addr": "103 Schneider Road", "phone": "613.591.6262", "web": "http://bigrigbrewery.com/", "brewsday": null, "trek": "Bike" }, "geometry": { "type": "Point", "coordinates": [ -75.901524400001406, 45.339708300002805 ] } },
{ "type": "Feature", "properties": { "name": "Big Rock Liberty Commons", "addr": "42 Liberty Street", "phone": "(416) 304?9465", "web": "https://bigrockbeer.com/", "brewsday": "1", "trek": "Bike and Transit" }, "geometry": { "type": "Point", "coordinates": [ -79.421111700001603, 43.638305900002798 ] } },
{ "type": "Feature", "properties": { "name": "Black Bellows Brewing Company", "addr": "40 Simcoe Street", "phone": "705-532-1569", "web": "https://www.blackbellows.com/", "brewsday": null, "trek": "Neither" }, "geometry": { "type": "Point", "coordinates": [ -80.215720600001632, 44.50081340000272 ] } },
{ "type": "Feature", "properties": { "name": "Black Donnellys", "addr": "2740 Rd 164", "phone": "519-229-6336", "web": "https://black-donnellys.com/", "brewsday": null, "trek": "Neither" }, "geometry": { "type": "Point", "coordinates": [ -81.269233700001706, 43.377910600002757 ] } },
{ "type": "Feature", "properties": { "name": "Black Gold Brewery", "addr": "395 Fletcher Street", "phone": null, "web": "http://blackgold.beer/", "brewsday": null, "trek": "Neither" }, "geometry": { "type": "Point", "coordinates": [ -82.146939900001769, 42.882439200002764 ] } },
{ "type": "Feature", "properties": { "name": "Black Lab Brewing", "addr": "818 Eastern Avenue", "phone": "647-352-2525", "web": "http://www.blacklab.beer/", "brewsday": null, "trek": "Bike" }, "geometry": { "type": "Point", "coordinates": [ -79.329133900001608, 43.66181250000281 ] } },
{ "type": "Feature", "properties": { "name": "Black Swan Brewing Company", "addr": "144 Downie Street", "phone": "519-814-7926", "web": "http://blackswanbrewing.ca/", "brewsday": null, "trek": "Neither" }, "geometry": { "type": "Point", "coordinates": [ -80.981061700001689, 43.368207200002757 ] } },
{ "type": "Feature", "properties": { "name": "Blackburn Brew House", "addr": "8001 Blackburn Parkway", "phone": null, "web": "https://www.blackburnbrewhouse.com/", "brewsday": null, "trek": "Bike" }, "geometry": { "type": "Point", "coordinates": [ -79.130871200001607, 43.055076800002837 ] } },
{ "type": "Feature", "properties": { "name": "Block Three Brewing Company", "addr": "1430-2 King Street North", "phone": "(519) 664-1001", "web": "https://www.blockthreebrewing.com/", "brewsday": null, "trek": "Neither" }, "geometry": { "type": "Point", "coordinates": [ -80.552799100001664, 43.540269200002768 ] } },
{ "type": "Feature", "properties": { "name": "Blood Brothers Brewing", "addr": "165 Geary Avenue", "phone": "647.628.6062", "web": "http://www.bloodbrothersbrewing.com/", "brewsday": "1", "trek": "Bike" }, "geometry": { "type": "Point", "coordinates": [ -79.436606400001608, 43.669890100002803 ] } },
{ "type": "Feature", "properties": { "name": "Blue Elephant Craft Brew House", "addr": "96 Norfolk Street South", "phone": "(519) 428-2886", "web": "http://blueelephant.ca/", "brewsday": null, "trek": "Neither" }, "geometry": { "type": "Point", "coordinates": [ -80.303721300001641, 42.834950100002807 ] } },
{ "type": "Feature", "properties": { "name": "Bobcaygeon Brewing Company", "addr": "649 The Parkway Unit 4", "phone": "705-243-7077", "web": "https://bobcaygeonbrewing.ca/", "brewsday": null, "trek": "Bike" }, "geometry": { "type": "Point", "coordinates": [ -78.341190400001551, 44.275313300002793 ] } },
{ "type": "Feature", "properties": { "name": "Boshkung Brewing Company", "addr": "20 Water STreet", "phone": "705-286-2711", "web": "http://boshkungbrewing.com/", "brewsday": null, "trek": "Neither" }, "geometry": { "type": "Point", "coordinates": [ -78.723401100001567, 44.926900600002767 ] } },
{ "type": "Feature", "properties": { "name": "Braumeister Bierhalle", "addr": "175 Carruthers Ave", "phone": null, "web": "http://www.braumeister.ca/", "brewsday": null, "trek": "Bike" }, "geometry": { "type": "Point", "coordinates": [ -75.728446700001413, 45.406090200002808 ] } },
{ "type": "Feature", "properties": { "name": "Braumeister Brewing Company Inc", "addr": "19 Moore Street", "phone": "613-492-2337", "web": "http://www.braumeister.ca/", "brewsday": null, "trek": "Neither" }, "geometry": { "type": "Point", "coordinates": [ -76.140810500001436, 45.13688360000279 ] } },
{ "type": "Feature", "properties": { "name": "Brauwerk Hoffman Rockland", "addr": "733 rue industrielle, unite 5", "phone": null, "web": null, "brewsday": null, "trek": "Neither" }, "geometry": { "type": "Point", "coordinates": [ -75.274472800001377, 45.558828300002787 ] } },
{ "type": "Feature", "properties": { "name": "Breakwall Brewing Company", "addr": "46 Clarence Street", "phone": "289-836-8181", "web": "https://www.breakwallbrewery.ca/", "brewsday": null, "trek": "Neither" }, "geometry": { "type": "Point", "coordinates": [ -79.251851500001607, 42.886124400002842 ] } },
{ "type": "Feature", "properties": { "name": "Brew", "addr": "1241 South Malden Road", "phone": "226-246-0720", "web": "https://brewwindsor.com/pages/visit-brew", "brewsday": null, "trek": "Neither" }, "geometry": { "type": "Point", "coordinates": [ -82.94821820000179, 42.096935700002753 ] } },
{ "type": "Feature", "properties": { "name": "Brew Revolution", "addr": "6081 Hazeldean Road", "phone": "613-877-2121", "web": "https://brewrevolution.ca/", "brewsday": null, "trek": "Bike" }, "geometry": { "type": "Point", "coordinates": [ -75.932019900001421, 45.272950600002808 ] } },
{ "type": "Feature", "properties": { "name": "Brewers Blackbird", "addr": "375 Wilson Street East", "phone": "905-648-8863", "web": "https://www.brewersblackbird.com/", "brewsday": null, "trek": "Bike" }, "geometry": { "type": "Point", "coordinates": [ -79.976270400001638, 43.22792660000281 ] } },
{ "type": "Feature", "properties": { "name": "Bridgemasters Brewing Company", "addr": "29 Beckwith Street East", "phone": "613-201-2337", "web": "https://www.bridgemastersbrewing.com/", "brewsday": null, "trek": "Neither" }, "geometry": { "type": "Point", "coordinates": [ -76.246255500001439, 44.901445700002803 ] } },
{ "type": "Feature", "properties": { "name": "Bridgewater Brewery", "addr": "60 Niagara Street", "phone": "905-714-7467", "web": "https://bridgewaterbrewery.ca/", "brewsday": null, "trek": "Neither" }, "geometry": { "type": "Point", "coordinates": [ -79.252203100001609, 42.99281050000284 ] } },
{ "type": "Feature", "properties": { "name": "Brimstone Brewing Company", "addr": "209 Ridge Road N", "phone": "647-273-4194", "web": "http://www.brimstonebrewing.ca", "brewsday": null, "trek": "Neither" }, "geometry": { "type": "Point", "coordinates": [ -79.052189600001597, 42.880616300002856 ] } },
{ "type": "Feature", "properties": { "name": "Broadhead Brewing Company", "addr": "106-1680 Vimont Ct", "phone": "613-695-9444", "web": "http://broadheadbeer.com/", "brewsday": null, "trek": "Bike" }, "geometry": { "type": "Point", "coordinates": [ -75.484401800001407, 45.489593600002785 ] } },
{ "type": "Feature", "properties": { "name": "Brock Street Brewing Company", "addr": "244 Brock Street South", "phone": "905-668-5347", "web": "https://brockstreetbrewing.com/", "brewsday": null, "trek": "Bike" }, "geometry": { "type": "Point", "coordinates": [ -78.941678900001577, 43.877835900002793 ] } },
{ "type": "Feature", "properties": { "name": "Broken Rail Brewing", "addr": "480 Glass Street", "phone": "226-301-4677", "web": "https://www.brokenrailbrewing.ca/", "brewsday": null, "trek": "Neither" }, "geometry": { "type": "Point", "coordinates": [ -81.131362900001704, 43.271752400002761 ] } },
{ "type": "Feature", "properties": { "name": "Broken Stick Brewing Company", "addr": "600 Golf Road", "phone": "?", "web": "http://www.brokenstickbrewing.com/", "brewsday": null, "trek": "Neither" }, "geometry": { "type": "Point", "coordinates": [ -75.269858100001386, 45.463608200002803 ] } },
{ "type": "Feature", "properties": { "name": "Brothers Brewing Company", "addr": "15 Wyndham Street North", "phone": null, "web": "http://www.brothersbrewingcompany.ca", "brewsday": null, "trek": "Bike and Transit" }, "geometry": { "type": "Point", "coordinates": [ -80.248171800001657, 43.545100600002755 ] } },
{ "type": "Feature", "properties": { "name": "Brunswick Bierworks", "addr": "25 Curity Avenue", "phone": "416.285.1269", "web": "http://www.brunswickbierworks.com/", "brewsday": null, "trek": "Bike" }, "geometry": { "type": "Point", "coordinates": [ -79.316841500001601, 43.710133500002783 ] } },
{ "type": "Feature", "properties": { "name": "Burdock", "addr": "1184 Bloor Street West", "phone": "416-546-4033", "web": "http://burdockto.com", "brewsday": "1", "trek": "Bike and Transit" }, "geometry": { "type": "Point", "coordinates": [ -79.43776730000161, 43.659482100002805 ] } },
{ "type": "Feature", "properties": { "name": "Burdock Kensington", "addr": "6 Denison Square", "phone": "416-596-9981", "web": "http://burdockto.com", "brewsday": "1", "trek": "Bike" }, "geometry": { "type": "Point", "coordinates": [ -79.40214190000161, 43.653887300002793 ] } },
{ "type": "Feature", "properties": { "name": "Burlington Brewery", "addr": "3600 Dundas Street, G101", "phone": null, "web": "https://www.burlingtoncraft.com/home", "brewsday": null, "trek": "Bike" }, "geometry": { "type": "Point", "coordinates": [ -79.823532500001619, 43.391542100002795 ] } },
{ "type": "Feature", "properties": { "name": "Calabogie Brewing Company", "addr": "12612 Lanark Road", "phone": "613-752-2739", "web": "https://calabogiebrewing.com/", "brewsday": null, "trek": "Neither" }, "geometry": { "type": "Point", "coordinates": [ -76.721954600001439, 45.300031900002793 ] } },
{ "type": "Feature", "properties": { "name": "Calabogie Brewing Company - Kanata", "addr": "105 Schneider Road", "phone": "613-608-2739", "web": "https://calabogiebrewing.com/", "brewsday": null, "trek": "Bike" }, "geometry": { "type": "Point", "coordinates": [ -75.902610400001436, 45.341248500002813 ] } },
{ "type": "Feature", "properties": { "name": "Caledon Hills Brewing Company", "addr": "17219 Hwy 50", "phone": "416-523-7839", "web": "https://www.caledonhillsbrewing.com/", "brewsday": null, "trek": "Neither" }, "geometry": { "type": "Point", "coordinates": [ -79.836685100001631, 43.950637400002783 ] } },
{ "type": "Feature", "properties": { "name": "Camerons Brewing Company", "addr": "1165 Invicta Road", "phone": "905.849.8282", "web": "http://www.cameronsbrewing.com", "brewsday": null, "trek": "Bike" }, "geometry": { "type": "Point", "coordinates": [ -79.687665900001619, 43.467517000002786 ] } },
{ "type": "Feature", "properties": { "name": "Canadian Distribution Channel Inc", "addr": "636 Queensway Court", "phone": "705-750-0662", "web": "https://www.persianempire1.com/", "brewsday": null, "trek": "Bike" }, "geometry": { "type": "Point", "coordinates": [ -78.337062500001551, 44.275730900002785 ] } },
{ "type": "Feature", "properties": { "name": "Canvas Brewing Company Inc", "addr": "12 John Street", "phone": "705-380-2750", "web": "https://canvasbrewing.com/", "brewsday": null, "trek": "Neither" }, "geometry": { "type": "Point", "coordinates": [ -79.216753900001592, 45.326932300002717 ] } },
{ "type": "Feature", "properties": { "name": "Caps Off Brewing Co", "addr": "168 Curtis Street", "phone": "519-280-3244", "web": "https://capsoffbrewing.com/", "brewsday": null, "trek": "Neither" }, "geometry": { "type": "Point", "coordinates": [ -81.191938100001693, 42.779594800002798 ] } },
{ "type": "Feature", "properties": { "name": "Cartwright Springs Brewery", "addr": "239 Deer Run Road", "phone": "613.295.3377", "web": "http://csbeer.ca/", "brewsday": null, "trek": "Neither" }, "geometry": { "type": "Point", "coordinates": [ -76.344608100001466, 45.3475423000028 ] } },
{ "type": "Feature", "properties": { "name": "Cecil'S Brewhouse & Kitchen", "addr": "300 Wyld Street", "phone": "705-472-7510", "web": "http://www.cecils.ca/", "brewsday": null, "trek": "Neither" }, "geometry": { "type": "Point", "coordinates": [ -79.462630400001601, 46.309169400002645 ] } },
{ "type": "Feature", "properties": { "name": "Ceeps Brewpub", "addr": "671 Richmond Street", "phone": null, "web": "http://www.ceeps.com/", "brewsday": null, "trek": "Bike" }, "geometry": { "type": "Point", "coordinates": [ -81.251848300001711, 42.99250890000279 ] } },
{ "type": "Feature", "properties": { "name": "Charlotteville Brewing Company", "addr": "1207 Charlotteville West 1/4 line road", "phone": "519-619-7868", "web": "https://charlottevillebrewingcompany.ca/", "brewsday": null, "trek": "Neither" }, "geometry": { "type": "Point", "coordinates": [ -80.304042400001649, 42.837263200002809 ] } },
{ "type": "Feature", "properties": { "name": "Cheetah International Brewers", "addr": "12-75 Milliken Road", "phone": "416-292-3434", "web": "http://www.cheetahbeer.com/", "brewsday": null, "trek": "Bike" }, "geometry": { "type": "Point", "coordinates": [ -79.266171900001595, 43.831019800002785 ] } },
{ "type": "Feature", "properties": { "name": "Chronicle Brewing Company", "addr": "Unit 3- 422 Lake Road", "phone": "905-697-7722", "web": "https://www.chroniclebeer.com/", "brewsday": null, "trek": "Neither" }, "geometry": { "type": "Point", "coordinates": [ -78.659396100001572, 43.898425300002813 ] } },
{ "type": "Feature", "properties": { "name": "Church Key Brewing", "addr": "1678 County Road #38", "phone": null, "web": "http://www.churchkeybrewing.com", "brewsday": null, "trek": "Neither" }, "geometry": { "type": "Point", "coordinates": [ -77.735517900001511, 44.353734400002793 ] } },
{ "type": "Feature", "properties": { "name": "Clear Lake Brewing Company", "addr": "4651 Southwood Road", "phone": "705-762-0234", "web": "http://www.clearlakebrewing.co/", "brewsday": null, "trek": "Neither" }, "geometry": { "type": "Point", "coordinates": [ -79.570613000001615, 44.991102000002734 ] } },
{ "type": "Feature", "properties": { "name": "Clifford Brewing Company", "addr": "398 Nash Road North", "phone": "905-560-5444", "web": "http://cliffordbrewing.com/", "brewsday": null, "trek": "Bike" }, "geometry": { "type": "Point", "coordinates": [ -79.768342600001631, 43.242797900002806 ] } },
{ "type": "Feature", "properties": { "name": "Clock Tower Brewpub 2", "addr": "418 Richmond Road", "phone": "613-680-5983", "web": "http://clocktower.ca/", "brewsday": null, "trek": "Bike" }, "geometry": { "type": "Point", "coordinates": [ -75.757547900001427, 45.390021300002807 ] } },
{ "type": "Feature", "properties": { "name": "Clock Tower Brewpub 4", "addr": "422 MacKay Street", "phone": "613-742-3169", "web": "http://clocktower.ca/", "brewsday": null, "trek": "Bike" }, "geometry": { "type": "Point", "coordinates": [ -75.677087000001393, 45.439610700002817 ] } },
{ "type": "Feature", "properties": { "name": "Clock Tower Brewpub 5", "addr": "140 Rideau Street", "phone": null, "web": "http://clocktower.ca/", "brewsday": null, "trek": "Bike" }, "geometry": { "type": "Point", "coordinates": [ -75.690258800001402, 45.426578000002785 ] } },
{ "type": "Feature", "properties": { "name": "Cold Bear Brewing Co Ltd", "addr": "100 Madawaska blvd", "phone": "5193621979", "web": "https://coldbear.ca/", "brewsday": null, "trek": "Neither" }, "geometry": { "type": "Point", "coordinates": [ -76.345547100001454, 45.434400500002802 ] } },
{ "type": "Feature", "properties": { "name": "Cold Break Brewing", "addr": "193 St. Paul Street West", "phone": "289-501-0638", "web": "https://coldbreakbrewing.ca/", "brewsday": null, "trek": "Transit" }, "geometry": { "type": "Point", "coordinates": [ -79.255731400001594, 43.146211200002831 ] } },
{ "type": "Feature", "properties": { "name": "Cold Springs Brewing", "addr": "4242 Canning Road", "phone": null, "web": "https://coldspringsbrewery.ca/", "brewsday": null, "trek": "Neither" }, "geometry": { "type": "Point", "coordinates": [ -78.239601500001541, 44.069025100002804 ] } },
{ "type": "Feature", "properties": { "name": "Collective Arts Brewing", "addr": "207 Burlington Street East", "phone": "289-426-2374", "web": "http://collectiveartsbrewing.com/", "brewsday": "1", "trek": "Bike" }, "geometry": { "type": "Point", "coordinates": [ -79.853190800001627, 43.270972400002798 ] } },
{ "type": "Feature", "properties": { "name": "Collective Arts Toronto", "addr": "777 Dundas Street West", "phone": null, "web": "http://collectiveartsbrewing.com/", "brewsday": "1", "trek": "Bike" }, "geometry": { "type": "Point", "coordinates": [ -79.407349000001602, 43.651917200002792 ] } },
{ "type": "Feature", "properties": { "name": "Collingwood Brewery", "addr": "10 Sandford Fleming Drive", "phone": "705-444-2337", "web": "http://www.thecollingwoodbrewery.com/", "brewsday": null, "trek": "Neither" }, "geometry": { "type": "Point", "coordinates": [ -80.182258900001628, 44.491429700002719 ] } },
{ "type": "Feature", "properties": { "name": "Common Good Beer Company", "addr": "475 Ellesmere Road", "phone": "416-639-6579", "web": "http://commongoodbeer.com", "brewsday": null, "trek": "Neither" }, "geometry": { "type": "Point", "coordinates": [ -79.295903800001611, 43.761995100002814 ] } },
{ "type": "Feature", "properties": { "name": "Concession Road Brewing Company Ltd", "addr": "17-4 Talbot Street East", "phone": "905-928-5880", "web": "https://www.concessionroadbrew.com/", "brewsday": null, "trek": "Neither" }, "geometry": { "type": "Point", "coordinates": [ -80.112435900001643, 42.884349500002827 ] } },
{ "type": "Feature", "properties": { "name": "Conspiracy Theory Brewing", "addr": "2172 Robertson Road", "phone": "(613) 796-8882", "web": "http://www.ctbrewing.ca/", "brewsday": null, "trek": "Bike" }, "geometry": { "type": "Point", "coordinates": [ -75.839177100001422, 45.319046100002808 ] } },
{ "type": "Feature", "properties": { "name": "Cool Beer Brewing", "addr": "164 Evans Avenue", "phone": "416-255-7100", "web": "http://coolbeer.com", "brewsday": "1", "trek": "Bike" }, "geometry": { "type": "Point", "coordinates": [ -79.510707700001618, 43.619038800002777 ] } },
{ "type": "Feature", "properties": { "name": "Copperworks Brewpub And Restaurant", "addr": "7 Division Street", "phone": "(905) 697-4022", "web": "https://copperworkspub.com/", "brewsday": null, "trek": "Neither" }, "geometry": { "type": "Point", "coordinates": [ -78.687755400001564, 43.911062400002805 ] } },
{ "type": "Feature", "properties": { "name": "Couchiching Craft Brewing Co.", "addr": "162 Mississaga Street East", "phone": "705-558-2337", "web": "https://couchichingbrewing.com/", "brewsday": null, "trek": "Neither" }, "geometry": { "type": "Point", "coordinates": [ -79.415630800001608, 44.610170700002747 ] } },
{ "type": "Feature", "properties": { "name": "Counterpart Brewing", "addr": "3659 Stanley Avenue Unit 8", "phone": "289-686-1028", "web": "https://counterpartbrewing.com/", "brewsday": null, "trek": "Bike" }, "geometry": { "type": "Point", "coordinates": [ -79.087039500001595, 43.119776000002823 ] } },
{ "type": "Feature", "properties": { "name": "Counterpoint Brewing Company", "addr": "4-935 Frederick Street", "phone": null, "web": "https://counterpointbrewing.ca/", "brewsday": null, "trek": "Bike" }, "geometry": { "type": "Point", "coordinates": [ -80.456820200001658, 43.465999600002768 ] } },
{ "type": "Feature", "properties": { "name": "Cowbell Brewing Company", "addr": "40035 Blyth Road", "phone": "226-909-0066", "web": "https://cowbellbrewing.com/", "brewsday": null, "trek": "Neither" }, "geometry": { "type": "Point", "coordinates": [ -81.433421000001715, 43.730377000002733 ] } },
{ "type": "Feature", "properties": { "name": "Craft Heads Brewing Company", "addr": "89 University Avenue W", "phone": "(226) 246-3925", "web": "http://www.craftheads.ca/", "brewsday": null, "trek": "Bike" }, "geometry": { "type": "Point", "coordinates": [ -83.039703800001803, 42.317193100002754 ] } },
{ "type": "Feature", "properties": { "name": "Creemore Springs Brewery", "addr": "139 Mill Street", "phone": "844-887-3022", "web": "http://www.creemoresprings.com", "brewsday": null, "trek": "Neither" }, "geometry": { "type": "Point", "coordinates": [ -80.106185900001648, 44.327237600002746 ] } },
{ "type": "Feature", "properties": { "name": "Cured Craft Brewing", "addr": "43 Mill Street West", "phone": null, "web": "https://www.curedcraftbrewing.com/", "brewsday": null, "trek": "Neither" }, "geometry": { "type": "Point", "coordinates": [ -82.601467000001776, 42.052369400002796 ] } },
{ "type": "Feature", "properties": { "name": "Daft Brewing", "addr": "768 Princess Street", "phone": null, "web": "https://daftbrewing.com/", "brewsday": null, "trek": "Bike" }, "geometry": { "type": "Point", "coordinates": [ -76.506207900001456, 44.238679300002843 ] } },
{ "type": "Feature", "properties": { "name": "Dawson Trail Craft Brewery", "addr": "1181 Golf Links Road", "phone": "807-623-2337", "web": "http://dawsontrailcraftbrewery.com/", "brewsday": null, "trek": "Neither" }, "geometry": { "type": "Point", "coordinates": [ -89.275269800001965, 48.419077100002177 ] } },
{ "type": "Feature", "properties": { "name": "Decew Falls Brewing Company", "addr": "207 St. Paul Street West Unit 2", "phone": "905-401-9874", "web": "https://decewfallsbrewing.ca/", "brewsday": null, "trek": "Transit" }, "geometry": { "type": "Point", "coordinates": [ -79.25685160000161, 43.145871300002824 ] } },
{ "type": "Feature", "properties": { "name": "Dog House Brewing Company", "addr": "3477 Petawawa Blvd Unit A", "phone": "613-732-6655", "web": "https://doghousebrewingcompany.ca/", "brewsday": null, "trek": "Neither" }, "geometry": { "type": "Point", "coordinates": [ -77.283197000001479, 45.899886000002745 ] } },
{ "type": "Feature", "properties": { "name": "Dominion City Brewing Company", "addr": "15-5510 Canotek Rd", "phone": "613-688-6207", "web": "https://www.dominioncity.ca", "brewsday": null, "trek": "Bike" }, "geometry": { "type": "Point", "coordinates": [ -75.585758200001393, 45.457051100002801 ] } },
{ "type": "Feature", "properties": { "name": "Dune Hopper Brewing Company", "addr": "1613 County Road 12", "phone": "613-654-9770", "web": "https://dunehopper.ca/", "brewsday": null, "trek": "Neither" }, "geometry": { "type": "Point", "coordinates": [ -77.256109300001498, 43.929727200002844 ] } },
{ "type": "Feature", "properties": { "name": "Durham Brewing Company", "addr": "1885 Clements Road", "phone": "(905) 686-3022", "web": "https://www.cestwhatdurham.com/", "brewsday": null, "trek": "Neither" }, "geometry": { "type": "Point", "coordinates": [ -79.054963500001591, 43.825175200002789 ] } },
{ "type": "Feature", "properties": { "name": "Eastbound Brewing Company", "addr": "700 Queen Street East", "phone": "416-901-1299", "web": "http://www.eastboundbeer.com", "brewsday": "1", "trek": "Bike" }, "geometry": { "type": "Point", "coordinates": [ -79.350196600001595, 43.658899000002791 ] } },
{ "type": "Feature", "properties": { "name": "Elora Brewing Company", "addr": "107 Geddes Street", "phone": "519-805-2829", "web": "http://elorabrewingcompany.ca/", "brewsday": null, "trek": "Neither" }, "geometry": { "type": "Point", "coordinates": [ -80.430204300001662, 43.683476700002771 ] } },
{ "type": "Feature", "properties": { "name": "Equals Brewing", "addr": "695 Sovereign Road", "phone": "1-877-378-2571", "web": "https://equalsbrewing.com/", "brewsday": null, "trek": "Neither" }, "geometry": { "type": "Point", "coordinates": [ -81.150530400001699, 43.005259600002766 ] } },
{ "type": "Feature", "properties": { "name": "Evergreen Craft Ales", "addr": "21-767 Silver Seven Road", "phone": null, "web": "http://www.evergreencraftales.com/", "brewsday": null, "trek": "Bike" }, "geometry": { "type": "Point", "coordinates": [ -75.914779900001406, 45.301529800002797 ] } },
{ "type": "Feature", "properties": { "name": "Exchange Brewery", "addr": "7 Queen Street", "phone": "905-468-9888", "web": "http://exchangebrewery.com/", "brewsday": null, "trek": "Neither" }, "geometry": { "type": "Point", "coordinates": [ -79.070921300001586, 43.255035900002831 ] } },
{ "type": "Feature", "properties": { "name": "Fairweather Brewing Company", "addr": "5 Ofield Road Unit 1", "phone": "905.570.0606", "web": "http://fairweatherbrewing.com/", "brewsday": null, "trek": "Bike" }, "geometry": { "type": "Point", "coordinates": [ -79.931812400001633, 43.255243800002809 ] } },
{ "type": "Feature", "properties": { "name": "Falcon Brewing Company", "addr": "30 Barr Road", "phone": "905-686-6686", "web": "https://www.falconbrewingcompany.com/", "brewsday": null, "trek": "Bike" }, "geometry": { "type": "Point", "coordinates": [ -79.022948800001586, 43.829947000002804 ] } },
{ "type": "Feature", "properties": { "name": "Farm League Brewing", "addr": "295 Ainslie Street", "phone": "226-605-6443", "web": "https://farmleaguebrewing.com/", "brewsday": null, "trek": "Bike" }, "geometry": { "type": "Point", "coordinates": [ -80.313171700001647, 43.351152600002784 ] } },
{ "type": "Feature", "properties": { "name": "Fenelon Falls", "addr": "4 May Street", "phone": "705-215-9898", "web": "https://www.fenelonfallsbrewing.com/", "brewsday": null, "trek": "Neither" }, "geometry": { "type": "Point", "coordinates": [ -78.738112400001569, 44.536692600002759 ] } },
{ "type": "Feature", "properties": { "name": "Fine Balance Brewing Co.", "addr": "677 Innovation Drive, Unit 3", "phone": null, "web": "https://finebalancebrewing.ca/", "brewsday": null, "trek": "Neither" }, "geometry": { "type": "Point", "coordinates": [ -76.441741200001431, 44.271501600002843 ] } },
{ "type": "Feature", "properties": { "name": "Fixed Gear Brewing Company - A", "addr": "20 Alma Street South", "phone": "519-265-7025", "web": "https://fixedgearbrewing.com/", "brewsday": null, "trek": "Bike" }, "geometry": { "type": "Point", "coordinates": [ -80.261926500001664, 43.535670100002775 ] } },
{ "type": "Feature", "properties": { "name": "Flight Risk Brewing", "addr": "5970 DWYER HILL RD", "phone": null, "web": "https://flightriskbrewing.com/", "brewsday": null, "trek": "Neither" }, "geometry": { "type": "Point", "coordinates": [ -75.906028800001408, 45.078624900002822 ] } },
{ "type": "Feature", "properties": { "name": "Flora Hall Brewing", "addr": "37 Flora", "phone": "613-695-2339", "web": "http://www.florahallbrewing.ca/", "brewsday": null, "trek": "Bike" }, "geometry": { "type": "Point", "coordinates": [ -75.69324800000139, 45.410782400002809 ] } },
{ "type": "Feature", "properties": { "name": "Flux Brewing Company", "addr": "185 Oakland Road", "phone": null, "web": "https://www.fluxbrews.ca/", "brewsday": null, "trek": "Neither" }, "geometry": { "type": "Point", "coordinates": [ -80.343910500001655, 43.028801800002789 ] } },
{ "type": "Feature", "properties": { "name": "Flying Monkeys Craft Brewery", "addr": "107 dunlop Street", "phone": "(705)806-7089", "web": "http://www.flyingmonkeys.ca", "brewsday": null, "trek": "Bike" }, "geometry": { "type": "Point", "coordinates": [ -79.686716100001604, 44.38918250000274 ] } },
{ "type": "Feature", "properties": { "name": "Focal Brewing Company", "addr": "98 County Rd 35", "phone": null, "web": "http://www.focalbrewingco.ca/", "brewsday": null, "trek": "Neither" }, "geometry": { "type": "Point", "coordinates": [ -77.928741400001542, 44.28192520000281 ] } },
{ "type": "Feature", "properties": { "name": "Fogorig Brewing", "addr": "2445 County Road 8", "phone": null, "web": "https://www.fogorig.com/", "brewsday": null, "trek": "Neither" }, "geometry": { "type": "Point", "coordinates": [ -77.687370400001527, 44.289672400002814 ] } },
{ "type": "Feature", "properties": { "name": "Forked River Brewing", "addr": "45 Pacific Court, Unit 4", "phone": "519-913-2337", "web": "http://forkedriverbrewing.com/", "brewsday": null, "trek": "Neither" }, "geometry": { "type": "Point", "coordinates": [ -81.175684600001702, 43.010344100002783 ] } },
{ "type": "Feature", "properties": { "name": "Foundry Brewing", "addr": "74 Grand Avenue South", "phone": null, "web": "http://foundrybrewing.ca/", "brewsday": null, "trek": "Bike" }, "geometry": { "type": "Point", "coordinates": [ -80.317781900001648, 43.354644800002788 ] } },
{ "type": "Feature", "properties": { "name": "Four Fathers Brewing", "addr": "125 Guelph Ave", "phone": "519-575-3687", "web": "http://fourfathersbrewing.ca/", "brewsday": null, "trek": "Bike" }, "geometry": { "type": "Point", "coordinates": [ -80.311391800001644, 43.435669300002779 ] } },
{ "type": "Feature", "properties": { "name": "Frank Brewing", "addr": "12000 Tecumseh Road", "phone": "519 - 956 - 9822", "web": "http://frankbeer.ca/", "brewsday": null, "trek": "Bike" }, "geometry": { "type": "Point", "coordinates": [ -82.891521400001778, 42.311991900002745 ] } },
{ "type": "Feature", "properties": { "name": "Full Beard Brewing", "addr": "219 Wilson Avenue", "phone": "705-268-0444", "web": "https://fullbeardbrewing.com/", "brewsday": null, "trek": "Neither" }, "geometry": { "type": "Point", "coordinates": [ -81.341653700001686, 48.475264600002447 ] } },
{ "type": "Feature", "properties": { "name": "Furnace Room Brewery", "addr": "1 Elgin Street", "phone": "905-702-7372", "web": "https://furnaceroombrewery.ca/", "brewsday": null, "trek": "Neither" }, "geometry": { "type": "Point", "coordinates": [ -79.903623600001652, 43.65020460000278 ] } },
{ "type": "Feature", "properties": { "name": "Ganaraska Brewing Company", "addr": "33 Mill Street South", "phone": null, "web": "http://www.ganaraskabrewingcompany.com/", "brewsday": null, "trek": "Neither" }, "geometry": { "type": "Point", "coordinates": [ -78.291366500001544, 43.949813800002822 ] } },
{ "type": "Feature", "properties": { "name": "Garage Time Brewing Company", "addr": "658 Danforth Road", "phone": "613-399-5090", "web": "https://www.garagetimebrewing.ca/", "brewsday": null, "trek": "Neither" }, "geometry": { "type": "Point", "coordinates": [ -77.377100700001492, 43.968842800002818 ] } },
{ "type": "Feature", "properties": { "name": "Gateway City Brewing Company", "addr": "490 Gormanville Road", "phone": "705-478-0809", "web": "https://www.gatewaycity.ca/", "brewsday": null, "trek": "Neither" }, "geometry": { "type": "Point", "coordinates": [ -79.487573500001616, 46.324869400002655 ] } },
{ "type": "Feature", "properties": { "name": "Gillingham Brewing", "addr": "1316 Wilson Road", "phone": "613-503-3030", "web": "https://gillinghambrewing.ca/", "brewsday": null, "trek": "Neither" }, "geometry": { "type": "Point", "coordinates": [ -77.455967000001493, 43.974362000002834 ] } },
{ "type": "Feature", "properties": { "name": "Gl Heritage Brewing Co", "addr": "8728 Howard Road", "phone": "519-736-7361", "web": "www.glheritagebrewing.ca", "brewsday": null, "trek": "Neither" }, "geometry": { "type": "Point", "coordinates": [ -83.005279000001792, 42.060953000002769 ] } },
{ "type": "Feature", "properties": { "name": "Glasstown Brewing Company", "addr": "331 James Street", "phone": "(226)746-2337", "web": "https://www.glasstownbrewingco.ca/", "brewsday": null, "trek": "Neither" }, "geometry": { "type": "Point", "coordinates": [ -82.38825290000176, 42.592644500002763 ] } },
{ "type": "Feature", "properties": { "name": "Glb Brewpub", "addr": "11 Lower Jarvis, Unit 5-8", "phone": null, "web": "http://www.greatlakesbeer.com/", "brewsday": "1", "trek": "Bike and Transit" }, "geometry": { "type": "Point", "coordinates": [ -79.369213900001611, 43.644846300002783 ] } },
{ "type": "Feature", "properties": { "name": "Godspeed Brewery", "addr": "242 Coxwell Avenue", "phone": "416-551-2282", "web": "https://godspeedbrewery.com/", "brewsday": null, "trek": "Bike" }, "geometry": { "type": "Point", "coordinates": [ -79.319390400001609, 43.672410300002817 ] } },
{ "type": "Feature", "properties": { "name": "Goldenfield Brewery", "addr": "71 Sunrise Avenue", "phone": "833-388-2337", "web": "https://goldenfieldbrewery.com/", "brewsday": null, "trek": "Bike" }, "geometry": { "type": "Point", "coordinates": [ -79.306352900001585, 43.718195600002787 ] } },
{ "type": "Feature", "properties": { "name": "Goodlot Farmstead Brewing", "addr": "18825 Shaws Creek Road", "phone": "416-875-3635", "web": "https://www.goodlot.beer/", "brewsday": null, "trek": "Neither" }, "geometry": { "type": "Point", "coordinates": [ -80.060897800001655, 43.819661100002769 ] } },
{ "type": "Feature", "properties": { "name": "Goose Island", "addr": "70 The Esplanade", "phone": "416-862-7575", "web": "https://gooseisland.ca/", "brewsday": "1", "trek": "Bike and Transit" }, "geometry": { "type": "Point", "coordinates": [ -79.373692100001605, 43.647297100002781 ] } },
{ "type": "Feature", "properties": { "name": "Grain And Grit Beer Co", "addr": "11 Ewen Road", "phone": "905-769-1320", "web": "http://www.grainandgritbeer.com/", "brewsday": null, "trek": "Bike" }, "geometry": { "type": "Point", "coordinates": [ -79.931634800001618, 43.256722400002801 ] } },
{ "type": "Feature", "properties": { "name": "Great Lakes Brewery", "addr": "30 Queen Elizabeth Blvd", "phone": "416-255-4510", "web": "http://www.greatlakesbeer.com/", "brewsday": "1", "trek": "Bike and Transit" }, "geometry": { "type": "Point", "coordinates": [ -79.505048500001621, 43.623069500002792 ] } },
{ "type": "Feature", "properties": { "name": "Grey Matter Brewery", "addr": "726 Queen Street", "phone": "226-396-2337", "web": "https://www.greymatterbeer.com/", "brewsday": null, "trek": "Neither" }, "geometry": { "type": "Point", "coordinates": [ -81.636571500001708, 44.17529540000271 ] } },
{ "type": "Feature", "properties": { "name": "Hallett Brewing", "addr": "408 Scott Street", "phone": "(807) 271-2036", "web": "https://www.facebook.com/hallettbrewing/?locale=hi_IN", "brewsday": null, "trek": "Neither" }, "geometry": { "type": "Point", "coordinates": [ -93.392215200002028, 48.610146400002002 ] } },
{ "type": "Feature", "properties": { "name": "Halo Brewery", "addr": "247 Wallace Ave", "phone": "416-606-7778", "web": "https://halobrewery.com/", "brewsday": "1", "trek": "Bike and Transit" }, "geometry": { "type": "Point", "coordinates": [ -79.446463500001599, 43.66179070000279 ] } },
{ "type": "Feature", "properties": { "name": "Haven Brewing Company", "addr": "687 Rye Street, Unit 6", "phone": "705-743-4747", "web": "https://havenbrewing.ca/", "brewsday": null, "trek": "Bike" }, "geometry": { "type": "Point", "coordinates": [ -78.348959700001558, 44.277880800002784 ] } },
{ "type": "Feature", "properties": { "name": "Henderson Brewing Company Inc", "addr": "128A Sterling Road", "phone": "416-535-1212", "web": "https://hendersonbrewing.com/", "brewsday": "1", "trek": "Bike and Transit" }, "geometry": { "type": "Point", "coordinates": [ -79.445566200001622, 43.653801900002797 ] } },
{ "type": "Feature", "properties": { "name": "High Park Brewery", "addr": "839 Runnymede Road", "phone": "416-995-7464", "web": "https://highparkbrewery.wixsite.com/", "brewsday": "1", "trek": "Bike" }, "geometry": { "type": "Point", "coordinates": [ -79.483415200001602, 43.669875600002776 ] } },
{ "type": "Feature", "properties": { "name": "Hockley Valley Brewing Company Inc", "addr": "25 Centennial Road", "phone": "519-941-8887", "web": "http://www.hockleybeer.ca/", "brewsday": null, "trek": "Neither" }, "geometry": { "type": "Point", "coordinates": [ -80.107961800001647, 43.912605800002758 ] } },
{ "type": "Feature", "properties": { "name": "Huether Hotel", "addr": "59 King Street N", "phone": "519-886-3350", "web": "http://huetherhotel.com/", "brewsday": null, "trek": "Bike and Transit" }, "geometry": { "type": "Point", "coordinates": [ -80.523093600001644, 43.466986800002779 ] } },
{ "type": "Feature", "properties": { "name": "Imperial City Brewhouse", "addr": "1330 Exmouth Street", "phone": "519-491-5191", "web": "https://www.imperialcitybrew.com/", "brewsday": null, "trek": "Neither" }, "geometry": { "type": "Point", "coordinates": [ -82.35553700000176, 42.985590100002732 ] } },
{ "type": "Feature", "properties": { "name": "Ingersoll Rails House Of Brews", "addr": "99 Victoria Street", "phone": null, "web": null, "brewsday": null, "trek": "Bike" }, "geometry": { "type": "Point", "coordinates": [ -80.889834600001677, 43.040308000002767 ] } },
{ "type": "Feature", "properties": { "name": "Indie Alehouse", "addr": "2876 Dundas Street West", "phone": "416-760-9691", "web": "https://indiealehouse.com/", "brewsday": null, "trek": "Bike" }, "geometry": { "type": "Point", "coordinates": [ -79.46533870000161, 43.665550700002804 ] } },
{ "type": "Feature", "properties": { "name": "Indie Alehouse Eataly", "addr": "55 Bloor Street West", "phone": null, "web": "https://indiealehouse.com/", "brewsday": null, "trek": "Bike and Transit" }, "geometry": { "type": "Point", "coordinates": [ -79.388658100001621, 43.669672800002779 ] } },
{ "type": "Feature", "properties": { "name": "Innocente Brewing Company", "addr": "283 Northfield Drive E, Unit 8", "phone": null, "web": "http://www.innocente.ca/", "brewsday": null, "trek": "Bike" }, "geometry": { "type": "Point", "coordinates": [ -80.520532900001669, 43.51184090000276 ] } },
{ "type": "Feature", "properties": { "name": "Jackass Brewing", "addr": "100 Sheldon Drive, Unit 36", "phone": "519-624-9423", "web": "https://www.jackassbrewing.ca/", "brewsday": null, "trek": "Bike" }, "geometry": { "type": "Point", "coordinates": [ -80.319429200001665, 43.403885900002784 ] } },
{ "type": "Feature", "properties": { "name": "Jobsite Brewing Co.", "addr": "45 Cambria Street", "phone": "519-305-3335", "web": "https://jobsitebrewing.ca/", "brewsday": null, "trek": "Neither" }, "geometry": { "type": "Point", "coordinates": [ -80.983891000001691, 43.36357400000275 ] } },
{ "type": "Feature", "properties": { "name": "Junction Craft Brewery", "addr": "150 Symes Road", "phone": "416-766-1616", "web": "https://www.junctioncraft.com/", "brewsday": null, "trek": "Bike" }, "geometry": { "type": "Point", "coordinates": [ -79.478649200001612, 43.673265800002788 ] } },
{ "type": "Feature", "properties": { "name": "Kame & Kettle Beer Works", "addr": "25 Pelham Town Square", "phone": "289-273-2550", "web": "http://www.kameandkettle.ca/", "brewsday": null, "trek": "Neither" }, "geometry": { "type": "Point", "coordinates": [ -79.285296200001596, 43.043934400002811 ] } },
{ "type": "Feature", "properties": { "name": "Kichesippi Beer Co.", "addr": "2265 Robertson Road", "phone": "613-728-7845", "web": "https://www.kbeer.ca/", "brewsday": null, "trek": "Bike" }, "geometry": { "type": "Point", "coordinates": [ -75.844184800001401, 45.318088200002784 ] } },
{ "type": "Feature", "properties": { "name": "Kick And Push Brewing Company", "addr": "24613 Hwy 7", "phone": null, "web": null, "brewsday": null, "trek": "Neither" }, "geometry": { "type": "Point", "coordinates": [ -76.683538000001462, 44.796784700002824 ] } },
{ "type": "Feature", "properties": { "name": "Kilannan Brewing Company Limited", "addr": "599448 2nd Concession North", "phone": "226-909-2122", "web": "https://www.coffinridge.ca/pages/kilannan-brewery", "brewsday": null, "trek": "Neither" }, "geometry": { "type": "Point", "coordinates": [ -80.915996900001673, 44.524366300002697 ] } },
{ "type": "Feature", "properties": { "name": "Kingston Brewing Company", "addr": "34 Clarence Street", "phone": "613-542-4978", "web": "https://www.kingstonbrewing.ca/", "brewsday": null, "trek": "Bike" }, "geometry": { "type": "Point", "coordinates": [ -76.493029500001455, 44.233440100002838 ] } },
{ "type": "Feature", "properties": { "name": "Kingsville Brewing Company", "addr": "140 Park Street", "phone": "519-712-9404", "web": "https://kingsvillebrewery.ca/", "brewsday": null, "trek": "Neither" }, "geometry": { "type": "Point", "coordinates": [ -82.739626000001778, 42.037877900002769 ] } },
{ "type": "Feature", "properties": { "name": "Labatt Brewing Company Limited", "addr": "150 Simcoe Street", "phone": null, "web": "https://www.labatt.com/company/?language=en", "brewsday": null, "trek": "Bike and Transit" }, "geometry": { "type": "Point", "coordinates": [ -81.248966000001701, 42.978394000002758 ] } },
{ "type": "Feature", "properties": { "name": "Lake Of Bays Brewing Company - Bracebridge Barrelhouse", "addr": "295 Wellingston Street, Unit 15", "phone": "705-645-2122", "web": "http://lakeofbaysbrewing.ca/", "brewsday": null, "trek": "Neither" }, "geometry": { "type": "Point", "coordinates": [ -79.114336200001588, 45.150157300002711 ] } },
{ "type": "Feature", "properties": { "name": "Lake Of Bays Brewing Company - Huntsville Brewhouse", "addr": "59 Main Street East", "phone": "705-789-7931", "web": "http://lakeofbaysbrewing.ca/", "brewsday": null, "trek": "Neither" }, "geometry": { "type": "Point", "coordinates": [ -79.217050000001606, 45.326770000002732 ] } },
{ "type": "Feature", "properties": { "name": "Lake Of The Woods Brewing Company Inc.", "addr": "350 Second Street South", "phone": "1-833-321-2337", "web": "https://www.lowbrewco.com/", "brewsday": null, "trek": "Neither" }, "geometry": { "type": "Point", "coordinates": [ -94.486775000002012, 49.765388400001882 ] } },
{ "type": "Feature", "properties": { "name": "Lake On The Mountain Brewing Company", "addr": "11369 Loyalist Parkway", "phone": "613-476-1321", "web": "https://lakeonthemountainbrewco.com/", "brewsday": null, "trek": "Neither" }, "geometry": { "type": "Point", "coordinates": [ -77.066548600001497, 44.042553700002827 ] } },
{ "type": "Feature", "properties": { "name": "Lakehead Brewing Company", "addr": "206 Park Ave", "phone": null, "web": "https://www.lakeheadbeer.ca/", "brewsday": null, "trek": "Neither" }, "geometry": { "type": "Point", "coordinates": [ -89.220575600001936, 48.434056000002187 ] } },
{ "type": "Feature", "properties": { "name": "Left Field Brewery", "addr": "36 Wagstaff Drive", "phone": "647-346-5001", "web": "https://www.leftfieldbrewery.ca/", "brewsday": "1", "trek": "Bike" }, "geometry": { "type": "Point", "coordinates": [ -79.330468500001601, 43.673790800002791 ] } },
{ "type": "Feature", "properties": { "name": "Left Field Liberty Village", "addr": "40 Hanna Ave", "phone": null, "web": null, "brewsday": "1", "trek": "Bike and Transit" }, "geometry": { "type": "Point", "coordinates": [ -79.41993940000161, 43.638851300002798 ] } },
{ "type": "Feature", "properties": { "name": "Lightcaster Brewing", "addr": "716 Wilson Road South", "phone": null, "web": "https://lightcasterbrewery.com/", "brewsday": null, "trek": "Neither" }, "geometry": { "type": "Point", "coordinates": [ -78.836237200001577, 43.881845600002791 ] } },
{ "type": "Feature", "properties": { "name": "Lindsay Brewing Company", "addr": "8 Cambridge Street North", "phone": null, "web": "http://www.lindsaybrewingcompany.ca/", "brewsday": null, "trek": "Neither" }, "geometry": { "type": "Point", "coordinates": [ -78.739312200001564, 44.355164000002809 ] } },
{ "type": "Feature", "properties": { "name": "Little Beasts Brewing Company", "addr": "2075 Forbes Street B-4", "phone": "905-723-2337", "web": "https://www.littlebeastsbrewing.com/", "brewsday": null, "trek": "Bike" }, "geometry": { "type": "Point", "coordinates": [ -78.892672400001587, 43.859766200002795 ] } },
{ "type": "Feature", "properties": { "name": "Lock Street Brewing Company", "addr": "15 Lock Street", "phone": "905-935-2124", "web": "https://lockstreet.ca/", "brewsday": null, "trek": "Neither" }, "geometry": { "type": "Point", "coordinates": [ -79.266549200001592, 43.202258800002845 ] } },
{ "type": "Feature", "properties": { "name": "London Brewing Co-Operative Inc.", "addr": "51 Burbrook Place", "phone": "226-667-6363", "web": "http://www.londonbrewing.ca/", "brewsday": null, "trek": "Bike" }, "geometry": { "type": "Point", "coordinates": [ -81.21685470000169, 42.997462800002765 ] } },
{ "type": "Feature", "properties": { "name": "Longslice Brewery", "addr": "484 Front Street East", "phone": "647-479-2469", "web": "https://longslice.com/", "brewsday": null, "trek": "Bike" }, "geometry": { "type": "Point", "coordinates": [ -79.354636300001602, 43.653724800002792 ] } },
{ "type": "Feature", "properties": { "name": "Longtooth Beverage Company", "addr": "429 West Front Street", "phone": "705-868-5557", "web": "https://longtooth.ca/", "brewsday": null, "trek": "Neither" }, "geometry": { "type": "Point", "coordinates": [ -77.5474752000015, 44.296183100002814 ] } },
{ "type": "Feature", "properties": { "name": "Lost Craft", "addr": "837 Runnymede Road", "phone": "416-587-6753", "web": "https://lostcraft.ca/", "brewsday": "1", "trek": "Bike" }, "geometry": { "type": "Point", "coordinates": [ -79.483380100001625, 43.669913300002818 ] } },
{ "type": "Feature", "properties": { "name": "Lost Villages Brewery", "addr": "16133 Country Road 36", "phone": null, "web": "https://www.lostvillagesbrewery.com/", "brewsday": null, "trek": "Neither" }, "geometry": { "type": "Point", "coordinates": [ -74.879477100001367, 45.035177000002825 ] } },
{ "type": "Feature", "properties": { "name": "Lot 10 Brewing Co.", "addr": "263 Dalhousie Street", "phone": "226-773-7755", "web": "https://lot10brewery.ca/", "brewsday": null, "trek": "Neither" }, "geometry": { "type": "Point", "coordinates": [ -83.112604000001795, 42.101933400002757 ] } },
{ "type": "Feature", "properties": { "name": "Lowertown Brewery Inc.(The)", "addr": "73 York Street", "phone": "613-722-1454", "web": "http://www.lowertownbrewery.ca/", "brewsday": null, "trek": "Bike" }, "geometry": { "type": "Point", "coordinates": [ -75.692269300001414, 45.428824200002801 ] } },
{ "type": "Feature", "properties": { "name": "Mackinnon Brothers Brewing Co.", "addr": "1915 County Road 22", "phone": "613-777-6277", "web": "https://www.mackinnonbrewing.com/", "brewsday": null, "trek": "Neither" }, "geometry": { "type": "Point", "coordinates": [ -76.795569800001459, 44.201467600002857 ] } },
{ "type": "Feature", "properties": { "name": "Magnotta Brewery", "addr": "271 Chrislea Road", "phone": "905-738-9463", "web": "https://www.magnotta.com/", "brewsday": null, "trek": "Bike and Transit" }, "geometry": { "type": "Point", "coordinates": [ -79.543394100001606, 43.797690500002773 ] } },
{ "type": "Feature", "properties": { "name": "Manitoulin Brewing Company", "addr": "43 Manitowaning Road, Hwy 6", "phone": "705-370-5633", "web": "http://www.manitoulinbrewing.co/", "brewsday": null, "trek": "Neither" }, "geometry": { "type": "Point", "coordinates": [ -81.924249100001731, 45.976524000002584 ] } },
{ "type": "Feature", "properties": { "name": "Market Brewing Company", "addr": "17775 Leslie Street, Unit 4", "phone": "905-235-9333", "web": "https://marketbrewingco.com/", "brewsday": null, "trek": "Bike" }, "geometry": { "type": "Point", "coordinates": [ -79.432251500001612, 44.072600500002778 ] } },
{ "type": "Feature", "properties": { "name": "Mascot Brewery", "addr": "37 Advance Road #106", "phone": "647-347-9553", "web": "http://www.mascotbrewery.com/", "brewsday": "1", "trek": "Bike and Transit" }, "geometry": { "type": "Point", "coordinates": [ -79.527850400001626, 43.63335890000279 ] } },
{ "type": "Feature", "properties": { "name": "Mascot Brewery Downtown", "addr": "220 King Street West", "phone": null, "web": "http://www.mascotbrewery.com/", "brewsday": "1", "trek": "Bike and Transit" }, "geometry": { "type": "Point", "coordinates": [ -79.386969000001599, 43.647300500002807 ] } },
{ "type": "Feature", "properties": { "name": "Matron Fine Beer", "addr": "65 Barkers Lane", "phone": null, "web": "https://matronfinebeer.ca/", "brewsday": null, "trek": "Neither" }, "geometry": { "type": "Point", "coordinates": [ -77.229490900001494, 43.981367000002813 ] } },
{ "type": "Feature", "properties": { "name": "Merit Brewing Company Inc.", "addr": "107 James Street North", "phone": "905-393-1024", "web": "https://www.meritbrewing.ca/", "brewsday": null, "trek": "Bike and Transit" }, "geometry": { "type": "Point", "coordinates": [ -79.86799790000164, 43.259504000002785 ] } },
{ "type": "Feature", "properties": { "name": "Meyers Creek Brewing Company", "addr": "60 Dundas Street East", "phone": "613-707-7258", "web": "https://www.meyerscreekbrewing.ca/", "brewsday": null, "trek": "Bike" }, "geometry": { "type": "Point", "coordinates": [ -77.379971100001512, 44.161652400002851 ] } },
{ "type": "Feature", "properties": { "name": "Midtown Brewing Company Inc.", "addr": "266 Wellington Main Street", "phone": "613-399-1001", "web": "https://midtownbrewingcompany.com/", "brewsday": null, "trek": "Neither" }, "geometry": { "type": "Point", "coordinates": [ -77.348816300001474, 43.952342900002854 ] } },
{ "type": "Feature", "properties": { "name": "Mill Street Brew Pub", "addr": "21 Tankhouse Lane", "phone": null, "web": "https://millstreetbrewery.com/", "brewsday": null, "trek": "Bike" }, "geometry": { "type": "Point", "coordinates": [ -79.358275000001612, 43.650441700002766 ] } },
{ "type": "Feature", "properties": { "name": "Mill Street Brewery", "addr": "125 Bermondsey Road", "phone": null, "web": "https://millstreetbrewery.com/", "brewsday": null, "trek": "Bike" }, "geometry": { "type": "Point", "coordinates": [ -79.313669900001599, 43.71863060000279 ] } },
{ "type": "Feature", "properties": { "name": "Mill Street Brewery Ottawa", "addr": "555 Wellington Street", "phone": null, "web": "https://millstreetbrewery.com/", "brewsday": null, "trek": "Bike" }, "geometry": { "type": "Point", "coordinates": [ -75.7126424000014, 45.419671000002808 ] } },
{ "type": "Feature", "properties": { "name": "Miski Brewing", "addr": "70 Ellis Dr Unit 4", "phone": "888-395-8338", "web": "https://miskibrewing.com/", "brewsday": null, "trek": "Bike" }, "geometry": { "type": "Point", "coordinates": [ -79.674584200001618, 44.348646100002753 ] } },
{ "type": "Feature", "properties": { "name": "Molson Canada 2005", "addr": "33 Carlingview Drive", "phone": null, "web": "https://www.molsoncoors.com/en-CA/av?url=https://www.molsoncoors.com/", "brewsday": null, "trek": "Bike" }, "geometry": { "type": "Point", "coordinates": [ -79.587741300001625, 43.674644500002778 ] } },
{ "type": "Feature", "properties": { "name": "Mono Centre Brewing Co", "addr": "388113 Mono Centre Road", "phone": null, "web": null, "brewsday": null, "trek": "Neither" }, "geometry": { "type": "Point", "coordinates": [ -80.031375900001649, 44.047994900002784 ] } },
{ "type": "Feature", "properties": { "name": "Muddy York Brewing Company", "addr": "50 Innovator Ave Suite 1", "phone": "416-619-7819", "web": "https://www.muddyyorkbrewing.com/", "brewsday": null, "trek": "Bike" }, "geometry": { "type": "Point", "coordinates": [ -79.266533200001604, 43.962339300002796 ] } },
{ "type": "Feature", "properties": { "name": "Mudtown Station", "addr": "1198 First Avenue East", "phone": "519-371-3575", "web": "https://www.mudtownstation.ca/", "brewsday": null, "trek": "Neither" }, "geometry": { "type": "Point", "coordinates": [ -80.94234740000168, 44.572038000002706 ] } },
{ "type": "Feature", "properties": { "name": "Muskoka Brewery", "addr": "1964 Muskoka Beach Road", "phone": "705-646-1266", "web": "https://muskokabrewery.com/", "brewsday": null, "trek": "Neither" }, "geometry": { "type": "Point", "coordinates": [ -79.320281900001604, 44.999008100002726 ] } },
{ "type": "Feature", "properties": { "name": "Natterjack Brewing Company", "addr": "25292 Talbot Line", "phone": "226-289-1472", "web": "https://natterjackbrewing.ca/", "brewsday": null, "trek": "Neither" }, "geometry": { "type": "Point", "coordinates": [ -81.562305700001716, 42.568209100002782 ] } },
{ "type": "Feature", "properties": { "name": "Neustadt Springs Brewery Ltd.", "addr": "456 Jacob Street", "phone": "519-799-5790", "web": "http://www.neustadtsprings.com/", "brewsday": null, "trek": "Neither" }, "geometry": { "type": "Point", "coordinates": [ -81.003490400001695, 44.074857900002733 ] } },
{ "type": "Feature", "properties": { "name": "New Limburg Brewery", "addr": "2353 Nixon Road", "phone": "519-426-2323", "web": "http://newlimburg.com/", "brewsday": null, "trek": "Neither" }, "geometry": { "type": "Point", "coordinates": [ -80.402061600001659, 42.853742300002814 ] } },
{ "type": "Feature", "properties": { "name": "Wildwoods Brewing", "addr": "1401 Seymour", "phone": "705-707-1659", "web": "https://www.newontariobrewing.com/", "brewsday": null, "trek": "Neither" }, "geometry": { "type": "Point", "coordinates": [ -79.437297500001605, 46.30954730000267 ] } },
{ "type": "Feature", "properties": { "name": "Newark Brewing Company", "addr": "4766 Christie Dr", "phone": "905-246-6317", "web": "https://newarkbrewing.com/", "brewsday": null, "trek": "Neither" }, "geometry": { "type": "Point", "coordinates": [ -79.472585700001616, 43.188150100002836 ] } },
{ "type": "Feature", "properties": { "name": "Niagara Brewing Company", "addr": "4915-A Clifton Hill", "phone": "905-374-5247", "web": "https://niagarabrewingcompany.com/", "brewsday": null, "trek": "Bike" }, "geometry": { "type": "Point", "coordinates": [ -79.073536500001595, 43.09104200000283 ] } },
{ "type": "Feature", "properties": { "name": "Niagara College Brewing Institute", "addr": "135 Taylor Road", "phone": "905-641-2252", "web": "https://www.ncteachingbrewery.ca/", "brewsday": null, "trek": "Bike" }, "geometry": { "type": "Point", "coordinates": [ -79.166354800001585, 43.150147200002813 ] } },
{ "type": "Feature", "properties": { "name": "Niagara Oast House Brewers", "addr": "2017 Niagara Stone Road", "phone": null, "web": "https://oasthousebrewers.com/", "brewsday": null, "trek": "Neither" }, "geometry": { "type": "Point", "coordinates": [ -79.098797400001587, 43.240160900002834 ] } },
{ "type": "Feature", "properties": { "name": "Nickel Brook Brewing Company", "addr": "864 Drury Lane", "phone": "905-681-2739", "web": "https://nickelbrook.com/", "brewsday": null, "trek": "Bike" }, "geometry": { "type": "Point", "coordinates": [ -79.799031900001637, 43.325519600002792 ] } },
{ "type": "Feature", "properties": { "name": "Nickel Brook Toronto", "addr": "3-1589 The Queensway", "phone": "905-681-2739", "web": "https://nickelbrook.com/", "brewsday": null, "trek": "Neither" }, "geometry": { "type": "Point", "coordinates": [ -79.541677500001626, 43.615881100002795 ] } },
{ "type": "Feature", "properties": { "name": "Nita Beer Company, Incorporated", "addr": "190 Colonnade Road Unit 17", "phone": "613-688-2337", "web": "https://nitabeer.com/", "brewsday": null, "trek": "Bike" }, "geometry": { "type": "Point", "coordinates": [ -75.71549440000139, 45.342172000002819 ] } },
{ "type": "Feature", "properties": { "name": "Norse Brewery", "addr": "11 Ritchie Drive", "phone": "705-345-0274", "web": "http://norsebrewery.com/", "brewsday": null, "trek": "Neither" }, "geometry": { "type": "Point", "coordinates": [ -80.203400500001635, 45.491771800002667 ] } },
{ "type": "Feature", "properties": { "name": "Northern Maverick Gastro Brewery", "addr": "115 Bathurst Street", "phone": "416-540-4030", "web": "https://northernmaverick.ca/", "brewsday": "1", "trek": "Bike" }, "geometry": { "type": "Point", "coordinates": [ -79.402896800001614, 43.645007700002793 ] } },
{ "type": "Feature", "properties": { "name": "Northern Superior Brewing Company Inc.", "addr": "50 Pim Street", "phone": "705-450-SHOT", "web": "https://northernsuperior.org/", "brewsday": null, "trek": "Neither" }, "geometry": { "type": "Point", "coordinates": [ -84.324261300001822, 46.50527070000247 ] } },
{ "type": "Feature", "properties": { "name": "Northumberland Hills Brewery", "addr": "1024 Division Street", "phone": "289-435-2004", "web": "https://www.facebook.com/TheNHBbrewpot/", "brewsday": null, "trek": "Neither" }, "geometry": { "type": "Point", "coordinates": [ -78.173658300001549, 43.980190800002816 ] } },
{ "type": "Feature", "properties": { "name": "Northwinds Brewhouse & Eatery", "addr": "499 First Street", "phone": "705-293-6666", "web": "https://northwindsbrewery.com/", "brewsday": null, "trek": "Neither" }, "geometry": { "type": "Point", "coordinates": [ -80.231898100001629, 44.501732200002742 ] } },
{ "type": "Feature", "properties": { "name": "Northwinds Brewhouse & Eatery", "addr": "180 Jozo Weider Blvd", "phone": "705-445-6666", "web": "https://northwindsbrewery.com/", "brewsday": null, "trek": "Neither" }, "geometry": { "type": "Point", "coordinates": [ -80.309920000001654, 44.502934000002739 ] } },
{ "type": "Feature", "properties": { "name": "Old Credit Brewing Co. Ltd.", "addr": "6 Queen Street West", "phone": "905-271-9888", "web": "https://www.oldcreditbrewery.com/", "brewsday": null, "trek": "Bike and Transit" }, "geometry": { "type": "Point", "coordinates": [ -79.59335840000162, 43.549731700002816 ] } },
{ "type": "Feature", "properties": { "name": "Old Dog Brewing Company Inc.", "addr": "30 King Street East", "phone": "705-731-1123", "web": "https://olddogbrewing.com/", "brewsday": null, "trek": "Neither" }, "geometry": { "type": "Point", "coordinates": [ -78.541942800001564, 44.536177400002749 ] } },
{ "type": "Feature", "properties": { "name": "Old Flame Brewing Co - Distillery", "addr": "45 Tank House Lane", "phone": null, "web": null, "brewsday": null, "trek": "Bike" }, "geometry": { "type": "Point", "coordinates": [ -79.357588300001609, 43.650661300002795 ] } },
{ "type": "Feature", "properties": { "name": "Old Flame Brewing Co - Newmarket", "addr": "140 Main Street South", "phone": "289-803-9111", "web": "http://oldflamebrewingco.ca/", "brewsday": null, "trek": "Bike and Transit" }, "geometry": { "type": "Point", "coordinates": [ -79.458558600001609, 44.054672700002783 ] } },
{ "type": "Feature", "properties": { "name": "Old Flame Brewing Co - Port Perry", "addr": "135 Perry Street", "phone": "289-485-2739", "web": "http://oldflamebrewingco.ca/", "brewsday": null, "trek": "Neither" }, "geometry": { "type": "Point", "coordinates": [ -78.943534800001572, 44.103984800002813 ] } },
{ "type": "Feature", "properties": { "name": "Orange Snail Brewers", "addr": "32 Steeles Ave East Unit 1", "phone": "289-270-1680", "web": "http://orangesnailbrewers.ca/", "brewsday": null, "trek": "Bike" }, "geometry": { "type": "Point", "coordinates": [ -79.898744900001631, 43.516776700002794 ] } },
{ "type": "Feature", "properties": { "name": "Oranje Son", "addr": "118 sutherland street west", "phone": null, "web": "https://oranjeson.ca/", "brewsday": null, "trek": "Neither" }, "geometry": { "type": "Point", "coordinates": [ -79.955533200001639, 43.076257100002827 ] } },
{ "type": "Feature", "properties": { "name": "Original Local Beers", "addr": "413 St. Laurent", "phone": "613-807-1242", "web": "https://www.localbeers.ca/", "brewsday": null, "trek": "Bike" }, "geometry": { "type": "Point", "coordinates": [ -75.650066600001423, 45.447892700002789 ] } },
{ "type": "Feature", "properties": { "name": "Orleans Brewing Co.", "addr": "4380 Innes Road", "phone": "613-850-6220", "web": "https://www.orleansbrewing.com/", "brewsday": null, "trek": "Bike" }, "geometry": { "type": "Point", "coordinates": [ -75.490130500001399, 45.45995400000281 ] } },
{ "type": "Feature", "properties": { "name": "Outlaw Brew Co. Inc.", "addr": "196 High Street", "phone": "519-797-1515", "web": "https://outlawbrewco.com/", "brewsday": null, "trek": "Neither" }, "geometry": { "type": "Point", "coordinates": [ -81.371538300001703, 44.495917900002681 ] } },
{ "type": "Feature", "properties": { "name": "Overflow Brewery", "addr": "2477 Kaladar Ave", "phone": "613-695-2337", "web": "https://overflowbeer.com/", "brewsday": null, "trek": "Bike" }, "geometry": { "type": "Point", "coordinates": [ -75.670225900001398, 45.375995600002817 ] } },
{ "type": "Feature", "properties": { "name": "Paris Beer Co", "addr": "31 Mechanic Street", "phone": "519-442-4447", "web": "https://www.parisbrewing.com/", "brewsday": null, "trek": "Neither" }, "geometry": { "type": "Point", "coordinates": [ -80.385058000001649, 43.191850000002809 ] } },
{ "type": "Feature", "properties": { "name": "Parsons Brewing Co.", "addr": "876 County Road 49", "phone": "613-476-9977", "web": "https://www.parsonsbrewing.com/", "brewsday": null, "trek": "Neither" }, "geometry": { "type": "Point", "coordinates": [ -77.140060400001488, 44.036216700002853 ] } },
{ "type": "Feature", "properties": { "name": "Peel St. Beverage Co", "addr": "68 Huron Street", "phone": null, "web": "https://www.peelstbevco.com/", "brewsday": null, "trek": "Neither" }, "geometry": { "type": "Point", "coordinates": [ -80.710911400001663, 43.3783916000028 ] } },
{ "type": "Feature", "properties": { "name": "Pepperwood Bistro", "addr": "1455 Lakeshore Road", "phone": "905-333-6999", "web": "https://pepperwood.on.ca/", "brewsday": null, "trek": "Bike" }, "geometry": { "type": "Point", "coordinates": [ -79.796821000001628, 43.324239000002819 ] } },
{ "type": "Feature", "properties": { "name": "Perth Brewery Ltd.", "addr": "121 Dufferin Street, Hwy 7", "phone": "613-264-1087", "web": "https://www.perthbrewery.ca/", "brewsday": null, "trek": "Neither" }, "geometry": { "type": "Point", "coordinates": [ -76.248559200001424, 44.898809700002808 ] } },
{ "type": "Feature", "properties": { "name": "Point Brewing Company Inc", "addr": "705 Lite Street", "phone": null, "web": "https://pointbrewing.ca/", "brewsday": null, "trek": "Neither" }, "geometry": { "type": "Point", "coordinates": [ -82.405716900001764, 42.990695300002727 ] } },
{ "type": "Feature", "properties": { "name": "Powerhouse Brewing Company", "addr": "100 Kellogg Lane", "phone": "226-667-4536", "web": "https://powerhousebrewery.beer/", "brewsday": null, "trek": "Bike" }, "geometry": { "type": "Point", "coordinates": [ -81.213605100001701, 42.993067400002793 ] } },
{ "type": "Feature", "properties": { "name": "Prince Eddy'S Brewing Company Ltd.", "addr": "13 MacSteven Drive", "phone": "613-476-2253", "web": "http://www.princeeddys.com/", "brewsday": null, "trek": "Neither" }, "geometry": { "type": "Point", "coordinates": [ -77.145954800001476, 44.015479900002845 ] } },
{ "type": "Feature", "properties": { "name": "Prospector Brewhouse", "addr": "27 Cumberland Street", "phone": "(807) 345-5833", "web": "https://prospectorsteakhouse.com/", "brewsday": null, "trek": "Neither" }, "geometry": { "type": "Point", "coordinates": [ -89.247682300001955, 48.380895100002185 ] } },
{ "type": "Feature", "properties": { "name": "Publican House Brewery (The)", "addr": "300 Charlotte Street", "phone": "705-874-5743", "web": "https://www.publicanhouse.com/", "brewsday": null, "trek": "Bike" }, "geometry": { "type": "Point", "coordinates": [ -78.326294700001554, 44.303271000002795 ] } },
{ "type": "Feature", "properties": { "name": "Quayle'S Brewery", "addr": "4567 Line 12 North", "phone": "705-298-0204", "web": "https://quaylesbrewery.ca/", "brewsday": null, "trek": "Neither" }, "geometry": { "type": "Point", "coordinates": [ -79.578407200001621, 44.652549900002754 ] } },
{ "type": "Feature", "properties": { "name": "Quetico Brewing Company", "addr": null, "phone": null, "web": null, "brewsday": null, "trek": "Neither" }, "geometry": { "type": "Point", "coordinates": [ -91.962800800002015, 48.73681900000205 ] } },
{ "type": "Feature", "properties": { "name": "Radical Road Brewing Company", "addr": "1177 Queen Street East", "phone": "647-794-7909", "web": "https://www.radicalroadbrew.com/", "brewsday": null, "trek": "Bike" }, "geometry": { "type": "Point", "coordinates": [ -79.332415000001603, 43.6626440000028 ] } },
{ "type": "Feature", "properties": { "name": "Railway City Brewing Company", "addr": "130 Edward Street", "phone": "519-631-1881", "web": "https://www.railwaycitybrewing.com/", "brewsday": null, "trek": "Neither" }, "geometry": { "type": "Point", "coordinates": [ -81.169572700001694, 42.786278500002766 ] } },
{ "type": "Feature", "properties": { "name": "Rainhard Brewing Company", "addr": "100 Symes Road Unit 108", "phone": "416-763-2337", "web": "https://rainhardbrewing.com/", "brewsday": null, "trek": "Bike" }, "geometry": { "type": "Point", "coordinates": [ -79.479034000001604, 43.672604000002785 ] } },
{ "type": "Feature", "properties": { "name": "Ramblin' Road", "addr": "2970 Swimming Pool Road", "phone": "519-582-1444", "web": "http://www.ramblinroad.ca/", "brewsday": null, "trek": "Neither" }, "geometry": { "type": "Point", "coordinates": [ -80.50517150000168, 42.884797400002817 ] } },
{ "type": "Feature", "properties": { "name": "Red Barn Brewing Company", "addr": "20466 Lagoon Road", "phone": "226-229-0918", "web": "https://www.redbarnbrewing.com/", "brewsday": null, "trek": "Neither" }, "geometry": { "type": "Point", "coordinates": [ -82.052413900001753, 42.331695500002759 ] } },
{ "type": "Feature", "properties": { "name": "Red Tape Brewery", "addr": "159 Main Street", "phone": null, "web": "https://www.redtapebrewery.com/", "brewsday": null, "trek": "Bike and Transit" }, "geometry": { "type": "Point", "coordinates": [ -79.299935800001606, 43.683750200002784 ] } },
{ "type": "Feature", "properties": { "name": "Refined Fool Brewing Company - Sports Bar", "addr": "1326 London Road", "phone": "519-704-1665", "web": "https://www.refinedfool.com/", "brewsday": null, "trek": "Neither" }, "geometry": { "type": "Point", "coordinates": [ -82.356970900001727, 42.98034540000274 ] } },
{ "type": "Feature", "properties": { "name": "Ridge Rock Brewing Company", "addr": "421 Donald B. Munro Drive", "phone": "613-470-2337", "web": "https://ridgerockbrewco.ca/", "brewsday": null, "trek": "Bike" }, "geometry": { "type": "Point", "coordinates": [ -76.035093200001441, 45.344291500002797 ] } },
{ "type": "Feature", "properties": { "name": "River Run Brew Co", "addr": "146 Christina Street North", "phone": null, "web": "https://www.facebook.com/riverrunbrewco/", "brewsday": null, "trek": "Neither" }, "geometry": { "type": "Point", "coordinates": [ -82.407049900001766, 42.972030500002745 ] } },
{ "type": "Feature", "properties": { "name": "Riverhead Brewing Company", "addr": "631 Fortune Crescent", "phone": "613-384-2337", "web": "https://www.riverheadbrewing.com/", "brewsday": null, "trek": "Bike" }, "geometry": { "type": "Point", "coordinates": [ -76.567457400001445, 44.272707700002826 ] } },
{ "type": "Feature", "properties": { "name": "Rorschach Brewing Co.", "addr": "1001 Eastern Avenue", "phone": null, "web": "https://www.rorschachbrewing.com/", "brewsday": null, "trek": "Bike" }, "geometry": { "type": "Point", "coordinates": [ -79.319925500001602, 43.663535700002789 ] } },
{ "type": "Feature", "properties": { "name": "Rose City Beer Works", "addr": "888 Erie Street East", "phone": null, "web": "https://rosecitybeerworks.ca/", "brewsday": null, "trek": "Bike" }, "geometry": { "type": "Point", "coordinates": [ -83.021073700001793, 42.313608500002765 ] } },
{ "type": "Feature", "properties": { "name": "Rouge River Brewing Company", "addr": "50 Bullock Drive Unit 8", "phone": "905-209-1236", "web": "https://www.rougeriverbrewingcompany.com/", "brewsday": null, "trek": "Bike and Transit" }, "geometry": { "type": "Point", "coordinates": [ -79.266113600001603, 43.878890700002792 ] } },
{ "type": "Feature", "properties": { "name": "Royal City Brewing Company Inc.", "addr": "199 Victoria Road South Unit C8", "phone": "888-485-2739", "web": "https://royalcitybrew.ca/", "brewsday": null, "trek": "Bike" }, "geometry": { "type": "Point", "coordinates": [ -80.224800500001649, 43.55231940000278 ] } },
{ "type": "Feature", "properties": { "name": "Rural Roots Brewing Co.", "addr": "21B Industrial Drive", "phone": "519-210-2102", "web": "https://ruralrootsbrewery.ca/", "brewsday": null, "trek": "Neither" }, "geometry": { "type": "Point", "coordinates": [ -80.560326700001667, 43.589028500002769 ] } },
{ "type": "Feature", "properties": { "name": "Rurban Brewing Ltd.", "addr": "412 Cumberland Street", "phone": null, "web": "http://www.rurbanbrewing.com/", "brewsday": null, "trek": "Bike" }, "geometry": { "type": "Point", "coordinates": [ -74.739398900001348, 45.019457200002833 ] } },
{ "type": "Feature", "properties": { "name": "Rusty Wrench Brewing Company", "addr": "9 Front Street West", "phone": "226-448-9081", "web": "http://www.rustywrench.ca/", "brewsday": null, "trek": "Neither" }, "geometry": { "type": "Point", "coordinates": [ -81.624668400001724, 42.958497000002772 ] } },
{ "type": "Feature", "properties": { "name": "Sandwich Brewing Company", "addr": "3232 Sandwich Street", "phone": "519-800-2019", "web": "https://www.facebook.com/sandwichbrewing/", "brewsday": null, "trek": "Bike" }, "geometry": { "type": "Point", "coordinates": [ -83.076145300001784, 42.301425800002754 ] } },
{ "type": "Feature", "properties": { "name": "Saulter Street Brewery Inc.", "addr": "31 Saulter Street #1", "phone": "416-463-9379", "web": "https://www.saulterstreetbrewery.ca/", "brewsday": "1", "trek": "Bike" }, "geometry": { "type": "Point", "coordinates": [ -79.346398900001603, 43.658406400002825 ] } },
{ "type": "Feature", "properties": { "name": "Sawdust City Brewing Company", "addr": "397 Muskoka Road North", "phone": "705-681-1100", "web": "https://www.sawdustcitybrewing.com/", "brewsday": null, "trek": "Neither" }, "geometry": { "type": "Point", "coordinates": [ -79.375444800001603, 44.922092300002724 ] } },
{ "type": "Feature", "properties": { "name": "Schooner Street Brewing", "addr": null, "phone": null, "web": "https://schoonerstreet.com/", "brewsday": null, "trek": "Bike and Transit" }, "geometry": { "type": "Point", "coordinates": [ -80.255912300001654, 43.541645100002768 ] } },
{ "type": "Feature", "properties": { "name": "Second Wedge Brewing Company (The)", "addr": "14 Victoria Street", "phone": "905-852-3232", "web": "https://thesecondwedge.ca/", "brewsday": null, "trek": "Neither" }, "geometry": { "type": "Point", "coordinates": [ -79.120499800001596, 44.10940280000279 ] } },
{ "type": "Feature", "properties": { "name": "Shacklands Brewing Company", "addr": "100 Symes Road, Unit 101", "phone": "416-763-2424", "web": "http://www.shacklands.com/", "brewsday": null, "trek": "Bike" }, "geometry": { "type": "Point", "coordinates": [ -79.478432200001606, 43.672363700002798 ] } },
{ "type": "Feature", "properties": { "name": "Shakespeare Brewing Company", "addr": "2178 Line 34", "phone": "519-777-5469", "web": "https://shakespearebrewingcompany.ca/", "brewsday": null, "trek": "Neither" }, "geometry": { "type": "Point", "coordinates": [ -80.834362100001684, 43.369987700002781 ] } },
{ "type": "Feature", "properties": { "name": "Shed Brewing Company Ltd.", "addr": "65 Hatt Street", "phone": "289-238-9979", "web": "http://lagershed.com/", "brewsday": null, "trek": "Bike" }, "geometry": { "type": "Point", "coordinates": [ -79.957711800001647, 43.265899100002791 ] } },
{ "type": "Feature", "properties": { "name": "Shillow Beer Company Inc.", "addr": "1458 Cyrville Road", "phone": "613-695-9550", "web": "http://www.shillowbeer.com/", "brewsday": null, "trek": "Bike" }, "geometry": { "type": "Point", "coordinates": [ -75.619652100001417, 45.420248900002804 ] } },
{ "type": "Feature", "properties": { "name": "Short Finger Brewing Co", "addr": "20 Hurst Avenue", "phone": "226-647-7322", "web": "https://shortfingerbrewing.com/", "brewsday": null, "trek": "Bike and Transit" }, "geometry": { "type": "Point", "coordinates": [ -80.480190500001669, 43.440831600002788 ] } },
{ "type": "Feature", "properties": { "name": "Side Launch Brewing Company Inc.", "addr": "200 Mountain Road, Unit 1", "phone": "705-293-5511", "web": "https://www.sidelaunchbrewing.com/", "brewsday": null, "trek": "Neither" }, "geometry": { "type": "Point", "coordinates": [ -80.247777800001643, 44.498611100002726 ] } },
{ "type": "Feature", "properties": { "name": "Signal Brewing Company", "addr": "86-87 River Road", "phone": "613-779-8633", "web": "https://www.signal.beer/", "brewsday": null, "trek": "Bike" }, "geometry": { "type": "Point", "coordinates": [ -77.387783000001477, 44.219338400002826 ] } },
{ "type": "Feature", "properties": { "name": "Silversmith Brewing Company (The)", "addr": "75 Horner Avenue", "phone": "(416) 252-2739", "web": "https://www.silversmithbrewing.com/", "brewsday": "1", "trek": "Neither" }, "geometry": { "type": "Point", "coordinates": [ -79.516188800001615, 43.613421000002809 ] } },
{ "type": "Feature", "properties": { "name": "Silversmith Brewing Company (The)", "addr": "1523 Niagara Stone Road", "phone": "905-468-8447", "web": "https://www.silversmithbrewing.com/", "brewsday": "1", "trek": "Neither" }, "geometry": { "type": "Point", "coordinates": [ -79.121394400001591, 43.222256600002851 ] } },
{ "type": "Feature", "properties": { "name": "Sir Monty'S Brewing Company", "addr": "1540 Durham Regional Highway 2", "phone": "905-438-8652", "web": "https://www.sirmontys.com/", "brewsday": null, "trek": "Neither" }, "geometry": { "type": "Point", "coordinates": [ -78.799441400001584, 43.908424600002789 ] } },
{ "type": "Feature", "properties": { "name": "Skeleton Park Brewery", "addr": "675 Arlington Park Place Unit 3", "phone": "613-417-0375", "web": "http://www.skeletonpark.ca/", "brewsday": null, "trek": "Bike" }, "geometry": { "type": "Point", "coordinates": [ -76.569714000001454, 44.241192200002857 ] } },
{ "type": "Feature", "properties": { "name": "Slabtown Cidery / Brewery", "addr": "4559 Concession Road 6", "phone": null, "web": "https://www.slabtowncider.com/", "brewsday": null, "trek": "Neither" }, "geometry": { "type": "Point", "coordinates": [ -79.124732900001575, 44.060630700002804 ] } },
{ "type": "Feature", "properties": { "name": "Slake Brewing", "addr": "181 Mowbray Road", "phone": null, "web": "https://www.slakebrewing.com/", "brewsday": null, "trek": "Neither" }, "geometry": { "type": "Point", "coordinates": [ -77.149597100001472, 43.975692700002867 ] } },
{ "type": "Feature", "properties": { "name": "Slate Island Brewing Company", "addr": "9 Simcoe Plaza", "phone": null, "web": "https://www.facebook.com/SlateIslandBreweryTB", "brewsday": null, "trek": "Neither" }, "geometry": { "type": "Point", "coordinates": [ -87.102807800001884, 48.782677500002237 ] } },
{ "type": "Feature", "properties": { "name": "Sleeman Brewing & Malting Co", "addr": "551 Clair Road West", "phone": "519-822-1834", "web": "https://sleeman.ca/en", "brewsday": null, "trek": "Bike" }, "geometry": { "type": "Point", "coordinates": [ -80.206869200001663, 43.490174800002791 ] } },
{ "type": "Feature", "properties": { "name": "Sleeping Giant Brewing Co.", "addr": "712 Macdonnell Street", "phone": "807-344-5225", "web": "https://sleepinggiantbrewing.ca/", "brewsday": null, "trek": "Neither" }, "geometry": { "type": "Point", "coordinates": [ -89.243280500001958, 48.416883900002198 ] } },
{ "type": "Feature", "properties": { "name": "Something In The Water Brewing Co", "addr": "275 Princess Street", "phone": null, "web": "https://somethingbrewing.ca/", "brewsday": "1", "trek": "Bike" }, "geometry": { "type": "Point", "coordinates": [ -76.48815270000145, 44.232569600002833 ] } },
{ "type": "Feature", "properties": { "name": "Something In The Water Brewing Co", "addr": "151 East Liberty Street", "phone": null, "web": "https://somethingbrewing.ca/", "brewsday": "1", "trek": "Bike and Transit" }, "geometry": { "type": "Point", "coordinates": [ -79.416937100001604, 43.638323900002803 ] } },
{ "type": "Feature", "properties": { "name": "Sonnen Hill Brewing", "addr": "20727 Heart Lake Road", "phone": null, "web": "http://www.sonnenhill.com/", "brewsday": null, "trek": "Neither" }, "geometry": { "type": "Point", "coordinates": [ -80.035579200001649, 43.926433300002778 ] } },
{ "type": "Feature", "properties": { "name": "Sons Of Kent Brewing Company", "addr": "27 Adelaide Street South", "phone": "519-354-2337", "web": "https://sonsofkent.com/", "brewsday": null, "trek": "Neither" }, "geometry": { "type": "Point", "coordinates": [ -82.179402000001744, 42.405583000002771 ] } },
{ "type": "Feature", "properties": { "name": "Spark Beer", "addr": "702 Somerset Street West", "phone": "613-663-9997", "web": "https://spark.beer/", "brewsday": null, "trek": "Bike" }, "geometry": { "type": "Point", "coordinates": [ -75.707029900001416, 45.410707600002802 ] } },
{ "type": "Feature", "properties": { "name": "Sparrow Brewing & Roasting Co.", "addr": "4-54 Guelph Avenue", "phone": "519-841-4029", "web": "https://www.sparrowbrewco.com/", "brewsday": null, "trek": "Bike" }, "geometry": { "type": "Point", "coordinates": [ -80.311645000001647, 43.433557200002781 ] } },
{ "type": "Feature", "properties": { "name": "Spearhead Brewing Company", "addr": "675 Development Drive", "phone": "613-483-0302", "web": "https://spearheadbeer.com/", "brewsday": null, "trek": "Bike" }, "geometry": { "type": "Point", "coordinates": [ -76.569684100001453, 44.241199700002817 ] } },
{ "type": "Feature", "properties": { "name": "Split Rail Brewing Company", "addr": "31 Water Street", "phone": "705-370-8284", "web": "https://splitrailmanitoulin.com/", "brewsday": null, "trek": "Neither" }, "geometry": { "type": "Point", "coordinates": [ -82.461265500001744, 45.922626400002571 ] } },
{ "type": "Feature", "properties": { "name": "Square Brew", "addr": "430 Parsons Court", "phone": "519-612-2739", "web": "http://www.squarebrewco.com/", "brewsday": null, "trek": "Neither" }, "geometry": { "type": "Point", "coordinates": [ -81.69449170000172, 43.72835060000272 ] } },
{ "type": "Feature", "properties": { "name": "Stack Brewing", "addr": "947 Falconbridge Road", "phone": "705-586-7822", "web": "https://stackbrewing.ca/", "brewsday": null, "trek": "Neither" }, "geometry": { "type": "Point", "coordinates": [ -80.925323000001683, 46.517485400002592 ] } },
{ "type": "Feature", "properties": { "name": "Stalwart Brewing Company Ltd.", "addr": "10 High Street", "phone": "613-253-2307", "web": "http://www.stalwartbrewing.ca/", "brewsday": null, "trek": "Neither" }, "geometry": { "type": "Point", "coordinates": [ -76.148619800001441, 45.14132100000279 ] } },
{ "type": "Feature", "properties": { "name": "Steadfast Brewing Company", "addr": "301 Lansdowne Ave", "phone": "416-516-0581", "web": "https://www.steadfastbrewingco.com/home", "brewsday": null, "trek": "Bike and Transit" }, "geometry": { "type": "Point", "coordinates": [ -79.439654300001621, 43.650594900002801 ] } },
{ "type": "Feature", "properties": { "name": "Steam Whistle Etobicoke", "addr": "259 Evans Avenue", "phone": "416-362-9961", "web": "https://steamwhistle.ca/", "brewsday": null, "trek": "Bike and Transit" }, "geometry": { "type": "Point", "coordinates": [ -79.3857111000016, 43.640667200002817 ] } },
{ "type": "Feature", "properties": { "name": "Steel Wheel Brewery", "addr": "105 Powerline Road", "phone": null, "web": "https://steelwheel.ca/", "brewsday": null, "trek": "Neither" }, "geometry": { "type": "Point", "coordinates": [ -80.210703500001628, 43.19744340000279 ] } },
{ "type": "Feature", "properties": { "name": "Stockyards Beverage Company", "addr": "25 Benjamin Road", "phone": "519-514-1820", "web": "https://www.stockyardsbeverage.co/our-beer", "brewsday": null, "trek": "Bike" }, "geometry": { "type": "Point", "coordinates": [ -80.554435300001671, 43.508141300002777 ] } },
{ "type": "Feature", "properties": { "name": "Stone House Brewing Company", "addr": "76048 Parr Line", "phone": "519-281-1167", "web": "https://www.stonehousebrewing.ca/", "brewsday": null, "trek": "Neither" }, "geometry": { "type": "Point", "coordinates": [ -81.591842600001726, 43.540576900002748 ] } },
{ "type": "Feature", "properties": { "name": "Stonehooker Brewing Company", "addr": "866 Lakeshore Road East", "phone": "289-847-5000", "web": "https://stonehooker.com/", "brewsday": null, "trek": "Bike" }, "geometry": { "type": "Point", "coordinates": [ -79.562008000001612, 43.573061000002781 ] } },
{ "type": "Feature", "properties": { "name": "Stonepicker Brewing Company", "addr": "7143 Forest Road", "phone": null, "web": "https://www.stonepickerbrewing.com/", "brewsday": null, "trek": "Neither" }, "geometry": { "type": "Point", "coordinates": [ -82.006207100001745, 43.060952800002759 ] } },
{ "type": "Feature", "properties": { "name": "Storm Stayed Brewing Company Inc.", "addr": "169 Wharncliffe Road S", "phone": "519-601-7829", "web": "https://stormstayed.com/", "brewsday": null, "trek": "Bike" }, "geometry": { "type": "Point", "coordinates": [ -81.262292100001702, 42.971895600002775 ] } },
{ "type": "Feature", "properties": { "name": "Stray Dog Brewing Company", "addr": "501 Lacolle Way, Unit 4", "phone": "613-830-7364", "web": "https://stray-dog-brewing.myshopify.com/", "brewsday": null, "trek": "Bike" }, "geometry": { "type": "Point", "coordinates": [ -75.482455600001401, 45.491200900002802 ] } },
{ "type": "Feature", "properties": { "name": "Taps Brewing Company Inc.", "addr": "4680 Queen Street", "phone": "289-477-1010", "web": "https://tapsbeer.ca/", "brewsday": null, "trek": "Bike" }, "geometry": { "type": "Point", "coordinates": [ -79.084943600001594, 43.089557700002828 ] } },
{ "type": "Feature", "properties": { "name": "Test Batches Brewery", "addr": "476 Hugel Ave", "phone": "705 540 9448", "web": "https://testbatchesbrewery.com/", "brewsday": null, "trek": "Neither" }, "geometry": { "type": "Point", "coordinates": [ -79.884636000001649, 44.750562900002734 ] } },
{ "type": "Feature", "properties": { "name": "The George Brew House And Eatery", "addr": "236 Main Street S", "phone": "905-235-1050", "web": "https://thegeorgebrewing.ca/", "brewsday": null, "trek": "Bike and Transit" }, "geometry": { "type": "Point", "coordinates": [ -79.456775900001617, 44.052212100002777 ] } },
{ "type": "Feature", "properties": { "name": "The George Hamilton Restaurant And Brewery", "addr": "152 King Street West", "phone": "905-381-9820", "web": "https://www.thegeorgehamilton.com/", "brewsday": null, "trek": "Bike and Transit" }, "geometry": { "type": "Point", "coordinates": [ -79.87380210000164, 43.25831220000282 ] } },
{ "type": "Feature", "properties": { "name": "The Grist Craft Kitchen And Brewery", "addr": "78 Four Mile Creek Road", "phone": "905-262-7878", "web": "http://www.thegrist.ca/", "brewsday": null, "trek": "Neither" }, "geometry": { "type": "Point", "coordinates": [ -79.103947300001607, 43.150228500002839 ] } },
{ "type": "Feature", "properties": { "name": "The Grove Brewing Corporation", "addr": "12 Main Street E", "phone": "519-712-9087", "web": "https://mygrovebrewhouse.com/", "brewsday": null, "trek": "Neither" }, "geometry": { "type": "Point", "coordinates": [ -82.727731700001783, 42.034829100002767 ] } },
{ "type": "Feature", "properties": { "name": "The Merchant Ale House", "addr": "98 St. Paul Street", "phone": "905-984-4060", "web": "http://merchantalehouse.com/", "brewsday": null, "trek": "Neither" }, "geometry": { "type": "Point", "coordinates": [ -79.245110800001612, 43.156834600002846 ] } },
{ "type": "Feature", "properties": { "name": "Third Moon Brewing", "addr": "295 Alliance Road, Unit 3", "phone": null, "web": "https://thirdmoonbrewing.com/", "brewsday": null, "trek": "Bike" }, "geometry": { "type": "Point", "coordinates": [ -79.89329290000164, 43.525057600002782 ] } },
{ "type": "Feature", "properties": { "name": "Thornbury Village Brewery", "addr": "90 King Street East", "phone": "519-599-2616", "web": "https://thornburycraft.com/", "brewsday": null, "trek": "Neither" }, "geometry": { "type": "Point", "coordinates": [ -80.457968000001671, 44.564366000002714 ] } },
{ "type": "Feature", "properties": { "name": "Three Sheets Brewing", "addr": "705 Goderich Street", "phone": "519-832-5565", "web": "https://www.facebook.com/threesheetscraftbrewing/", "brewsday": null, "trek": "Neither" }, "geometry": { "type": "Point", "coordinates": [ -81.376480800001701, 44.452506000002721 ] } },
{ "type": "Feature", "properties": { "name": "Tilted Glass Brewing Company", "addr": "160 Baseline Street", "phone": "905-697-9979", "web": "https://tiltedglass.ca/", "brewsday": null, "trek": "Neither" }, "geometry": { "type": "Point", "coordinates": [ -78.68801900000156, 43.912604200002818 ] } },
{ "type": "Feature", "properties": { "name": "Tobermory Brewing Company", "addr": "28 Bay Street", "phone": "519-596-8181", "web": "https://tobermorybrewingco.com/", "brewsday": null, "trek": "Neither" }, "geometry": { "type": "Point", "coordinates": [ -81.664541100001713, 45.253362500002638 ] } },
{ "type": "Feature", "properties": { "name": "Toboggan Brewing Company", "addr": "585 Richmond Street", "phone": "519-433-2337", "web": "https://www.tobogganbrewing.com/", "brewsday": null, "trek": "Bike" }, "geometry": { "type": "Point", "coordinates": [ -81.251190900001703, 42.989852600002791 ] } },
{ "type": "Feature", "properties": { "name": "Together We'Re Bitter Co-Operative Brewing Inc.", "addr": "300 Mill Street, Unit 1", "phone": "519-954-4433", "web": "https://www.twbbrewing.com/", "brewsday": null, "trek": "Bike and Transit" }, "geometry": { "type": "Point", "coordinates": [ -80.248166600001653, 43.544804800002794 ] } },
{ "type": "Feature", "properties": { "name": "Tooth & Nail Brewery", "addr": "3 Irving Avenue", "phone": "613-695-4677", "web": "https://toothandnailbeer.com/", "brewsday": null, "trek": "Bike" }, "geometry": { "type": "Point", "coordinates": [ -75.722597200001402, 45.405452800002784 ] } },
{ "type": "Feature", "properties": { "name": "Top Dog Brewing Company", "addr": "2014 Road 3 E", "phone": null, "web": "https://topdogbrew.ca/", "brewsday": null, "trek": "Neither" }, "geometry": { "type": "Point", "coordinates": [ -82.648766000001757, 42.061202900002769 ] } },