{
"type": "FeatureCollection",
"crs": { "type": "name", "properties": { "name": "urn:ogc:def:crs:OGC:1.3:CRS84" } },
"features": [
{ "type": "Feature", "properties": { "id": 19801, "name": "Station 26 Brewing Co", "addr": "7045 E 38th Ave, Denver, Colorado, 80207-1541, United States", "phone": null, "web": "www.station26brewing.co", "lat": 39.769619, "lon": -104.905899, "from_id": 19801, "to_id": 19801, "walk": 0.0, "bike": 0, "transit": 0.0 }, "geometry": { "type": "Point", "coordinates": [ -104.905899, 39.769619 ] } },
{ "type": "Feature", "properties": { "id": 17902, "name": "Backacre Beermakers", "addr": "None, Denver, Colorado, 80207, United States", "phone": "(303) 550-6024", "web": "www.backacrebeermakers.com", "lat": 39.76, "lon": -104.9194, "from_id": 19801, "to_id": 17902, "walk": 27.0, "bike": 13, "transit": 27.0 }, "geometry": { "type": "Point", "coordinates": [ -104.9194, 39.76 ] } },
{ "type": "Feature", "properties": { "id": 10060, "name": "FlyteCo Tower", "addr": "3120 Uinta St, Denver, Colorado, 80238, United States", "phone": null, "web": null, "lat": 39.760934, "lon": -104.892067, "from_id": 19801, "to_id": 10060, "walk": 25.0, "bike": 11, "transit": 25.0 }, "geometry": { "type": "Point", "coordinates": [ -104.892067, 39.760934 ] } },
{ "type": "Feature", "properties": { "id": 15801, "name": "Cohesion Brewing Ltd", "addr": "3851 Steele St, Denver, Colorado, 80205, United States", "phone": "(972) 754-8702", "web": null, "lat": 39.769693, "lon": -104.957517, "from_id": 15801, "to_id": 15801, "walk": 0.0, "bike": 0, "transit": 0.0 }, "geometry": { "type": "Point", "coordinates": [ -104.957517, 39.769693 ] } },
{ "type": "Feature", "properties": { "id": 15518, "name": "Black Shirt Brewing Co", "addr": "3719 Walnut St, Denver, Colorado, 80205-2436, United States", "phone": "(303) 993-2799", "web": "www.blackshirtbrewingco.com", "lat": 39.769859, "lon": -104.97299, "from_id": 15801, "to_id": 15518, "walk": 21.0, "bike": 9, "transit": 21.0 }, "geometry": { "type": "Point", "coordinates": [ -104.97299, 39.769859 ] } },
{ "type": "Feature", "properties": { "id": 13395, "name": "Great Divide Brewing Co - RiNo Barrel Bar", "addr": "1812 35th St, Denver, Colorado, 80216-3665, United States", "phone": "(303) 296-9460", "web": "greatdivide.com", "lat": 39.770279, "lon": -104.979868, "from_id": 15801, "to_id": 13395, "walk": 29.0, "bike": 15, "transit": 29.0 }, "geometry": { "type": "Point", "coordinates": [ -104.979868, 39.770279 ] } },
{ "type": "Feature", "properties": { "id": 8462, "name": "Blue Moon Brewing Co.", "addr": "3750 Chestnut Pl, Denver, Colorado, 80216-3632, United States", "phone": null, "web": null, "lat": 39.773697, "lon": -104.977082, "from_id": 15801, "to_id": 8462, "walk": 27.0, "bike": 15, "transit": 27.0 }, "geometry": { "type": "Point", "coordinates": [ -104.977082, 39.773697 ] } },
{ "type": "Feature", "properties": { "id": 14301, "name": "Left Hand RiNo", "addr": "4180 Wynkoop Street, Denver, Colorado, 80216, United States", "phone": null, "web": null, "lat": 39.775197, "lon": -104.970829, "from_id": 15801, "to_id": 14301, "walk": 28.0, "bike": 14, "transit": 28.0 }, "geometry": { "type": "Point", "coordinates": [ -104.970829, 39.775197 ] } },
{ "type": "Feature", "properties": { "id": 17897, "name": "River North Brewery - RiNo", "addr": "3400 Blake St, Denver, Colorado, 80205-2440, United States", "phone": "(785) 865-6057", "web": "www.rivernorthbrewery.com", "lat": 39.767162, "lon": -104.97687, "from_id": 15801, "to_id": 17897, "walk": 25.0, "bike": 9, "transit": 25.0 }, "geometry": { "type": "Point", "coordinates": [ -104.97687, 39.767162 ] } },
{ "type": "Feature", "properties": { "id": 10059, "name": "FlyteCo Brewing", "addr": "4499 W 38th Ave\r\nSTE 101, DENVER, None, 80212, United States", "phone": "6312355289", "web": "www.flyteco.beer", "lat": 39.769715, "lon": -105.0448, "from_id": 10059, "to_id": 10059, "walk": 0.0, "bike": 0, "transit": 0.0 }, "geometry": { "type": "Point", "coordinates": [ -105.0448, 39.769715 ] } },
{ "type": "Feature", "properties": { "id": 5180, "name": "The Empourium Brewing Company", "addr": "4385 W 42nd Ave, Denver, Colorado, 80212-2399, United States", "phone": "(720) 361-2973", "web": "www.theempourium.com", "lat": 39.774125, "lon": -105.043706, "from_id": 10059, "to_id": 5180, "walk": 7.0, "bike": 2, "transit": 7.0 }, "geometry": { "type": "Point", "coordinates": [ -105.043706, 39.774125 ] } },
{ "type": "Feature", "properties": { "id": 17163, "name": "Berkeley Alley Beer Co.", "addr": "4342 Tennyson St, Denver, Colorado, 80212-2308, United States", "phone": "(303) 455-4267", "web": "www.berkeleyalleybeer.com", "lat": 39.77607, "lon": -105.043676, "from_id": 10059, "to_id": 17163, "walk": 9.0, "bike": 3, "transit": 9.0 }, "geometry": { "type": "Point", "coordinates": [ -105.043676, 39.77607 ] } },
{ "type": "Feature", "properties": { "id": 5120, "name": "The Grateful Gnome Sandwich Shoppe and Brewery", "addr": "4369 Stuart St, Denver, Colorado, 80212-2335, United States", "phone": "(720) 598-6863", "web": "www.thegratefulgnome.com", "lat": 39.776357, "lon": -105.043123, "from_id": 10059, "to_id": 5120, "walk": 11.0, "bike": 3, "transit": 11.0 }, "geometry": { "type": "Point", "coordinates": [ -105.043123, 39.776357 ] } },
{ "type": "Feature", "properties": { "id": 11083, "name": "Call To Arms Brewing Company", "addr": "4526 Tennyson St, Denver, Colorado, 80212-2527, United States", "phone": "(720) 328-8258", "web": "www.facebook.com/calltoarmsbrewing", "lat": 39.778894, "lon": -105.043802, "from_id": 10059, "to_id": 11083, "walk": 13.0, "bike": 4, "transit": 13.0 }, "geometry": { "type": "Point", "coordinates": [ -105.043802, 39.778894 ] } },
{ "type": "Feature", "properties": { "id": 15136, "name": "Hogshead Brewery", "addr": "4460 W 29th Ave, Denver, Colorado, 80212-3015, United States", "phone": "(303) 495-3105", "web": "www.hogshead54.com", "lat": 39.758251, "lon": -105.045112, "from_id": 10059, "to_id": 15136, "walk": 17.0, "bike": 5, "transit": 17.0 }, "geometry": { "type": "Point", "coordinates": [ -105.045112, 39.758251 ] } },
{ "type": "Feature", "properties": { "id": 7217, "name": "Oasis Brewery", "addr": "3257 N Lowell Blvd, Denver, Colorado, 80211, United States", "phone": "(303) 317-4369", "web": "www.oasisbeer.com", "lat": 39.762824, "lon": -105.034911, "from_id": 10059, "to_id": 7217, "walk": 20.0, "bike": 6, "transit": 20.0 }, "geometry": { "type": "Point", "coordinates": [ -105.034911, 39.762824 ] } },
{ "type": "Feature", "properties": { "id": 15801, "name": "Cohesion Brewing Ltd", "addr": "3851 Steele St, Denver, Colorado, 80205, United States", "phone": "(972) 754-8702", "web": null, "lat": 39.769693, "lon": -104.957517, "from_id": 15518, "to_id": 15801, "walk": 21.0, "bike": 8, "transit": 21.0 }, "geometry": { "type": "Point", "coordinates": [ -104.957517, 39.769693 ] } },
{ "type": "Feature", "properties": { "id": 15518, "name": "Black Shirt Brewing Co", "addr": "3719 Walnut St, Denver, Colorado, 80205-2436, United States", "phone": "(303) 993-2799", "web": "www.blackshirtbrewingco.com", "lat": 39.769859, "lon": -104.97299, "from_id": 15518, "to_id": 15518, "walk": 0.0, "bike": 0, "transit": 0.0 }, "geometry": { "type": "Point", "coordinates": [ -104.97299, 39.769859 ] } },
{ "type": "Feature", "properties": { "id": 13395, "name": "Great Divide Brewing Co - RiNo Barrel Bar", "addr": "1812 35th St, Denver, Colorado, 80216-3665, United States", "phone": "(303) 296-9460", "web": "greatdivide.com", "lat": 39.770279, "lon": -104.979868, "from_id": 15518, "to_id": 13395, "walk": 11.0, "bike": 8, "transit": 11.0 }, "geometry": { "type": "Point", "coordinates": [ -104.979868, 39.770279 ] } },
{ "type": "Feature", "properties": { "id": 8462, "name": "Blue Moon Brewing Co.", "addr": "3750 Chestnut Pl, Denver, Colorado, 80216-3632, United States", "phone": null, "web": null, "lat": 39.773697, "lon": -104.977082, "from_id": 15518, "to_id": 8462, "walk": 9.0, "bike": 8, "transit": 9.0 }, "geometry": { "type": "Point", "coordinates": [ -104.977082, 39.773697 ] } },
{ "type": "Feature", "properties": { "id": 14301, "name": "Left Hand RiNo", "addr": "4180 Wynkoop Street, Denver, Colorado, 80216, United States", "phone": null, "web": null, "lat": 39.775197, "lon": -104.970829, "from_id": 15518, "to_id": 14301, "walk": 11.0, "bike": 7, "transit": 11.0 }, "geometry": { "type": "Point", "coordinates": [ -104.970829, 39.775197 ] } },
{ "type": "Feature", "properties": { "id": 13394, "name": "Great Divide Brewing Co", "addr": "2201 Arapahoe St, Denver, Colorado, 80205-2512, United States", "phone": "(303) 296-9460", "web": "www.greatdivide.com", "lat": 39.753907, "lon": -104.988469, "from_id": 15518, "to_id": 13394, "walk": 29.0, "bike": 10, "transit": 29.0 }, "geometry": { "type": "Point", "coordinates": [ -104.988469, 39.753907 ] } },
{ "type": "Feature", "properties": { "id": 18176, "name": "Spangalang Brewery", "addr": "2736 Welton St Ste 102, Denver, Colorado, 80205-2900, United States", "phone": "(303) 297-1276", "web": "www.spangalangbrewery.com", "lat": 39.755088, "lon": -104.977138, "from_id": 15518, "to_id": 18176, "walk": 23.0, "bike": 9, "transit": 23.0 }, "geometry": { "type": "Point", "coordinates": [ -104.977138, 39.755088 ] } },
{ "type": "Feature", "properties": { "id": 12101, "name": "The Sandlot Brewery At Coors Field", "addr": "2145 Blake St, Denver, Colorado, 80205-2010, United States", "phone": "(303) 298-1587", "web": "www.sandlotbrewery.com", "lat": 39.75634, "lon": -104.991956, "from_id": 15518, "to_id": 12101, "walk": 28.0, "bike": 10, "transit": 28.0 }, "geometry": { "type": "Point", "coordinates": [ -104.991956, 39.75634 ] } },
{ "type": "Feature", "properties": { "id": 11520, "name": "Our Mutual Friend Brewing", "addr": "2810 Larimer St, Denver, Colorado, 80205-2223, United States", "phone": "(303) 296-3441", "web": "www.omfbeer.com", "lat": 39.760578, "lon": -104.982222, "from_id": 15518, "to_id": 11520, "walk": 18.0, "bike": 6, "transit": 18.0 }, "geometry": { "type": "Point", "coordinates": [ -104.982222, 39.760578 ] } },
{ "type": "Feature", "properties": { "id": 15453, "name": "Ratio Beerworks", "addr": "2920 Larimer St, Denver, Colorado, 80205-2309, United States", "phone": "(310) 266-9264", "web": "ratiobeerworks.com", "lat": 39.761483, "lon": -104.981041, "from_id": 15518, "to_id": 15453, "walk": 16.0, "bike": 5, "transit": 16.0 }, "geometry": { "type": "Point", "coordinates": [ -104.981041, 39.761483 ] } },
{ "type": "Feature", "properties": { "id": 7084, "name": "Odell Brewing Co Five Points Brewhouse", "addr": "2945 Larimer St, Denver, Colorado, 80205-2308, United States", "phone": null, "web": null, "lat": 39.762197, "lon": -104.981163, "from_id": 15518, "to_id": 7084, "walk": 15.0, "bike": 5, "transit": 15.0 }, "geometry": { "type": "Point", "coordinates": [ -104.981163, 39.762197 ] } },
{ "type": "Feature", "properties": { "id": 17614, "name": "Bierstadt Lagerhaus", "addr": "2875 Blake St, Denver, Colorado, 80205-2210, United States", "phone": "(720) 570-7824", "web": "www.bierstadtlager.com", "lat": 39.762819, "lon": -104.98398, "from_id": 15518, "to_id": 17614, "walk": 16.0, "bike": 5, "transit": 16.0 }, "geometry": { "type": "Point", "coordinates": [ -104.98398, 39.762819 ] } },
{ "type": "Feature", "properties": { "id": 5925, "name": "14er Brewing Company", "addr": "3120 Blake St, Denver, Colorado, 80205-2307, United States", "phone": "(720) 773-1437", "web": "www.14erBrewing.com", "lat": 39.764804, "lon": -104.980216, "from_id": 15518, "to_id": 5925, "walk": 11.0, "bike": 4, "transit": 11.0 }, "geometry": { "type": "Point", "coordinates": [ -104.980216, 39.764804 ] } },
{ "type": "Feature", "properties": { "id": 17897, "name": "River North Brewery - RiNo", "addr": "3400 Blake St, Denver, Colorado, 80205-2440, United States", "phone": "(785) 865-6057", "web": "www.rivernorthbrewery.com", "lat": 39.767162, "lon": -104.97687, "from_id": 15518, "to_id": 17897, "walk": 6.0, "bike": 2, "transit": 6.0 }, "geometry": { "type": "Point", "coordinates": [ -104.97687, 39.767162 ] } },
{ "type": "Feature", "properties": { "id": 6369, "name": "New Belgium Brewing Company- Denver Pilot At the Source", "addr": "3330 Brighton Blvd, Denver, Colorado, 80216-5021, United States", "phone": null, "web": "www.newbelgium.com/Brewery/TheWoods", "lat": 39.768436, "lon": -104.980163, "from_id": 15518, "to_id": 6369, "walk": 12.0, "bike": 9, "transit": 12.0 }, "geometry": { "type": "Point", "coordinates": [ -104.980163, 39.768436 ] } },
{ "type": "Feature", "properties": { "id": 8331, "name": "Crooked Stave Artisan Beer Project", "addr": "3350 Brighton Blvd, Denver, Colorado, 80216, United States", "phone": "(720) 550-8860", "web": null, "lat": 39.768758, "lon": -104.979746, "from_id": 15518, "to_id": 8331, "walk": 12.0, "bike": 7, "transit": 12.0 }, "geometry": { "type": "Point", "coordinates": [ -104.979746, 39.768758 ] } },
{ "type": "Feature", "properties": { "id": 13875, "name": "Diebolt Brewing", "addr": "3855 Mariposa St, Denver, Colorado, 80211-2647, United States", "phone": "(720) 643-5940", "web": "www.dieboltbrewing.com", "lat": 39.769965, "lon": -105.003172, "from_id": 13875, "to_id": 13875, "walk": 0.0, "bike": 0, "transit": 0.0 }, "geometry": { "type": "Point", "coordinates": [ -105.003172, 39.769965 ] } },
{ "type": "Feature", "properties": { "id": 12265, "name": "Denver Beer Co Canworks", "addr": "4455 Jason St, Denver, Colorado, 80211-2412, United States", "phone": "(720) 295-4781", "web": null, "lat": 39.777038, "lon": -105.000338, "from_id": 13875, "to_id": 12265, "walk": 14.0, "bike": 4, "transit": 14.0 }, "geometry": { "type": "Point", "coordinates": [ -105.000338, 39.777038 ] } },
{ "type": "Feature", "properties": { "id": 12687, "name": "Altitude Brewing & Supply", "addr": "4577 N Pecos St, Denver, Colorado, 80211, United States", "phone": null, "web": "www.altitudebrew.com", "lat": 39.779649, "lon": -105.006838, "from_id": 13875, "to_id": 12687, "walk": 17.0, "bike": 6, "transit": 17.0 }, "geometry": { "type": "Point", "coordinates": [ -105.006838, 39.779649 ] } },
{ "type": "Feature", "properties": { "id": 8329, "name": "Crooked Stave", "addr": "1441 W 46th Ave Unit 17, Denver, Colorado, 80211-2338, United States", "phone": "(720) 508-3292", "web": "www.crookedstave.com", "lat": 39.780687, "lon": -105.004716, "from_id": 13875, "to_id": 8329, "walk": 17.0, "bike": 6, "transit": 17.0 }, "geometry": { "type": "Point", "coordinates": [ -105.004716, 39.780687 ] } },
{ "type": "Feature", "properties": { "id": 12101, "name": "The Sandlot Brewery At Coors Field", "addr": "2145 Blake St, Denver, Colorado, 80205-2010, United States", "phone": "(303) 298-1587", "web": "www.sandlotbrewery.com", "lat": 39.75634, "lon": -104.991956, "from_id": 13875, "to_id": 12101, "walk": 27.0, "bike": 11, "transit": 27.0 }, "geometry": { "type": "Point", "coordinates": [ -104.991956, 39.75634 ] } },
{ "type": "Feature", "properties": { "id": 8939, "name": "Cerveceria Colorado", "addr": "1635 Platte Street, Denver, Colorado, 80202-1123, United States", "phone": "(303) 433-2739", "web": null, "lat": 39.758181, "lon": -105.007379, "from_id": 13875, "to_id": 8939, "walk": 19.0, "bike": 7, "transit": 19.0 }, "geometry": { "type": "Point", "coordinates": [ -105.007379, 39.758181 ] } },
{ "type": "Feature", "properties": { "id": 12263, "name": "Denver Beer Co", "addr": "1695 Platte St, Denver, Colorado, 80202-1123, United States", "phone": "(303) 433-2739", "web": "www.denverbeerco.com", "lat": 39.758293, "lon": -105.007188, "from_id": 13875, "to_id": 12263, "walk": 19.0, "bike": 6, "transit": 19.0 }, "geometry": { "type": "Point", "coordinates": [ -105.007188, 39.758293 ] } },
{ "type": "Feature", "properties": { "id": 12785, "name": "Zuni Street Brewing Company", "addr": "2355 W 29th Ave, Denver, Colorado, 80211-3753, United States", "phone": "(970) 275-0275", "web": "www.zunistreet.com", "lat": 39.758588, "lon": -105.015289, "from_id": 13875, "to_id": 12785, "walk": 25.0, "bike": 8, "transit": 25.0 }, "geometry": { "type": "Point", "coordinates": [ -105.015289, 39.758588 ] } },
{ "type": "Feature", "properties": { "id": 10215, "name": "Prost Brewing Company", "addr": "2540 19th St, Denver, Colorado, 80211-3910, United States", "phone": "(970) 688-0958", "web": "www.prostbrewing.com", "lat": 39.761383, "lon": -105.006671, "from_id": 13875, "to_id": 10215, "walk": 14.0, "bike": 4, "transit": 14.0 }, "geometry": { "type": "Point", "coordinates": [ -105.006671, 39.761383 ] } },
{ "type": "Feature", "properties": { "id": 15801, "name": "Cohesion Brewing Ltd", "addr": "3851 Steele St, Denver, Colorado, 80205, United States", "phone": "(972) 754-8702", "web": null, "lat": 39.769693, "lon": -104.957517, "from_id": 13395, "to_id": 15801, "walk": 29.0, "bike": 14, "transit": 29.0 }, "geometry": { "type": "Point", "coordinates": [ -104.957517, 39.769693 ] } },
{ "type": "Feature", "properties": { "id": 15518, "name": "Black Shirt Brewing Co", "addr": "3719 Walnut St, Denver, Colorado, 80205-2436, United States", "phone": "(303) 993-2799", "web": "www.blackshirtbrewingco.com", "lat": 39.769859, "lon": -104.97299, "from_id": 13395, "to_id": 15518, "walk": 10.0, "bike": 8, "transit": 10.0 }, "geometry": { "type": "Point", "coordinates": [ -104.97299, 39.769859 ] } },
{ "type": "Feature", "properties": { "id": 13395, "name": "Great Divide Brewing Co - RiNo Barrel Bar", "addr": "1812 35th St, Denver, Colorado, 80216-3665, United States", "phone": "(303) 296-9460", "web": "greatdivide.com", "lat": 39.770279, "lon": -104.979868, "from_id": 13395, "to_id": 13395, "walk": 0.0, "bike": 0, "transit": 0.0 }, "geometry": { "type": "Point", "coordinates": [ -104.979868, 39.770279 ] } },
{ "type": "Feature", "properties": { "id": 8462, "name": "Blue Moon Brewing Co.", "addr": "3750 Chestnut Pl, Denver, Colorado, 80216-3632, United States", "phone": null, "web": null, "lat": 39.773697, "lon": -104.977082, "from_id": 13395, "to_id": 8462, "walk": 7.0, "bike": 5, "transit": 7.0 }, "geometry": { "type": "Point", "coordinates": [ -104.977082, 39.773697 ] } },
{ "type": "Feature", "properties": { "id": 14301, "name": "Left Hand RiNo", "addr": "4180 Wynkoop Street, Denver, Colorado, 80216, United States", "phone": null, "web": null, "lat": 39.775197, "lon": -104.970829, "from_id": 13395, "to_id": 14301, "walk": 13.0, "bike": 7, "transit": 13.0 }, "geometry": { "type": "Point", "coordinates": [ -104.970829, 39.775197 ] } },
{ "type": "Feature", "properties": { "id": 13394, "name": "Great Divide Brewing Co", "addr": "2201 Arapahoe St, Denver, Colorado, 80205-2512, United States", "phone": "(303) 296-9460", "web": "www.greatdivide.com", "lat": 39.753907, "lon": -104.988469, "from_id": 13395, "to_id": 13394, "walk": 28.0, "bike": 14, "transit": 28.0 }, "geometry": { "type": "Point", "coordinates": [ -104.988469, 39.753907 ] } },
{ "type": "Feature", "properties": { "id": 18176, "name": "Spangalang Brewery", "addr": "2736 Welton St Ste 102, Denver, Colorado, 80205-2900, United States", "phone": "(303) 297-1276", "web": "www.spangalangbrewery.com", "lat": 39.755088, "lon": -104.977138, "from_id": 13395, "to_id": 18176, "walk": 29.0, "bike": 15, "transit": 29.0 }, "geometry": { "type": "Point", "coordinates": [ -104.977138, 39.755088 ] } },
{ "type": "Feature", "properties": { "id": 12101, "name": "The Sandlot Brewery At Coors Field", "addr": "2145 Blake St, Denver, Colorado, 80205-2010, United States", "phone": "(303) 298-1587", "web": "www.sandlotbrewery.com", "lat": 39.75634, "lon": -104.991956, "from_id": 13395, "to_id": 12101, "walk": 26.0, "bike": 12, "transit": 26.0 }, "geometry": { "type": "Point", "coordinates": [ -104.991956, 39.75634 ] } },
{ "type": "Feature", "properties": { "id": 11520, "name": "Our Mutual Friend Brewing", "addr": "2810 Larimer St, Denver, Colorado, 80205-2223, United States", "phone": "(303) 296-3441", "web": "www.omfbeer.com", "lat": 39.760578, "lon": -104.982222, "from_id": 13395, "to_id": 11520, "walk": 23.0, "bike": 12, "transit": 23.0 }, "geometry": { "type": "Point", "coordinates": [ -104.982222, 39.760578 ] } },
{ "type": "Feature", "properties": { "id": 15453, "name": "Ratio Beerworks", "addr": "2920 Larimer St, Denver, Colorado, 80205-2309, United States", "phone": "(310) 266-9264", "web": "ratiobeerworks.com", "lat": 39.761483, "lon": -104.981041, "from_id": 13395, "to_id": 15453, "walk": 21.0, "bike": 11, "transit": 21.0 }, "geometry": { "type": "Point", "coordinates": [ -104.981041, 39.761483 ] } },
{ "type": "Feature", "properties": { "id": 7084, "name": "Odell Brewing Co Five Points Brewhouse", "addr": "2945 Larimer St, Denver, Colorado, 80205-2308, United States", "phone": null, "web": null, "lat": 39.762197, "lon": -104.981163, "from_id": 13395, "to_id": 7084, "walk": 19.0, "bike": 11, "transit": 19.0 }, "geometry": { "type": "Point", "coordinates": [ -104.981163, 39.762197 ] } },
{ "type": "Feature", "properties": { "id": 17614, "name": "Bierstadt Lagerhaus", "addr": "2875 Blake St, Denver, Colorado, 80205-2210, United States", "phone": "(720) 570-7824", "web": "www.bierstadtlager.com", "lat": 39.762819, "lon": -104.98398, "from_id": 13395, "to_id": 17614, "walk": 19.0, "bike": 11, "transit": 19.0 }, "geometry": { "type": "Point", "coordinates": [ -104.98398, 39.762819 ] } },
{ "type": "Feature", "properties": { "id": 5925, "name": "14er Brewing Company", "addr": "3120 Blake St, Denver, Colorado, 80205-2307, United States", "phone": "(720) 773-1437", "web": "www.14erBrewing.com", "lat": 39.764804, "lon": -104.980216, "from_id": 13395, "to_id": 5925, "walk": 14.0, "bike": 10, "transit": 14.0 }, "geometry": { "type": "Point", "coordinates": [ -104.980216, 39.764804 ] } },
{ "type": "Feature", "properties": { "id": 17897, "name": "River North Brewery - RiNo", "addr": "3400 Blake St, Denver, Colorado, 80205-2440, United States", "phone": "(785) 865-6057", "web": "www.rivernorthbrewery.com", "lat": 39.767162, "lon": -104.97687, "from_id": 13395, "to_id": 17897, "walk": 10.0, "bike": 8, "transit": 10.0 }, "geometry": { "type": "Point", "coordinates": [ -104.97687, 39.767162 ] } },
{ "type": "Feature", "properties": { "id": 6369, "name": "New Belgium Brewing Company- Denver Pilot At the Source", "addr": "3330 Brighton Blvd, Denver, Colorado, 80216-5021, United States", "phone": null, "web": "www.newbelgium.com/Brewery/TheWoods", "lat": 39.768436, "lon": -104.980163, "from_id": 13395, "to_id": 6369, "walk": 4.0, "bike": 3, "transit": 4.0 }, "geometry": { "type": "Point", "coordinates": [ -104.980163, 39.768436 ] } },
{ "type": "Feature", "properties": { "id": 8331, "name": "Crooked Stave Artisan Beer Project", "addr": "3350 Brighton Blvd, Denver, Colorado, 80216, United States", "phone": "(720) 550-8860", "web": null, "lat": 39.768758, "lon": -104.979746, "from_id": 13395, "to_id": 8331, "walk": 4.0, "bike": 2, "transit": 4.0 }, "geometry": { "type": "Point", "coordinates": [ -104.979746, 39.768758 ] } },
{ "type": "Feature", "properties": { "id": 15801, "name": "Cohesion Brewing Ltd", "addr": "3851 Steele St, Denver, Colorado, 80205, United States", "phone": "(972) 754-8702", "web": null, "lat": 39.769693, "lon": -104.957517, "from_id": 8462, "to_id": 15801, "walk": 27.0, "bike": 14, "transit": 27.0 }, "geometry": { "type": "Point", "coordinates": [ -104.957517, 39.769693 ] } },
{ "type": "Feature", "properties": { "id": 15518, "name": "Black Shirt Brewing Co", "addr": "3719 Walnut St, Denver, Colorado, 80205-2436, United States", "phone": "(303) 993-2799", "web": "www.blackshirtbrewingco.com", "lat": 39.769859, "lon": -104.97299, "from_id": 8462, "to_id": 15518, "walk": 9.0, "bike": 7, "transit": 9.0 }, "geometry": { "type": "Point", "coordinates": [ -104.97299, 39.769859 ] } },
{ "type": "Feature", "properties": { "id": 13395, "name": "Great Divide Brewing Co - RiNo Barrel Bar", "addr": "1812 35th St, Denver, Colorado, 80216-3665, United States", "phone": "(303) 296-9460", "web": "greatdivide.com", "lat": 39.770279, "lon": -104.979868, "from_id": 8462, "to_id": 13395, "walk": 7.0, "bike": 5, "transit": 7.0 }, "geometry": { "type": "Point", "coordinates": [ -104.979868, 39.770279 ] } },
{ "type": "Feature", "properties": { "id": 8462, "name": "Blue Moon Brewing Co.", "addr": "3750 Chestnut Pl, Denver, Colorado, 80216-3632, United States", "phone": null, "web": null, "lat": 39.773697, "lon": -104.977082, "from_id": 8462, "to_id": 8462, "walk": 0.0, "bike": 0, "transit": 0.0 }, "geometry": { "type": "Point", "coordinates": [ -104.977082, 39.773697 ] } },
{ "type": "Feature", "properties": { "id": 14301, "name": "Left Hand RiNo", "addr": "4180 Wynkoop Street, Denver, Colorado, 80216, United States", "phone": null, "web": null, "lat": 39.775197, "lon": -104.970829, "from_id": 8462, "to_id": 14301, "walk": 9.0, "bike": 6, "transit": 9.0 }, "geometry": { "type": "Point", "coordinates": [ -104.970829, 39.775197 ] } },
{ "type": "Feature", "properties": { "id": 11520, "name": "Our Mutual Friend Brewing", "addr": "2810 Larimer St, Denver, Colorado, 80205-2223, United States", "phone": "(303) 296-3441", "web": "www.omfbeer.com", "lat": 39.760578, "lon": -104.982222, "from_id": 8462, "to_id": 11520, "walk": 26.0, "bike": 12, "transit": 26.0 }, "geometry": { "type": "Point", "coordinates": [ -104.982222, 39.760578 ] } },
{ "type": "Feature", "properties": { "id": 15453, "name": "Ratio Beerworks", "addr": "2920 Larimer St, Denver, Colorado, 80205-2309, United States", "phone": "(310) 266-9264", "web": "ratiobeerworks.com", "lat": 39.761483, "lon": -104.981041, "from_id": 8462, "to_id": 15453, "walk": 24.0, "bike": 12, "transit": 24.0 }, "geometry": { "type": "Point", "coordinates": [ -104.981041, 39.761483 ] } },
{ "type": "Feature", "properties": { "id": 7084, "name": "Odell Brewing Co Five Points Brewhouse", "addr": "2945 Larimer St, Denver, Colorado, 80205-2308, United States", "phone": null, "web": null, "lat": 39.762197, "lon": -104.981163, "from_id": 8462, "to_id": 7084, "walk": 23.0, "bike": 12, "transit": 23.0 }, "geometry": { "type": "Point", "coordinates": [ -104.981163, 39.762197 ] } },
{ "type": "Feature", "properties": { "id": 17614, "name": "Bierstadt Lagerhaus", "addr": "2875 Blake St, Denver, Colorado, 80205-2210, United States", "phone": "(720) 570-7824", "web": "www.bierstadtlager.com", "lat": 39.762819, "lon": -104.98398, "from_id": 8462, "to_id": 17614, "walk": 22.0, "bike": 12, "transit": 22.0 }, "geometry": { "type": "Point", "coordinates": [ -104.98398, 39.762819 ] } },
{ "type": "Feature", "properties": { "id": 5925, "name": "14er Brewing Company", "addr": "3120 Blake St, Denver, Colorado, 80205-2307, United States", "phone": "(720) 773-1437", "web": "www.14erBrewing.com", "lat": 39.764804, "lon": -104.980216, "from_id": 8462, "to_id": 5925, "walk": 18.0, "bike": 11, "transit": 18.0 }, "geometry": { "type": "Point", "coordinates": [ -104.980216, 39.764804 ] } },
{ "type": "Feature", "properties": { "id": 17897, "name": "River North Brewery - RiNo", "addr": "3400 Blake St, Denver, Colorado, 80205-2440, United States", "phone": "(785) 865-6057", "web": "www.rivernorthbrewery.com", "lat": 39.767162, "lon": -104.97687, "from_id": 8462, "to_id": 17897, "walk": 13.0, "bike": 9, "transit": 13.0 }, "geometry": { "type": "Point", "coordinates": [ -104.97687, 39.767162 ] } },
{ "type": "Feature", "properties": { "id": 6369, "name": "New Belgium Brewing Company- Denver Pilot At the Source", "addr": "3330 Brighton Blvd, Denver, Colorado, 80216-5021, United States", "phone": null, "web": "www.newbelgium.com/Brewery/TheWoods", "lat": 39.768436, "lon": -104.980163, "from_id": 8462, "to_id": 6369, "walk": 10.0, "bike": 7, "transit": 10.0 }, "geometry": { "type": "Point", "coordinates": [ -104.980163, 39.768436 ] } },
{ "type": "Feature", "properties": { "id": 8331, "name": "Crooked Stave Artisan Beer Project", "addr": "3350 Brighton Blvd, Denver, Colorado, 80216, United States", "phone": "(720) 550-8860", "web": null, "lat": 39.768758, "lon": -104.979746, "from_id": 8462, "to_id": 8331, "walk": 10.0, "bike": 6, "transit": 10.0 }, "geometry": { "type": "Point", "coordinates": [ -104.979746, 39.768758 ] } },
{ "type": "Feature", "properties": { "id": 10059, "name": "FlyteCo Brewing", "addr": "4499 W 38th Ave\r\nSTE 101, DENVER, None, 80212, United States", "phone": "6312355289", "web": "www.flyteco.beer", "lat": 39.769715, "lon": -105.0448, "from_id": 5180, "to_id": 10059, "walk": 7.0, "bike": 2, "transit": 7.0 }, "geometry": { "type": "Point", "coordinates": [ -105.0448, 39.769715 ] } },
{ "type": "Feature", "properties": { "id": 5180, "name": "The Empourium Brewing Company", "addr": "4385 W 42nd Ave, Denver, Colorado, 80212-2399, United States", "phone": "(720) 361-2973", "web": "www.theempourium.com", "lat": 39.774125, "lon": -105.043706, "from_id": 5180, "to_id": 5180, "walk": 0.0, "bike": 0, "transit": 0.0 }, "geometry": { "type": "Point", "coordinates": [ -105.043706, 39.774125 ] } },
{ "type": "Feature", "properties": { "id": 17163, "name": "Berkeley Alley Beer Co.", "addr": "4342 Tennyson St, Denver, Colorado, 80212-2308, United States", "phone": "(303) 455-4267", "web": "www.berkeleyalleybeer.com", "lat": 39.77607, "lon": -105.043676, "from_id": 5180, "to_id": 17163, "walk": 3.0, "bike": 1, "transit": 3.0 }, "geometry": { "type": "Point", "coordinates": [ -105.043676, 39.77607 ] } },
{ "type": "Feature", "properties": { "id": 5120, "name": "The Grateful Gnome Sandwich Shoppe and Brewery", "addr": "4369 Stuart St, Denver, Colorado, 80212-2335, United States", "phone": "(720) 598-6863", "web": "www.thegratefulgnome.com", "lat": 39.776357, "lon": -105.043123, "from_id": 5180, "to_id": 5120, "walk": 4.0, "bike": 1, "transit": 4.0 }, "geometry": { "type": "Point", "coordinates": [ -105.043123, 39.776357 ] } },
{ "type": "Feature", "properties": { "id": 11083, "name": "Call To Arms Brewing Company", "addr": "4526 Tennyson St, Denver, Colorado, 80212-2527, United States", "phone": "(720) 328-8258", "web": "www.facebook.com/calltoarmsbrewing", "lat": 39.778894, "lon": -105.043802, "from_id": 5180, "to_id": 11083, "walk": 7.0, "bike": 2, "transit": 7.0 }, "geometry": { "type": "Point", "coordinates": [ -105.043802, 39.778894 ] } },
{ "type": "Feature", "properties": { "id": 7853, "name": "Goldspot Brewing Co", "addr": "4970 Lowell Blvd, Denver, Colorado, 80221-1028, United States", "phone": "(303) 955-5657", "web": "www.goldspotbrewing.com", "lat": 39.786877, "lon": -105.034228, "from_id": 5180, "to_id": 7853, "walk": 27.0, "bike": 9, "transit": 27.0 }, "geometry": { "type": "Point", "coordinates": [ -105.034228, 39.786877 ] } },
{ "type": "Feature", "properties": { "id": 15136, "name": "Hogshead Brewery", "addr": "4460 W 29th Ave, Denver, Colorado, 80212-3015, United States", "phone": "(303) 495-3105", "web": "www.hogshead54.com", "lat": 39.758251, "lon": -105.045112, "from_id": 5180, "to_id": 15136, "walk": 23.0, "bike": 7, "transit": 23.0 }, "geometry": { "type": "Point", "coordinates": [ -105.045112, 39.758251 ] } },
{ "type": "Feature", "properties": { "id": 7217, "name": "Oasis Brewery", "addr": "3257 N Lowell Blvd, Denver, Colorado, 80211, United States", "phone": "(303) 317-4369", "web": "www.oasisbeer.com", "lat": 39.762824, "lon": -105.034911, "from_id": 5180, "to_id": 7217, "walk": 24.0, "bike": 7, "transit": 24.0 }, "geometry": { "type": "Point", "coordinates": [ -105.034911, 39.762824 ] } },
{ "type": "Feature", "properties": { "id": 15801, "name": "Cohesion Brewing Ltd", "addr": "3851 Steele St, Denver, Colorado, 80205, United States", "phone": "(972) 754-8702", "web": null, "lat": 39.769693, "lon": -104.957517, "from_id": 14301, "to_id": 15801, "walk": 28.0, "bike": 14, "transit": 28.0 }, "geometry": { "type": "Point", "coordinates": [ -104.957517, 39.769693 ] } },
{ "type": "Feature", "properties": { "id": 15518, "name": "Black Shirt Brewing Co", "addr": "3719 Walnut St, Denver, Colorado, 80205-2436, United States", "phone": "(303) 993-2799", "web": "www.blackshirtbrewingco.com", "lat": 39.769859, "lon": -104.97299, "from_id": 14301, "to_id": 15518, "walk": 11.0, "bike": 7, "transit": 11.0 }, "geometry": { "type": "Point", "coordinates": [ -104.97299, 39.769859 ] } },
{ "type": "Feature", "properties": { "id": 13395, "name": "Great Divide Brewing Co - RiNo Barrel Bar", "addr": "1812 35th St, Denver, Colorado, 80216-3665, United States", "phone": "(303) 296-9460", "web": "greatdivide.com", "lat": 39.770279, "lon": -104.979868, "from_id": 14301, "to_id": 13395, "walk": 13.0, "bike": 8, "transit": 13.0 }, "geometry": { "type": "Point", "coordinates": [ -104.979868, 39.770279 ] } },
{ "type": "Feature", "properties": { "id": 8462, "name": "Blue Moon Brewing Co.", "addr": "3750 Chestnut Pl, Denver, Colorado, 80216-3632, United States", "phone": null, "web": null, "lat": 39.773697, "lon": -104.977082, "from_id": 14301, "to_id": 8462, "walk": 9.0, "bike": 6, "transit": 9.0 }, "geometry": { "type": "Point", "coordinates": [ -104.977082, 39.773697 ] } },
{ "type": "Feature", "properties": { "id": 14301, "name": "Left Hand RiNo", "addr": "4180 Wynkoop Street, Denver, Colorado, 80216, United States", "phone": null, "web": null, "lat": 39.775197, "lon": -104.970829, "from_id": 14301, "to_id": 14301, "walk": 0.0, "bike": 0, "transit": 0.0 }, "geometry": { "type": "Point", "coordinates": [ -104.970829, 39.775197 ] } },
{ "type": "Feature", "properties": { "id": 11520, "name": "Our Mutual Friend Brewing", "addr": "2810 Larimer St, Denver, Colorado, 80205-2223, United States", "phone": "(303) 296-3441", "web": "www.omfbeer.com", "lat": 39.760578, "lon": -104.982222, "from_id": 14301, "to_id": 11520, "walk": 27.0, "bike": 13, "transit": 27.0 }, "geometry": { "type": "Point", "coordinates": [ -104.982222, 39.760578 ] } },
{ "type": "Feature", "properties": { "id": 15453, "name": "Ratio Beerworks", "addr": "2920 Larimer St, Denver, Colorado, 80205-2309, United States", "phone": "(310) 266-9264", "web": "ratiobeerworks.com", "lat": 39.761483, "lon": -104.981041, "from_id": 14301, "to_id": 15453, "walk": 25.0, "bike": 12, "transit": 25.0 }, "geometry": { "type": "Point", "coordinates": [ -104.981041, 39.761483 ] } },
{ "type": "Feature", "properties": { "id": 7084, "name": "Odell Brewing Co Five Points Brewhouse", "addr": "2945 Larimer St, Denver, Colorado, 80205-2308, United States", "phone": null, "web": null, "lat": 39.762197, "lon": -104.981163, "from_id": 14301, "to_id": 7084, "walk": 24.0, "bike": 12, "transit": 24.0 }, "geometry": { "type": "Point", "coordinates": [ -104.981163, 39.762197 ] } },
{ "type": "Feature", "properties": { "id": 17614, "name": "Bierstadt Lagerhaus", "addr": "2875 Blake St, Denver, Colorado, 80205-2210, United States", "phone": "(720) 570-7824", "web": "www.bierstadtlager.com", "lat": 39.762819, "lon": -104.98398, "from_id": 14301, "to_id": 17614, "walk": 24.0, "bike": 12, "transit": 24.0 }, "geometry": { "type": "Point", "coordinates": [ -104.98398, 39.762819 ] } },
{ "type": "Feature", "properties": { "id": 5925, "name": "14er Brewing Company", "addr": "3120 Blake St, Denver, Colorado, 80205-2307, United States", "phone": "(720) 773-1437", "web": "www.14erBrewing.com", "lat": 39.764804, "lon": -104.980216, "from_id": 14301, "to_id": 5925, "walk": 19.0, "bike": 11, "transit": 19.0 }, "geometry": { "type": "Point", "coordinates": [ -104.980216, 39.764804 ] } },
{ "type": "Feature", "properties": { "id": 17897, "name": "River North Brewery - RiNo", "addr": "3400 Blake St, Denver, Colorado, 80205-2440, United States", "phone": "(785) 865-6057", "web": "www.rivernorthbrewery.com", "lat": 39.767162, "lon": -104.97687, "from_id": 14301, "to_id": 17897, "walk": 15.0, "bike": 9, "transit": 15.0 }, "geometry": { "type": "Point", "coordinates": [ -104.97687, 39.767162 ] } },
{ "type": "Feature", "properties": { "id": 6369, "name": "New Belgium Brewing Company- Denver Pilot At the Source", "addr": "3330 Brighton Blvd, Denver, Colorado, 80216-5021, United States", "phone": null, "web": "www.newbelgium.com/Brewery/TheWoods", "lat": 39.768436, "lon": -104.980163, "from_id": 14301, "to_id": 6369, "walk": 15.0, "bike": 9, "transit": 15.0 }, "geometry": { "type": "Point", "coordinates": [ -104.980163, 39.768436 ] } },
{ "type": "Feature", "properties": { "id": 8331, "name": "Crooked Stave Artisan Beer Project", "addr": "3350 Brighton Blvd, Denver, Colorado, 80216, United States", "phone": "(720) 550-8860", "web": null, "lat": 39.768758, "lon": -104.979746, "from_id": 14301, "to_id": 8331, "walk": 14.0, "bike": 8, "transit": 14.0 }, "geometry": { "type": "Point", "coordinates": [ -104.979746, 39.768758 ] } },
{ "type": "Feature", "properties": { "id": 10059, "name": "FlyteCo Brewing", "addr": "4499 W 38th Ave\r\nSTE 101, DENVER, None, 80212, United States", "phone": "6312355289", "web": "www.flyteco.beer", "lat": 39.769715, "lon": -105.0448, "from_id": 17163, "to_id": 10059, "walk": 9.0, "bike": 3, "transit": 9.0 }, "geometry": { "type": "Point", "coordinates": [ -105.0448, 39.769715 ] } },
{ "type": "Feature", "properties": { "id": 5180, "name": "The Empourium Brewing Company", "addr": "4385 W 42nd Ave, Denver, Colorado, 80212-2399, United States", "phone": "(720) 361-2973", "web": "www.theempourium.com", "lat": 39.774125, "lon": -105.043706, "from_id": 17163, "to_id": 5180, "walk": 3.0, "bike": 1, "transit": 3.0 }, "geometry": { "type": "Point", "coordinates": [ -105.043706, 39.774125 ] } },
{ "type": "Feature", "properties": { "id": 17163, "name": "Berkeley Alley Beer Co.", "addr": "4342 Tennyson St, Denver, Colorado, 80212-2308, United States", "phone": "(303) 455-4267", "web": "www.berkeleyalleybeer.com", "lat": 39.77607, "lon": -105.043676, "from_id": 17163, "to_id": 17163, "walk": 0.0, "bike": 0, "transit": 0.0 }, "geometry": { "type": "Point", "coordinates": [ -105.043676, 39.77607 ] } },
{ "type": "Feature", "properties": { "id": 5120, "name": "The Grateful Gnome Sandwich Shoppe and Brewery", "addr": "4369 Stuart St, Denver, Colorado, 80212-2335, United States", "phone": "(720) 598-6863", "web": "www.thegratefulgnome.com", "lat": 39.776357, "lon": -105.043123, "from_id": 17163, "to_id": 5120, "walk": 2.0, "bike": 1, "transit": 2.0 }, "geometry": { "type": "Point", "coordinates": [ -105.043123, 39.776357 ] } },
{ "type": "Feature", "properties": { "id": 11083, "name": "Call To Arms Brewing Company", "addr": "4526 Tennyson St, Denver, Colorado, 80212-2527, United States", "phone": "(720) 328-8258", "web": "www.facebook.com/calltoarmsbrewing", "lat": 39.778894, "lon": -105.043802, "from_id": 17163, "to_id": 11083, "walk": 4.0, "bike": 1, "transit": 4.0 }, "geometry": { "type": "Point", "coordinates": [ -105.043802, 39.778894 ] } },
{ "type": "Feature", "properties": { "id": 7853, "name": "Goldspot Brewing Co", "addr": "4970 Lowell Blvd, Denver, Colorado, 80221-1028, United States", "phone": "(303) 955-5657", "web": "www.goldspotbrewing.com", "lat": 39.786877, "lon": -105.034228, "from_id": 17163, "to_id": 7853, "walk": 25.0, "bike": 9, "transit": 25.0 }, "geometry": { "type": "Point", "coordinates": [ -105.034228, 39.786877 ] } },
{ "type": "Feature", "properties": { "id": 15136, "name": "Hogshead Brewery", "addr": "4460 W 29th Ave, Denver, Colorado, 80212-3015, United States", "phone": "(303) 495-3105", "web": "www.hogshead54.com", "lat": 39.758251, "lon": -105.045112, "from_id": 17163, "to_id": 15136, "walk": 25.0, "bike": 8, "transit": 25.0 }, "geometry": { "type": "Point", "coordinates": [ -105.045112, 39.758251 ] } },
{ "type": "Feature", "properties": { "id": 7217, "name": "Oasis Brewery", "addr": "3257 N Lowell Blvd, Denver, Colorado, 80211, United States", "phone": "(303) 317-4369", "web": "www.oasisbeer.com", "lat": 39.762824, "lon": -105.034911, "from_id": 17163, "to_id": 7217, "walk": 27.0, "bike": 8, "transit": 27.0 }, "geometry": { "type": "Point", "coordinates": [ -105.034911, 39.762824 ] } },
{ "type": "Feature", "properties": { "id": 10059, "name": "FlyteCo Brewing", "addr": "4499 W 38th Ave\r\nSTE 101, DENVER, None, 80212, United States", "phone": "6312355289", "web": "www.flyteco.beer", "lat": 39.769715, "lon": -105.0448, "from_id": 5120, "to_id": 10059, "walk": 11.0, "bike": 3, "transit": 11.0 }, "geometry": { "type": "Point", "coordinates": [ -105.0448, 39.769715 ] } },
{ "type": "Feature", "properties": { "id": 5180, "name": "The Empourium Brewing Company", "addr": "4385 W 42nd Ave, Denver, Colorado, 80212-2399, United States", "phone": "(720) 361-2973", "web": "www.theempourium.com", "lat": 39.774125, "lon": -105.043706, "from_id": 5120, "to_id": 5180, "walk": 4.0, "bike": 1, "transit": 4.0 }, "geometry": { "type": "Point", "coordinates": [ -105.043706, 39.774125 ] } },
{ "type": "Feature", "properties": { "id": 17163, "name": "Berkeley Alley Beer Co.", "addr": "4342 Tennyson St, Denver, Colorado, 80212-2308, United States", "phone": "(303) 455-4267", "web": "www.berkeleyalleybeer.com", "lat": 39.77607, "lon": -105.043676, "from_id": 5120, "to_id": 17163, "walk": 2.0, "bike": 1, "transit": 2.0 }, "geometry": { "type": "Point", "coordinates": [ -105.043676, 39.77607 ] } },
{ "type": "Feature", "properties": { "id": 5120, "name": "The Grateful Gnome Sandwich Shoppe and Brewery", "addr": "4369 Stuart St, Denver, Colorado, 80212-2335, United States", "phone": "(720) 598-6863", "web": "www.thegratefulgnome.com", "lat": 39.776357, "lon": -105.043123, "from_id": 5120, "to_id": 5120, "walk": 0.0, "bike": 0, "transit": 0.0 }, "geometry": { "type": "Point", "coordinates": [ -105.043123, 39.776357 ] } },
{ "type": "Feature", "properties": { "id": 11083, "name": "Call To Arms Brewing Company", "addr": "4526 Tennyson St, Denver, Colorado, 80212-2527, United States", "phone": "(720) 328-8258", "web": "www.facebook.com/calltoarmsbrewing", "lat": 39.778894, "lon": -105.043802, "from_id": 5120, "to_id": 11083, "walk": 4.0, "bike": 1, "transit": 4.0 }, "geometry": { "type": "Point", "coordinates": [ -105.043802, 39.778894 ] } },
{ "type": "Feature", "properties": { "id": 7853, "name": "Goldspot Brewing Co", "addr": "4970 Lowell Blvd, Denver, Colorado, 80221-1028, United States", "phone": "(303) 955-5657", "web": "www.goldspotbrewing.com", "lat": 39.786877, "lon": -105.034228, "from_id": 5120, "to_id": 7853, "walk": 23.0, "bike": 8, "transit": 23.0 }, "geometry": { "type": "Point", "coordinates": [ -105.034228, 39.786877 ] } },
{ "type": "Feature", "properties": { "id": 15136, "name": "Hogshead Brewery", "addr": "4460 W 29th Ave, Denver, Colorado, 80212-3015, United States", "phone": "(303) 495-3105", "web": "www.hogshead54.com", "lat": 39.758251, "lon": -105.045112, "from_id": 5120, "to_id": 15136, "walk": 26.0, "bike": 8, "transit": 26.0 }, "geometry": { "type": "Point", "coordinates": [ -105.045112, 39.758251 ] } },
{ "type": "Feature", "properties": { "id": 7217, "name": "Oasis Brewery", "addr": "3257 N Lowell Blvd, Denver, Colorado, 80211, United States", "phone": "(303) 317-4369", "web": "www.oasisbeer.com", "lat": 39.762824, "lon": -105.034911, "from_id": 5120, "to_id": 7217, "walk": 27.0, "bike": 8, "transit": 27.0 }, "geometry": { "type": "Point", "coordinates": [ -105.034911, 39.762824 ] } },
{ "type": "Feature", "properties": { "id": 13875, "name": "Diebolt Brewing", "addr": "3855 Mariposa St, Denver, Colorado, 80211-2647, United States", "phone": "(720) 643-5940", "web": "www.dieboltbrewing.com", "lat": 39.769965, "lon": -105.003172, "from_id": 12265, "to_id": 13875, "walk": 14.0, "bike": 4, "transit": 14.0 }, "geometry": { "type": "Point", "coordinates": [ -105.003172, 39.769965 ] } },
{ "type": "Feature", "properties": { "id": 12265, "name": "Denver Beer Co Canworks", "addr": "4455 Jason St, Denver, Colorado, 80211-2412, United States", "phone": "(720) 295-4781", "web": null, "lat": 39.777038, "lon": -105.000338, "from_id": 12265, "to_id": 12265, "walk": 0.0, "bike": 0, "transit": 0.0 }, "geometry": { "type": "Point", "coordinates": [ -105.000338, 39.777038 ] } },
{ "type": "Feature", "properties": { "id": 12687, "name": "Altitude Brewing & Supply", "addr": "4577 N Pecos St, Denver, Colorado, 80211, United States", "phone": null, "web": "www.altitudebrew.com", "lat": 39.779649, "lon": -105.006838, "from_id": 12265, "to_id": 12687, "walk": 13.0, "bike": 5, "transit": 13.0 }, "geometry": { "type": "Point", "coordinates": [ -105.006838, 39.779649 ] } },
{ "type": "Feature", "properties": { "id": 8329, "name": "Crooked Stave", "addr": "1441 W 46th Ave Unit 17, Denver, Colorado, 80211-2338, United States", "phone": "(720) 508-3292", "web": "www.crookedstave.com", "lat": 39.780687, "lon": -105.004716, "from_id": 12265, "to_id": 8329, "walk": 12.0, "bike": 4, "transit": 12.0 }, "geometry": { "type": "Point", "coordinates": [ -105.004716, 39.780687 ] } },
{ "type": "Feature", "properties": { "id": 10215, "name": "Prost Brewing Company", "addr": "2540 19th St, Denver, Colorado, 80211-3910, United States", "phone": "(970) 688-0958", "web": "www.prostbrewing.com", "lat": 39.761383, "lon": -105.006671, "from_id": 12265, "to_id": 10215, "walk": 26.0, "bike": 8, "transit": 26.0 }, "geometry": { "type": "Point", "coordinates": [ -105.006671, 39.761383 ] } },
{ "type": "Feature", "properties": { "id": 10059, "name": "FlyteCo Brewing", "addr": "4499 W 38th Ave\r\nSTE 101, DENVER, None, 80212, United States", "phone": "6312355289", "web": "www.flyteco.beer", "lat": 39.769715, "lon": -105.0448, "from_id": 11083, "to_id": 10059, "walk": 13.0, "bike": 4, "transit": 13.0 }, "geometry": { "type": "Point", "coordinates": [ -105.0448, 39.769715 ] } },
{ "type": "Feature", "properties": { "id": 5180, "name": "The Empourium Brewing Company", "addr": "4385 W 42nd Ave, Denver, Colorado, 80212-2399, United States", "phone": "(720) 361-2973", "web": "www.theempourium.com", "lat": 39.774125, "lon": -105.043706, "from_id": 11083, "to_id": 5180, "walk": 7.0, "bike": 2, "transit": 7.0 }, "geometry": { "type": "Point", "coordinates": [ -105.043706, 39.774125 ] } },
{ "type": "Feature", "properties": { "id": 17163, "name": "Berkeley Alley Beer Co.", "addr": "4342 Tennyson St, Denver, Colorado, 80212-2308, United States", "phone": "(303) 455-4267", "web": "www.berkeleyalleybeer.com", "lat": 39.77607, "lon": -105.043676, "from_id": 11083, "to_id": 17163, "walk": 4.0, "bike": 1, "transit": 4.0 }, "geometry": { "type": "Point", "coordinates": [ -105.043676, 39.77607 ] } },
{ "type": "Feature", "properties": { "id": 5120, "name": "The Grateful Gnome Sandwich Shoppe and Brewery", "addr": "4369 Stuart St, Denver, Colorado, 80212-2335, United States", "phone": "(720) 598-6863", "web": "www.thegratefulgnome.com", "lat": 39.776357, "lon": -105.043123, "from_id": 11083, "to_id": 5120, "walk": 4.0, "bike": 1, "transit": 4.0 }, "geometry": { "type": "Point", "coordinates": [ -105.043123, 39.776357 ] } },
{ "type": "Feature", "properties": { "id": 11083, "name": "Call To Arms Brewing Company", "addr": "4526 Tennyson St, Denver, Colorado, 80212-2527, United States", "phone": "(720) 328-8258", "web": "www.facebook.com/calltoarmsbrewing", "lat": 39.778894, "lon": -105.043802, "from_id": 11083, "to_id": 11083, "walk": 0.0, "bike": 0, "transit": 0.0 }, "geometry": { "type": "Point", "coordinates": [ -105.043802, 39.778894 ] } },
{ "type": "Feature", "properties": { "id": 7853, "name": "Goldspot Brewing Co", "addr": "4970 Lowell Blvd, Denver, Colorado, 80221-1028, United States", "phone": "(303) 955-5657", "web": "www.goldspotbrewing.com", "lat": 39.786877, "lon": -105.034228, "from_id": 11083, "to_id": 7853, "walk": 21.0, "bike": 8, "transit": 21.0 }, "geometry": { "type": "Point", "coordinates": [ -105.034228, 39.786877 ] } },
{ "type": "Feature", "properties": { "id": 15136, "name": "Hogshead Brewery", "addr": "4460 W 29th Ave, Denver, Colorado, 80212-3015, United States", "phone": "(303) 495-3105", "web": "www.hogshead54.com", "lat": 39.758251, "lon": -105.045112, "from_id": 11083, "to_id": 15136, "walk": 29.0, "bike": 9, "transit": 29.0 }, "geometry": { "type": "Point", "coordinates": [ -105.045112, 39.758251 ] } },
{ "type": "Feature", "properties": { "id": 13875, "name": "Diebolt Brewing", "addr": "3855 Mariposa St, Denver, Colorado, 80211-2647, United States", "phone": "(720) 643-5940", "web": "www.dieboltbrewing.com", "lat": 39.769965, "lon": -105.003172, "from_id": 12687, "to_id": 13875, "walk": 17.0, "bike": 6, "transit": 17.0 }, "geometry": { "type": "Point", "coordinates": [ -105.003172, 39.769965 ] } },
{ "type": "Feature", "properties": { "id": 12265, "name": "Denver Beer Co Canworks", "addr": "4455 Jason St, Denver, Colorado, 80211-2412, United States", "phone": "(720) 295-4781", "web": null, "lat": 39.777038, "lon": -105.000338, "from_id": 12687, "to_id": 12265, "walk": 13.0, "bike": 5, "transit": 13.0 }, "geometry": { "type": "Point", "coordinates": [ -105.000338, 39.777038 ] } },
{ "type": "Feature", "properties": { "id": 12687, "name": "Altitude Brewing & Supply", "addr": "4577 N Pecos St, Denver, Colorado, 80211, United States", "phone": null, "web": "www.altitudebrew.com", "lat": 39.779649, "lon": -105.006838, "from_id": 12687, "to_id": 12687, "walk": 0.0, "bike": 0, "transit": 0.0 }, "geometry": { "type": "Point", "coordinates": [ -105.006838, 39.779649 ] } },
{ "type": "Feature", "properties": { "id": 8329, "name": "Crooked Stave", "addr": "1441 W 46th Ave Unit 17, Denver, Colorado, 80211-2338, United States", "phone": "(720) 508-3292", "web": "www.crookedstave.com", "lat": 39.780687, "lon": -105.004716, "from_id": 12687, "to_id": 8329, "walk": 4.0, "bike": 2, "transit": 4.0 }, "geometry": { "type": "Point", "coordinates": [ -105.004716, 39.780687 ] } },
{ "type": "Feature", "properties": { "id": 10215, "name": "Prost Brewing Company", "addr": "2540 19th St, Denver, Colorado, 80211-3910, United States", "phone": "(970) 688-0958", "web": "www.prostbrewing.com", "lat": 39.761383, "lon": -105.006671, "from_id": 12687, "to_id": 10215, "walk": 25.0, "bike": 9, "transit": 25.0 }, "geometry": { "type": "Point", "coordinates": [ -105.006671, 39.761383 ] } },
{ "type": "Feature", "properties": { "id": 13875, "name": "Diebolt Brewing", "addr": "3855 Mariposa St, Denver, Colorado, 80211-2647, United States", "phone": "(720) 643-5940", "web": "www.dieboltbrewing.com", "lat": 39.769965, "lon": -105.003172, "from_id": 8329, "to_id": 13875, "walk": 17.0, "bike": 6, "transit": 17.0 }, "geometry": { "type": "Point", "coordinates": [ -105.003172, 39.769965 ] } },
{ "type": "Feature", "properties": { "id": 12265, "name": "Denver Beer Co Canworks", "addr": "4455 Jason St, Denver, Colorado, 80211-2412, United States", "phone": "(720) 295-4781", "web": null, "lat": 39.777038, "lon": -105.000338, "from_id": 8329, "to_id": 12265, "walk": 12.0, "bike": 4, "transit": 12.0 }, "geometry": { "type": "Point", "coordinates": [ -105.000338, 39.777038 ] } },
{ "type": "Feature", "properties": { "id": 12687, "name": "Altitude Brewing & Supply", "addr": "4577 N Pecos St, Denver, Colorado, 80211, United States", "phone": null, "web": "www.altitudebrew.com", "lat": 39.779649, "lon": -105.006838, "from_id": 8329, "to_id": 12687, "walk": 4.0, "bike": 2, "transit": 4.0 }, "geometry": { "type": "Point", "coordinates": [ -105.006838, 39.779649 ] } },
{ "type": "Feature", "properties": { "id": 8329, "name": "Crooked Stave", "addr": "1441 W 46th Ave Unit 17, Denver, Colorado, 80211-2338, United States", "phone": "(720) 508-3292", "web": "www.crookedstave.com", "lat": 39.780687, "lon": -105.004716, "from_id": 8329, "to_id": 8329, "walk": 0.0, "bike": 0, "transit": 0.0 }, "geometry": { "type": "Point", "coordinates": [ -105.004716, 39.780687 ] } },
{ "type": "Feature", "properties": { "id": 10215, "name": "Prost Brewing Company", "addr": "2540 19th St, Denver, Colorado, 80211-3910, United States", "phone": "(970) 688-0958", "web": "www.prostbrewing.com", "lat": 39.761383, "lon": -105.006671, "from_id": 8329, "to_id": 10215, "walk": 28.0, "bike": 9, "transit": 28.0 }, "geometry": { "type": "Point", "coordinates": [ -105.006671, 39.761383 ] } },
{ "type": "Feature", "properties": { "id": 5180, "name": "The Empourium Brewing Company", "addr": "4385 W 42nd Ave, Denver, Colorado, 80212-2399, United States", "phone": "(720) 361-2973", "web": "www.theempourium.com", "lat": 39.774125, "lon": -105.043706, "from_id": 7853, "to_id": 5180, "walk": 27.0, "bike": 9, "transit": 27.0 }, "geometry": { "type": "Point", "coordinates": [ -105.043706, 39.774125 ] } },
{ "type": "Feature", "properties": { "id": 17163, "name": "Berkeley Alley Beer Co.", "addr": "4342 Tennyson St, Denver, Colorado, 80212-2308, United States", "phone": "(303) 455-4267", "web": "www.berkeleyalleybeer.com", "lat": 39.77607, "lon": -105.043676, "from_id": 7853, "to_id": 17163, "walk": 25.0, "bike": 9, "transit": 25.0 }, "geometry": { "type": "Point", "coordinates": [ -105.043676, 39.77607 ] } },
{ "type": "Feature", "properties": { "id": 5120, "name": "The Grateful Gnome Sandwich Shoppe and Brewery", "addr": "4369 Stuart St, Denver, Colorado, 80212-2335, United States", "phone": "(720) 598-6863", "web": "www.thegratefulgnome.com", "lat": 39.776357, "lon": -105.043123, "from_id": 7853, "to_id": 5120, "walk": 23.0, "bike": 8, "transit": 23.0 }, "geometry": { "type": "Point", "coordinates": [ -105.043123, 39.776357 ] } },
{ "type": "Feature", "properties": { "id": 11083, "name": "Call To Arms Brewing Company", "addr": "4526 Tennyson St, Denver, Colorado, 80212-2527, United States", "phone": "(720) 328-8258", "web": "www.facebook.com/calltoarmsbrewing", "lat": 39.778894, "lon": -105.043802, "from_id": 7853, "to_id": 11083, "walk": 21.0, "bike": 8, "transit": 21.0 }, "geometry": { "type": "Point", "coordinates": [ -105.043802, 39.778894 ] } },
{ "type": "Feature", "properties": { "id": 7853, "name": "Goldspot Brewing Co", "addr": "4970 Lowell Blvd, Denver, Colorado, 80221-1028, United States", "phone": "(303) 955-5657", "web": "www.goldspotbrewing.com", "lat": 39.786877, "lon": -105.034228, "from_id": 7853, "to_id": 7853, "walk": 0.0, "bike": 0, "transit": 0.0 }, "geometry": { "type": "Point", "coordinates": [ -105.034228, 39.786877 ] } },
{ "type": "Feature", "properties": { "id": 12690, "name": "Danico Brewing Company", "addr": "18490 E 66th Ave, Denver, Colorado, 80249, United States", "phone": "3035312739", "web": null, "lat": 39.7975, "lon": -104.7429, "from_id": 12690, "to_id": 12690, "walk": 0.0, "bike": 0, "transit": 0.0 }, "geometry": { "type": "Point", "coordinates": [ -104.7429, 39.7975 ] } },
{ "type": "Feature", "properties": { "id": 18661, "name": "Tom's Urban Kitchen and Brewery", "addr": "8300 Pena Blvd, Denver, Colorado, 80249-6310, United States", "phone": "(303) 582-6039", "web": null, "lat": 39.847439, "lon": -104.672511, "from_id": 18661, "to_id": 18661, "walk": 0.0, "bike": 0, "transit": 0.0 }, "geometry": { "type": "Point", "coordinates": [ -104.672511, 39.847439 ] } },
{ "type": "Feature", "properties": { "id": 15519, "name": "Black Sky Brewery", "addr": "490 Santa Fe Dr, Denver, Colorado, 80204-5024, United States", "phone": "(720) 708-5816", "web": "www.blackskybrewing.com", "lat": 39.723937, "lon": -104.998297, "from_id": 15519, "to_id": 15519, "walk": 0.0, "bike": 0, "transit": 0.0 }, "geometry": { "type": "Point", "coordinates": [ -104.998297, 39.723937 ] } },
{ "type": "Feature", "properties": { "id": 8471, "name": "Lowdown Brewery + Kitchen", "addr": "800 N Lincoln St Unit 2, Denver, Colorado, 80203-2710, United States", "phone": "(720) 524-8065", "web": "www.lowdownbrewery.com", "lat": 39.729399, "lon": -104.985766, "from_id": 15519, "to_id": 8471, "walk": 20.0, "bike": 7, "transit": 20.0 }, "geometry": { "type": "Point", "coordinates": [ -104.985766, 39.729399 ] } },
{ "type": "Feature", "properties": { "id": 12611, "name": "Renegade Brewing Company", "addr": "925 W 9th Ave, Denver, Colorado, 80204-4338, United States", "phone": "(303) 534-5407", "web": "renegadebrewing.com", "lat": 39.730631, "lon": -104.999371, "from_id": 15519, "to_id": 12611, "walk": 10.0, "bike": 3, "transit": 10.0 }, "geometry": { "type": "Point", "coordinates": [ -104.999371, 39.730631 ] } },
{ "type": "Feature", "properties": { "id": 7409, "name": "Pints Pub Brewery and Freehouse", "addr": "221 W 13th Ave, Denver, Colorado, 80204-2711, United States", "phone": "(303) 534-7543", "web": "www.pintspub.com", "lat": 39.737012, "lon": -104.991185, "from_id": 15519, "to_id": 7409, "walk": 25.0, "bike": 8, "transit": 25.0 }, "geometry": { "type": "Point", "coordinates": [ -104.991185, 39.737012 ] } },
{ "type": "Feature", "properties": { "id": 6487, "name": "Gruvi", "addr": "303 South Broadway St.  #200-322, Denver, Colorado, 80209, United States", "phone": "(218) 390-7294", "web": "getgruvi.com", "lat": 39.710763, "lon": -104.987764, "from_id": 15519, "to_id": 6487, "walk": 28.0, "bike": 8, "transit": 28.0 }, "geometry": { "type": "Point", "coordinates": [ -104.987764, 39.710763 ] } },
{ "type": "Feature", "properties": { "id": 14294, "name": "So Many Roads I Know LLC", "addr": "918 W 1st Ave, Denver, Colorado, 80223, United States", "phone": "(720) 277-3211", "web": null, "lat": 39.718268, "lon": -104.999644, "from_id": 15519, "to_id": 14294, "walk": 9.0, "bike": 3, "transit": 9.0 }, "geometry": { "type": "Point", "coordinates": [ -104.999644, 39.718268 ] } },
{ "type": "Feature", "properties": { "id": 6153, "name": "Novel Strand Brewing", "addr": "305 W 1st Ave, Denver, None, 80223-1509, United States", "phone": "(720) 949-0246", "web": "https://www.novelstrand.com/", "lat": 39.718553, "lon": -104.992389, "from_id": 15519, "to_id": 6153, "walk": 13.0, "bike": 4, "transit": 13.0 }, "geometry": { "type": "Point", "coordinates": [ -104.992389, 39.718553 ] } },
{ "type": "Feature", "properties": { "id": 15612, "name": "TRVE Brewing Co", "addr": "227 Broadway #101, Denver, Colorado, 80203, United States", "phone": "(303) 351-1021", "web": "trvebrewing.com", "lat": 39.719713, "lon": -104.987663, "from_id": 15519, "to_id": 15612, "walk": 16.0, "bike": 5, "transit": 16.0 }, "geometry": { "type": "Point", "coordinates": [ -104.987663, 39.719713 ] } },
{ "type": "Feature", "properties": { "id": 17713, "name": "Baere Brewing Company", "addr": "320 Broadway Unit E, Denver, Colorado, 80203-3955, United States", "phone": "(970) 901-4810", "web": "www.baerebrewing.com", "lat": 39.721432, "lon": -104.987139, "from_id": 15519, "to_id": 17713, "walk": 15.0, "bike": 5, "transit": 15.0 }, "geometry": { "type": "Point", "coordinates": [ -104.987139, 39.721432 ] } },
{ "type": "Feature", "properties": { "id": 20675, "name": "Baere Brewing Company", "addr": "320 Broadway Unit E, Denver, Colorado, 80203-3955, United States", "phone": "(970) 901-4810", "web": "www.baerebrewing.com", "lat": 39.721432, "lon": -104.987139, "from_id": 15519, "to_id": 20675, "walk": 15.0, "bike": 5, "transit": 15.0 }, "geometry": { "type": "Point", "coordinates": [ -104.987139, 39.721432 ] } },
{ "type": "Feature", "properties": { "id": 21116, "name": "Crazy Mountain Brewing Co", "addr": "471 Kalamath St, Denver, Colorado, 80204-5019, United States", "phone": null, "web": "www.crazymountainbrewery.com", "lat": 39.72359, "lon": -105.000619, "from_id": 15519, "to_id": 21116, "walk": 3.0, "bike": 2, "transit": 3.0 }, "geometry": { "type": "Point", "coordinates": [ -105.000619, 39.72359 ] } },
{ "type": "Feature", "properties": { "id": 8916, "name": "Banded Oak Brewing Company", "addr": "470 N Broadway, Denver, Colorado, 80203-3404, United States", "phone": "(720) 479-8033", "web": "Bandedoakbrewing.com", "lat": 39.723761, "lon": -104.987007, "from_id": 15519, "to_id": 8916, "walk": 12.0, "bike": 4, "transit": 12.0 }, "geometry": { "type": "Point", "coordinates": [ -104.987007, 39.723761 ] } },
{ "type": "Feature", "properties": { "id": 15519, "name": "Black Sky Brewery", "addr": "490 Santa Fe Dr, Denver, Colorado, 80204-5024, United States", "phone": "(720) 708-5816", "web": "www.blackskybrewing.com", "lat": 39.723937, "lon": -104.998297, "from_id": 8471, "to_id": 15519, "walk": 20.0, "bike": 7, "transit": 20.0 }, "geometry": { "type": "Point", "coordinates": [ -104.998297, 39.723937 ] } },
{ "type": "Feature", "properties": { "id": 8471, "name": "Lowdown Brewery + Kitchen", "addr": "800 N Lincoln St Unit 2, Denver, Colorado, 80203-2710, United States", "phone": "(720) 524-8065", "web": "www.lowdownbrewery.com", "lat": 39.729399, "lon": -104.985766, "from_id": 8471, "to_id": 8471, "walk": 0.0, "bike": 0, "transit": 0.0 }, "geometry": { "type": "Point", "coordinates": [ -104.985766, 39.729399 ] } },
{ "type": "Feature", "properties": { "id": 12611, "name": "Renegade Brewing Company", "addr": "925 W 9th Ave, Denver, Colorado, 80204-4338, United States", "phone": "(303) 534-5407", "web": "renegadebrewing.com", "lat": 39.730631, "lon": -104.999371, "from_id": 8471, "to_id": 12611, "walk": 16.0, "bike": 5, "transit": 16.0 }, "geometry": { "type": "Point", "coordinates": [ -104.999371, 39.730631 ] } },
{ "type": "Feature", "properties": { "id": 7409, "name": "Pints Pub Brewery and Freehouse", "addr": "221 W 13th Ave, Denver, Colorado, 80204-2711, United States", "phone": "(303) 534-7543", "web": "www.pintspub.com", "lat": 39.737012, "lon": -104.991185, "from_id": 8471, "to_id": 7409, "walk": 16.0, "bike": 5, "transit": 16.0 }, "geometry": { "type": "Point", "coordinates": [ -104.991185, 39.737012 ] } },
{ "type": "Feature", "properties": { "id": 16975, "name": "Crazy Mountain Brewing Co", "addr": "1505 North Ogden Street, Denver, Colorado, 80218, United States", "phone": null, "web": "www.crazymountainbrewery.com", "lat": 39.740312, "lon": -104.974912, "from_id": 8471, "to_id": 16975, "walk": 25.0, "bike": 9, "transit": 25.0 }, "geometry": { "type": "Point", "coordinates": [ -104.974912, 39.740312 ] } },
{ "type": "Feature", "properties": { "id": 17436, "name": "Rock Bottom Brewery - Denver", "addr": "1001 16th St Ste 100, Denver, Colorado, 80265-0100, United States", "phone": "(303) 534-7616", "web": "www.rockbottom.com", "lat": 39.747866, "lon": -104.995355, "from_id": 8471, "to_id": 17436, "walk": 30.0, "bike": 14, "transit": 30.0 }, "geometry": { "type": "Point", "coordinates": [ -104.995355, 39.747866 ] } },
{ "type": "Feature", "properties": { "id": 6487, "name": "Gruvi", "addr": "303 South Broadway St.  #200-322, Denver, Colorado, 80209, United States", "phone": "(218) 390-7294", "web": "getgruvi.com", "lat": 39.710763, "lon": -104.987764, "from_id": 8471, "to_id": 6487, "walk": 28.0, "bike": 11, "transit": 28.0 }, "geometry": { "type": "Point", "coordinates": [ -104.987764, 39.710763 ] } },
{ "type": "Feature", "properties": { "id": 14294, "name": "So Many Roads I Know LLC", "addr": "918 W 1st Ave, Denver, Colorado, 80223, United States", "phone": "(720) 277-3211", "web": null, "lat": 39.718268, "lon": -104.999644, "from_id": 8471, "to_id": 14294, "walk": 29.0, "bike": 10, "transit": 29.0 }, "geometry": { "type": "Point", "coordinates": [ -104.999644, 39.718268 ] } },
{ "type": "Feature", "properties": { "id": 6153, "name": "Novel Strand Brewing", "addr": "305 W 1st Ave, Denver, None, 80223-1509, United States", "phone": "(720) 949-0246", "web": "https://www.novelstrand.com/", "lat": 39.718553, "lon": -104.992389, "from_id": 8471, "to_id": 6153, "walk": 21.0, "bike": 8, "transit": 21.0 }, "geometry": { "type": "Point", "coordinates": [ -104.992389, 39.718553 ] } },
{ "type": "Feature", "properties": { "id": 15612, "name": "TRVE Brewing Co", "addr": "227 Broadway #101, Denver, Colorado, 80203, United States", "phone": "(303) 351-1021", "web": "trvebrewing.com", "lat": 39.719713, "lon": -104.987663, "from_id": 8471, "to_id": 15612, "walk": 15.0, "bike": 7, "transit": 15.0 }, "geometry": { "type": "Point", "coordinates": [ -104.987663, 39.719713 ] } },
{ "type": "Feature", "properties": { "id": 17713, "name": "Baere Brewing Company", "addr": "320 Broadway Unit E, Denver, Colorado, 80203-3955, United States", "phone": "(970) 901-4810", "web": "www.baerebrewing.com", "lat": 39.721432, "lon": -104.987139, "from_id": 8471, "to_id": 17713, "walk": 13.0, "bike": 6, "transit": 13.0 }, "geometry": { "type": "Point", "coordinates": [ -104.987139, 39.721432 ] } },
{ "type": "Feature", "properties": { "id": 20675, "name": "Baere Brewing Company", "addr": "320 Broadway Unit E, Denver, Colorado, 80203-3955, United States", "phone": "(970) 901-4810", "web": "www.baerebrewing.com", "lat": 39.721432, "lon": -104.987139, "from_id": 8471, "to_id": 20675, "walk": 13.0, "bike": 6, "transit": 13.0 }, "geometry": { "type": "Point", "coordinates": [ -104.987139, 39.721432 ] } },
{ "type": "Feature", "properties": { "id": 21116, "name": "Crazy Mountain Brewing Co", "addr": "471 Kalamath St, Denver, Colorado, 80204-5019, United States", "phone": null, "web": "www.crazymountainbrewery.com", "lat": 39.72359, "lon": -105.000619, "from_id": 8471, "to_id": 21116, "walk": 23.0, "bike": 8, "transit": 23.0 }, "geometry": { "type": "Point", "coordinates": [ -105.000619, 39.72359 ] } },
{ "type": "Feature", "properties": { "id": 8916, "name": "Banded Oak Brewing Company", "addr": "470 N Broadway, Denver, Colorado, 80203-3404, United States", "phone": "(720) 479-8033", "web": "Bandedoakbrewing.com", "lat": 39.723761, "lon": -104.987007, "from_id": 8471, "to_id": 8916, "walk": 9.0, "bike": 5, "transit": 9.0 }, "geometry": { "type": "Point", "coordinates": [ -104.987007, 39.723761 ] } },
{ "type": "Feature", "properties": { "id": 15519, "name": "Black Sky Brewery", "addr": "490 Santa Fe Dr, Denver, Colorado, 80204-5024, United States", "phone": "(720) 708-5816", "web": "www.blackskybrewing.com", "lat": 39.723937, "lon": -104.998297, "from_id": 12611, "to_id": 15519, "walk": 10.0, "bike": 3, "transit": 10.0 }, "geometry": { "type": "Point", "coordinates": [ -104.998297, 39.723937 ] } },
{ "type": "Feature", "properties": { "id": 8471, "name": "Lowdown Brewery + Kitchen", "addr": "800 N Lincoln St Unit 2, Denver, Colorado, 80203-2710, United States", "phone": "(720) 524-8065", "web": "www.lowdownbrewery.com", "lat": 39.729399, "lon": -104.985766, "from_id": 12611, "to_id": 8471, "walk": 16.0, "bike": 5, "transit": 16.0 }, "geometry": { "type": "Point", "coordinates": [ -104.985766, 39.729399 ] } },
{ "type": "Feature", "properties": { "id": 12611, "name": "Renegade Brewing Company", "addr": "925 W 9th Ave, Denver, Colorado, 80204-4338, United States", "phone": "(303) 534-5407", "web": "renegadebrewing.com", "lat": 39.730631, "lon": -104.999371, "from_id": 12611, "to_id": 12611, "walk": 0.0, "bike": 0, "transit": 0.0 }, "geometry": { "type": "Point", "coordinates": [ -104.999371, 39.730631 ] } },
{ "type": "Feature", "properties": { "id": 7409, "name": "Pints Pub Brewery and Freehouse", "addr": "221 W 13th Ave, Denver, Colorado, 80204-2711, United States", "phone": "(303) 534-7543", "web": "www.pintspub.com", "lat": 39.737012, "lon": -104.991185, "from_id": 12611, "to_id": 7409, "walk": 17.0, "bike": 6, "transit": 17.0 }, "geometry": { "type": "Point", "coordinates": [ -104.991185, 39.737012 ] } },
{ "type": "Feature", "properties": { "id": 10506, "name": "Strange Craft Beer Company", "addr": "1330 Zuni St Ste M, Denver, Colorado, 80204-2328, United States", "phone": "7209852337", "web": "www.strangecraft.com", "lat": 39.737257, "lon": -105.015223, "from_id": 12611, "to_id": 10506, "walk": 24.0, "bike": 12, "transit": 24.0 }, "geometry": { "type": "Point", "coordinates": [ -105.015223, 39.737257 ] } },
{ "type": "Feature", "properties": { "id": 21395, "name": "Raices Brewing Co", "addr": "2060 W Colfax Ave, Denver, Colorado, 80204-2332, United States", "phone": "(720)324-8550", "web": "www.raicesbrewing.com", "lat": 39.739022, "lon": -105.017253, "from_id": 12611, "to_id": 21395, "walk": 29.0, "bike": 14, "transit": 29.0 }, "geometry": { "type": "Point", "coordinates": [ -105.017253, 39.739022 ] } },
{ "type": "Feature", "properties": { "id": 19084, "name": "Raices Brewing Co", "addr": "2060 W Colfax Ave, Denver, Colorado, 80204-2332, United States", "phone": "(720)324-8550", "web": "www.raicesbrewing.com", "lat": 39.739022, "lon": -105.017253, "from_id": 12611, "to_id": 19084, "walk": 29.0, "bike": 14, "transit": 29.0 }, "geometry": { "type": "Point", "coordinates": [ -105.017253, 39.739022 ] } },
{ "type": "Feature", "properties": { "id": 16564, "name": "Tivoli Brewing Company", "addr": "900 Auraria Pkwy Unit 240, Denver, Colorado, 80204-1897, United States", "phone": "7203943420", "web": "www.tivolibrewingco.com", "lat": 39.746523, "lon": -105.005361, "from_id": 12611, "to_id": 16564, "walk": 25.0, "bike": 9, "transit": 25.0 }, "geometry": { "type": "Point", "coordinates": [ -105.005361, 39.746523 ] } },
{ "type": "Feature", "properties": { "id": 17436, "name": "Rock Bottom Brewery - Denver", "addr": "1001 16th St Ste 100, Denver, Colorado, 80265-0100, United States", "phone": "(303) 534-7616", "web": "www.rockbottom.com", "lat": 39.747866, "lon": -104.995355, "from_id": 12611, "to_id": 17436, "walk": 27.0, "bike": 12, "transit": 27.0 }, "geometry": { "type": "Point", "coordinates": [ -104.995355, 39.747866 ] } },
{ "type": "Feature", "properties": { "id": 14294, "name": "So Many Roads I Know LLC", "addr": "918 W 1st Ave, Denver, Colorado, 80223, United States", "phone": "(720) 277-3211", "web": null, "lat": 39.718268, "lon": -104.999644, "from_id": 12611, "to_id": 14294, "walk": 17.0, "bike": 6, "transit": 17.0 }, "geometry": { "type": "Point", "coordinates": [ -104.999644, 39.718268 ] } },
{ "type": "Feature", "properties": { "id": 6153, "name": "Novel Strand Brewing", "addr": "305 W 1st Ave, Denver, None, 80223-1509, United States", "phone": "(720) 949-0246", "web": "https://www.novelstrand.com/", "lat": 39.718553, "lon": -104.992389, "from_id": 12611, "to_id": 6153, "walk": 23.0, "bike": 7, "transit": 23.0 }, "geometry": { "type": "Point", "coordinates": [ -104.992389, 39.718553 ] } },
{ "type": "Feature", "properties": { "id": 15612, "name": "TRVE Brewing Co", "addr": "227 Broadway #101, Denver, Colorado, 80203, United States", "phone": "(303) 351-1021", "web": "trvebrewing.com", "lat": 39.719713, "lon": -104.987663, "from_id": 12611, "to_id": 15612, "walk": 24.0, "bike": 8, "transit": 24.0 }, "geometry": { "type": "Point", "coordinates": [ -104.987663, 39.719713 ] } },
{ "type": "Feature", "properties": { "id": 17713, "name": "Baere Brewing Company", "addr": "320 Broadway Unit E, Denver, Colorado, 80203-3955, United States", "phone": "(970) 901-4810", "web": "www.baerebrewing.com", "lat": 39.721432, "lon": -104.987139, "from_id": 12611, "to_id": 17713, "walk": 22.0, "bike": 8, "transit": 22.0 }, "geometry": { "type": "Point", "coordinates": [ -104.987139, 39.721432 ] } },
{ "type": "Feature", "properties": { "id": 20675, "name": "Baere Brewing Company", "addr": "320 Broadway Unit E, Denver, Colorado, 80203-3955, United States", "phone": "(970) 901-4810", "web": "www.baerebrewing.com", "lat": 39.721432, "lon": -104.987139, "from_id": 12611, "to_id": 20675, "walk": 22.0, "bike": 8, "transit": 22.0 }, "geometry": { "type": "Point", "coordinates": [ -104.987139, 39.721432 ] } },
{ "type": "Feature", "properties": { "id": 21116, "name": "Crazy Mountain Brewing Co", "addr": "471 Kalamath St, Denver, Colorado, 80204-5019, United States", "phone": null, "web": "www.crazymountainbrewery.com", "lat": 39.72359, "lon": -105.000619, "from_id": 12611, "to_id": 21116, "walk": 10.0, "bike": 4, "transit": 10.0 }, "geometry": { "type": "Point", "coordinates": [ -105.000619, 39.72359 ] } },
{ "type": "Feature", "properties": { "id": 8916, "name": "Banded Oak Brewing Company", "addr": "470 N Broadway, Denver, Colorado, 80203-3404, United States", "phone": "(720) 479-8033", "web": "Bandedoakbrewing.com", "lat": 39.723761, "lon": -104.987007, "from_id": 12611, "to_id": 8916, "walk": 19.0, "bike": 7, "transit": 19.0 }, "geometry": { "type": "Point", "coordinates": [ -104.987007, 39.723761 ] } },
{ "type": "Feature", "properties": { "id": 15519, "name": "Black Sky Brewery", "addr": "490 Santa Fe Dr, Denver, Colorado, 80204-5024, United States", "phone": "(720) 708-5816", "web": "www.blackskybrewing.com", "lat": 39.723937, "lon": -104.998297, "from_id": 7409, "to_id": 15519, "walk": 25.0, "bike": 8, "transit": 25.0 }, "geometry": { "type": "Point", "coordinates": [ -104.998297, 39.723937 ] } },
{ "type": "Feature", "properties": { "id": 8471, "name": "Lowdown Brewery + Kitchen", "addr": "800 N Lincoln St Unit 2, Denver, Colorado, 80203-2710, United States", "phone": "(720) 524-8065", "web": "www.lowdownbrewery.com", "lat": 39.729399, "lon": -104.985766, "from_id": 7409, "to_id": 8471, "walk": 16.0, "bike": 5, "transit": 16.0 }, "geometry": { "type": "Point", "coordinates": [ -104.985766, 39.729399 ] } },
{ "type": "Feature", "properties": { "id": 12611, "name": "Renegade Brewing Company", "addr": "925 W 9th Ave, Denver, Colorado, 80204-4338, United States", "phone": "(303) 534-5407", "web": "renegadebrewing.com", "lat": 39.730631, "lon": -104.999371, "from_id": 7409, "to_id": 12611, "walk": 17.0, "bike": 5, "transit": 17.0 }, "geometry": { "type": "Point", "coordinates": [ -104.999371, 39.730631 ] } },
{ "type": "Feature", "properties": { "id": 7409, "name": "Pints Pub Brewery and Freehouse", "addr": "221 W 13th Ave, Denver, Colorado, 80204-2711, United States", "phone": "(303) 534-7543", "web": "www.pintspub.com", "lat": 39.737012, "lon": -104.991185, "from_id": 7409, "to_id": 7409, "walk": 0.0, "bike": 0, "transit": 0.0 }, "geometry": { "type": "Point", "coordinates": [ -104.991185, 39.737012 ] } },
{ "type": "Feature", "properties": { "id": 10506, "name": "Strange Craft Beer Company", "addr": "1330 Zuni St Ste M, Denver, Colorado, 80204-2328, United States", "phone": "7209852337", "web": "www.strangecraft.com", "lat": 39.737257, "lon": -105.015223, "from_id": 7409, "to_id": 10506, "walk": 26.0, "bike": 16, "transit": 26.0 }, "geometry": { "type": "Point", "coordinates": [ -105.015223, 39.737257 ] } },
{ "type": "Feature", "properties": { "id": 16975, "name": "Crazy Mountain Brewing Co", "addr": "1505 North Ogden Street, Denver, Colorado, 80218, United States", "phone": null, "web": "www.crazymountainbrewery.com", "lat": 39.740312, "lon": -104.974912, "from_id": 7409, "to_id": 16975, "walk": 20.0, "bike": 8, "transit": 20.0 }, "geometry": { "type": "Point", "coordinates": [ -104.974912, 39.740312 ] } },
{ "type": "Feature", "properties": { "id": 12822, "name": "Alpine Dog Brewing Company", "addr": "1308 E 17th Ave, Denver, Colorado, 80218-1527, United States", "phone": "(303) 832-1245", "web": "www.alpinedogbrewery.com", "lat": 39.743096, "lon": -104.970644, "from_id": 7409, "to_id": 12822, "walk": 28.0, "bike": 9, "transit": 28.0 }, "geometry": { "type": "Point", "coordinates": [ -104.970644, 39.743096 ] } },
{ "type": "Feature", "properties": { "id": 16564, "name": "Tivoli Brewing Company", "addr": "900 Auraria Pkwy Unit 240, Denver, Colorado, 80204-1897, United States", "phone": "7203943420", "web": "www.tivolibrewingco.com", "lat": 39.746523, "lon": -105.005361, "from_id": 7409, "to_id": 16564, "walk": 23.0, "bike": 10, "transit": 23.0 }, "geometry": { "type": "Point", "coordinates": [ -105.005361, 39.746523 ] } },
{ "type": "Feature", "properties": { "id": 17436, "name": "Rock Bottom Brewery - Denver", "addr": "1001 16th St Ste 100, Denver, Colorado, 80265-0100, United States", "phone": "(303) 534-7616", "web": "www.rockbottom.com", "lat": 39.747866, "lon": -104.995355, "from_id": 7409, "to_id": 17436, "walk": 19.0, "bike": 10, "transit": 19.0 }, "geometry": { "type": "Point", "coordinates": [ -104.995355, 39.747866 ] } },
{ "type": "Feature", "properties": { "id": 12940, "name": "Woods Boss Brewing Company", "addr": "2210 California St, Denver, Colorado, 80205-2824, United States", "phone": "(914) 960-9225", "web": "www.woodsbossbrew.com", "lat": 39.750842, "lon": -104.984596, "from_id": 7409, "to_id": 12940, "walk": 22.0, "bike": 9, "transit": 22.0 }, "geometry": { "type": "Point", "coordinates": [ -104.984596, 39.750842 ] } },
{ "type": "Feature", "properties": { "id": 8745, "name": "Jagged Mountain Brewery", "addr": "1139 20th St, Denver, Colorado, 80202-1811, United States", "phone": "(720) 689-2337", "web": "www.jaggedmountainbrewery.com", "lat": 39.751973, "lon": -104.991039, "from_id": 7409, "to_id": 8745, "walk": 24.0, "bike": 11, "transit": 24.0 }, "geometry": { "type": "Point", "coordinates": [ -104.991039, 39.751973 ] } },
{ "type": "Feature", "properties": { "id": 10810, "name": "Wynkoop Brewing Co", "addr": "1634 18th St, Denver, Colorado, 80202-1212, United States", "phone": "(303) 297-2700", "web": "www.wynkoop.com", "lat": 39.753358, "lon": -104.998491, "from_id": 7409, "to_id": 10810, "walk": 29.0, "bike": 11, "transit": 29.0 }, "geometry": { "type": "Point", "coordinates": [ -104.998491, 39.753358 ] } },
{ "type": "Feature", "properties": { "id": 13394, "name": "Great Divide Brewing Co", "addr": "2201 Arapahoe St, Denver, Colorado, 80205-2512, United States", "phone": "(303) 296-9460", "web": "www.greatdivide.com", "lat": 39.753907, "lon": -104.988469, "from_id": 7409, "to_id": 13394, "walk": 26.0, "bike": 11, "transit": 26.0 }, "geometry": { "type": "Point", "coordinates": [ -104.988469, 39.753907 ] } },
{ "type": "Feature", "properties": { "id": 6153, "name": "Novel Strand Brewing", "addr": "305 W 1st Ave, Denver, None, 80223-1509, United States", "phone": "(720) 949-0246", "web": "https://www.novelstrand.com/", "lat": 39.718553, "lon": -104.992389, "from_id": 7409, "to_id": 6153, "walk": 27.0, "bike": 9, "transit": 27.0 }, "geometry": { "type": "Point", "coordinates": [ -104.992389, 39.718553 ] } },
{ "type": "Feature", "properties": { "id": 15612, "name": "TRVE Brewing Co", "addr": "227 Broadway #101, Denver, Colorado, 80203, United States", "phone": "(303) 351-1021", "web": "trvebrewing.com", "lat": 39.719713, "lon": -104.987663, "from_id": 7409, "to_id": 15612, "walk": 25.0, "bike": 10, "transit": 25.0 }, "geometry": { "type": "Point", "coordinates": [ -104.987663, 39.719713 ] } },
{ "type": "Feature", "properties": { "id": 17713, "name": "Baere Brewing Company", "addr": "320 Broadway Unit E, Denver, Colorado, 80203-3955, United States", "phone": "(970) 901-4810", "web": "www.baerebrewing.com", "lat": 39.721432, "lon": -104.987139, "from_id": 7409, "to_id": 17713, "walk": 23.0, "bike": 9, "transit": 23.0 }, "geometry": { "type": "Point", "coordinates": [ -104.987139, 39.721432 ] } },
{ "type": "Feature", "properties": { "id": 20675, "name": "Baere Brewing Company", "addr": "320 Broadway Unit E, Denver, Colorado, 80203-3955, United States", "phone": "(970) 901-4810", "web": "www.baerebrewing.com", "lat": 39.721432, "lon": -104.987139, "from_id": 7409, "to_id": 20675, "walk": 23.0, "bike": 9, "transit": 23.0 }, "geometry": { "type": "Point", "coordinates": [ -104.987139, 39.721432 ] } },
{ "type": "Feature", "properties": { "id": 21116, "name": "Crazy Mountain Brewing Co", "addr": "471 Kalamath St, Denver, Colorado, 80204-5019, United States", "phone": null, "web": "www.crazymountainbrewery.com", "lat": 39.72359, "lon": -105.000619, "from_id": 7409, "to_id": 21116, "walk": 27.0, "bike": 9, "transit": 27.0 }, "geometry": { "type": "Point", "coordinates": [ -105.000619, 39.72359 ] } },
{ "type": "Feature", "properties": { "id": 8916, "name": "Banded Oak Brewing Company", "addr": "470 N Broadway, Denver, Colorado, 80203-3404, United States", "phone": "(720) 479-8033", "web": "Bandedoakbrewing.com", "lat": 39.723761, "lon": -104.987007, "from_id": 7409, "to_id": 8916, "walk": 20.0, "bike": 8, "transit": 20.0 }, "geometry": { "type": "Point", "coordinates": [ -104.987007, 39.723761 ] } },
{ "type": "Feature", "properties": { "id": 12611, "name": "Renegade Brewing Company", "addr": "925 W 9th Ave, Denver, Colorado, 80204-4338, United States", "phone": "(303) 534-5407", "web": "renegadebrewing.com", "lat": 39.730631, "lon": -104.999371, "from_id": 10506, "to_id": 12611, "walk": 24.0, "bike": 12, "transit": 24.0 }, "geometry": { "type": "Point", "coordinates": [ -104.999371, 39.730631 ] } },
{ "type": "Feature", "properties": { "id": 7409, "name": "Pints Pub Brewery and Freehouse", "addr": "221 W 13th Ave, Denver, Colorado, 80204-2711, United States", "phone": "(303) 534-7543", "web": "www.pintspub.com", "lat": 39.737012, "lon": -104.991185, "from_id": 10506, "to_id": 7409, "walk": 26.0, "bike": 18, "transit": 26.0 }, "geometry": { "type": "Point", "coordinates": [ -104.991185, 39.737012 ] } },
{ "type": "Feature", "properties": { "id": 10506, "name": "Strange Craft Beer Company", "addr": "1330 Zuni St Ste M, Denver, Colorado, 80204-2328, United States", "phone": "7209852337", "web": "www.strangecraft.com", "lat": 39.737257, "lon": -105.015223, "from_id": 10506, "to_id": 10506, "walk": 0.0, "bike": 0, "transit": 0.0 }, "geometry": { "type": "Point", "coordinates": [ -105.015223, 39.737257 ] } },
{ "type": "Feature", "properties": { "id": 21395, "name": "Raices Brewing Co", "addr": "2060 W Colfax Ave, Denver, Colorado, 80204-2332, United States", "phone": "(720)324-8550", "web": "www.raicesbrewing.com", "lat": 39.739022, "lon": -105.017253, "from_id": 10506, "to_id": 21395, "walk": 4.0, "bike": 3, "transit": 4.0 }, "geometry": { "type": "Point", "coordinates": [ -105.017253, 39.739022 ] } },
{ "type": "Feature", "properties": { "id": 19084, "name": "Raices Brewing Co", "addr": "2060 W Colfax Ave, Denver, Colorado, 80204-2332, United States", "phone": "(720)324-8550", "web": "www.raicesbrewing.com", "lat": 39.739022, "lon": -105.017253, "from_id": 10506, "to_id": 19084, "walk": 4.0, "bike": 3, "transit": 4.0 }, "geometry": { "type": "Point", "coordinates": [ -105.017253, 39.739022 ] } },
{ "type": "Feature", "properties": { "id": 6342, "name": "Seedstock Brewery", "addr": "3600 W Colfax Ave, Denver, Colorado, 80204-1513, United States", "phone": "(720) 476-7831", "web": "www.seedstockbrewery.com", "lat": 39.740068, "lon": -105.034834, "from_id": 10506, "to_id": 6342, "walk": 25.0, "bike": 9, "transit": 25.0 }, "geometry": { "type": "Point", "coordinates": [ -105.034834, 39.740068 ] } },
{ "type": "Feature", "properties": { "id": 16564, "name": "Tivoli Brewing Company", "addr": "900 Auraria Pkwy Unit 240, Denver, Colorado, 80204-1897, United States", "phone": "7203943420", "web": "www.tivolibrewingco.com", "lat": 39.746523, "lon": -105.005361, "from_id": 10506, "to_id": 16564, "walk": 21.0, "bike": 13, "transit": 21.0 }, "geometry": { "type": "Point", "coordinates": [ -105.005361, 39.746523 ] } },
{ "type": "Feature", "properties": { "id": 9898, "name": "Little Machine", "addr": "2924 W 20th Ave, Denver, Colorado, 80211-4622, United States", "phone": "(303) 284-7893", "web": "www.littlemachinebeer.com", "lat": 39.747312, "lon": -105.024341, "from_id": 10506, "to_id": 9898, "walk": 22.0, "bike": 8, "transit": 22.0 }, "geometry": { "type": "Point", "coordinates": [ -105.024341, 39.747312 ] } },
{ "type": "Feature", "properties": { "id": 15445, "name": "Briar Common Brewery", "addr": "2298 N Clay St, Denver, Colorado, 80211-5122, United States", "phone": "(720) 470-3731", "web": "www.briarcommon.com", "lat": 39.751002, "lon": -105.020252, "from_id": 10506, "to_id": 15445, "walk": 23.0, "bike": 8, "transit": 23.0 }, "geometry": { "type": "Point", "coordinates": [ -105.020252, 39.751002 ] } },
{ "type": "Feature", "properties": { "id": 15613, "name": "TRVE Brewing Co. - The Acid Temple", "addr": "2600 W. 2nd Ave, Denver, Colorado, 80219, United States", "phone": "(303) 351-1021", "web": null, "lat": 39.719651, "lon": -105.019004, "from_id": 10506, "to_id": 15613, "walk": 28.0, "bike": 10, "transit": 28.0 }, "geometry": { "type": "Point", "coordinates": [ -105.019004, 39.719651 ] } },
{ "type": "Feature", "properties": { "id": 21167, "name": "Burns Family Artisan Ales", "addr": "2505 W 2nd Ave, Denver, Colorado, 80219-1655, United States", "phone": "(248) 224-2697", "web": "www.burnsalesdenver.com", "lat": 39.720719, "lon": -105.017684, "from_id": 10506, "to_id": 21167, "walk": 28.0, "bike": 10, "transit": 28.0 }, "geometry": { "type": "Point", "coordinates": [ -105.017684, 39.720719 ] } },
{ "type": "Feature", "properties": { "id": 16773, "name": "Burns Family Artisan Ales", "addr": "2505 W 2nd Ave, Denver, Colorado, 80219-1655, United States", "phone": "(248) 224-2697", "web": "www.burnsalesdenver.com", "lat": 39.720719, "lon": -105.017684, "from_id": 10506, "to_id": 16773, "walk": 28.0, "bike": 10, "transit": 28.0 }, "geometry": { "type": "Point", "coordinates": [ -105.017684, 39.720719 ] } },
{ "type": "Feature", "properties": { "id": 18576, "name": "Sleeping Giant Brewing Company", "addr": "2500 W. 5th Ave., Denver, Colorado, 80204, United States", "phone": "(303) 859-1484", "web": "www.sleepinggiantbrewing.com", "lat": 39.723785, "lon": -105.015706, "from_id": 10506, "to_id": 18576, "walk": 25.0, "bike": 10, "transit": 25.0 }, "geometry": { "type": "Point", "coordinates": [ -105.015706, 39.723785 ] } },
{ "type": "Feature", "properties": { "id": 8226, "name": "Good River Beer", "addr": "2500 W. 5th Ave, Denver, Colorado, 80204, United States", "phone": "(970) 319-2888", "web": "www.goodriverbeer.com", "lat": 39.723785, "lon": -105.015706, "from_id": 10506, "to_id": 8226, "walk": 25.0, "bike": 10, "transit": 25.0 }, "geometry": { "type": "Point", "coordinates": [ -105.015706, 39.723785 ] } },
{ "type": "Feature", "properties": { "id": 12611, "name": "Renegade Brewing Company", "addr": "925 W 9th Ave, Denver, Colorado, 80204-4338, United States", "phone": "(303) 534-5407", "web": "renegadebrewing.com", "lat": 39.730631, "lon": -104.999371, "from_id": 21395, "to_id": 12611, "walk": 29.0, "bike": 14, "transit": 29.0 }, "geometry": { "type": "Point", "coordinates": [ -104.999371, 39.730631 ] } },
{ "type": "Feature", "properties": { "id": 10506, "name": "Strange Craft Beer Company", "addr": "1330 Zuni St Ste M, Denver, Colorado, 80204-2328, United States", "phone": "7209852337", "web": "www.strangecraft.com", "lat": 39.737257, "lon": -105.015223, "from_id": 21395, "to_id": 10506, "walk": 4.0, "bike": 3, "transit": 4.0 }, "geometry": { "type": "Point", "coordinates": [ -105.015223, 39.737257 ] } },
{ "type": "Feature", "properties": { "id": 21395, "name": "Raices Brewing Co", "addr": "2060 W Colfax Ave, Denver, Colorado, 80204-2332, United States", "phone": "(720)324-8550", "web": "www.raicesbrewing.com", "lat": 39.739022, "lon": -105.017253, "from_id": 21395, "to_id": 21395, "walk": 0.0, "bike": 0, "transit": 0.0 }, "geometry": { "type": "Point", "coordinates": [ -105.017253, 39.739022 ] } },
{ "type": "Feature", "properties": { "id": 19084, "name": "Raices Brewing Co", "addr": "2060 W Colfax Ave, Denver, Colorado, 80204-2332, United States", "phone": "(720)324-8550", "web": "www.raicesbrewing.com", "lat": 39.739022, "lon": -105.017253, "from_id": 21395, "to_id": 19084, "walk": 0.0, "bike": 0, "transit": 0.0 }, "geometry": { "type": "Point", "coordinates": [ -105.017253, 39.739022 ] } },
{ "type": "Feature", "properties": { "id": 6342, "name": "Seedstock Brewery", "addr": "3600 W Colfax Ave, Denver, Colorado, 80204-1513, United States", "phone": "(720) 476-7831", "web": "www.seedstockbrewery.com", "lat": 39.740068, "lon": -105.034834, "from_id": 21395, "to_id": 6342, "walk": 22.0, "bike": 10, "transit": 22.0 }, "geometry": { "type": "Point", "coordinates": [ -105.034834, 39.740068 ] } },
{ "type": "Feature", "properties": { "id": 7085, "name": "Odell Brewing Sloan's Lake Brewhouse", "addr": "1625 Perry St, Denver, Colorado, 80204, United States", "phone": null, "web": null, "lat": 39.743379, "lon": -105.039627, "from_id": 21395, "to_id": 7085, "walk": 30.0, "bike": 12, "transit": 30.0 }, "geometry": { "type": "Point", "coordinates": [ -105.039627, 39.743379 ] } },
{ "type": "Feature", "properties": { "id": 16564, "name": "Tivoli Brewing Company", "addr": "900 Auraria Pkwy Unit 240, Denver, Colorado, 80204-1897, United States", "phone": "7203943420", "web": "www.tivolibrewingco.com", "lat": 39.746523, "lon": -105.005361, "from_id": 21395, "to_id": 16564, "walk": 18.0, "bike": 12, "transit": 18.0 }, "geometry": { "type": "Point", "coordinates": [ -105.005361, 39.746523 ] } },
{ "type": "Feature", "properties": { "id": 9898, "name": "Little Machine", "addr": "2924 W 20th Ave, Denver, Colorado, 80211-4622, United States", "phone": "(303) 284-7893", "web": "www.littlemachinebeer.com", "lat": 39.747312, "lon": -105.024341, "from_id": 21395, "to_id": 9898, "walk": 18.0, "bike": 8, "transit": 18.0 }, "geometry": { "type": "Point", "coordinates": [ -105.024341, 39.747312 ] } },
{ "type": "Feature", "properties": { "id": 15445, "name": "Briar Common Brewery", "addr": "2298 N Clay St, Denver, Colorado, 80211-5122, United States", "phone": "(720) 470-3731", "web": "www.briarcommon.com", "lat": 39.751002, "lon": -105.020252, "from_id": 21395, "to_id": 15445, "walk": 20.0, "bike": 8, "transit": 20.0 }, "geometry": { "type": "Point", "coordinates": [ -105.020252, 39.751002 ] } },
{ "type": "Feature", "properties": { "id": 18576, "name": "Sleeping Giant Brewing Company", "addr": "2500 W. 5th Ave., Denver, Colorado, 80204, United States", "phone": "(303) 859-1484", "web": "www.sleepinggiantbrewing.com", "lat": 39.723785, "lon": -105.015706, "from_id": 21395, "to_id": 18576, "walk": 28.0, "bike": 12, "transit": 28.0 }, "geometry": { "type": "Point", "coordinates": [ -105.015706, 39.723785 ] } },
{ "type": "Feature", "properties": { "id": 8226, "name": "Good River Beer", "addr": "2500 W. 5th Ave, Denver, Colorado, 80204, United States", "phone": "(970) 319-2888", "web": "www.goodriverbeer.com", "lat": 39.723785, "lon": -105.015706, "from_id": 21395, "to_id": 8226, "walk": 28.0, "bike": 12, "transit": 28.0 }, "geometry": { "type": "Point", "coordinates": [ -105.015706, 39.723785 ] } },
{ "type": "Feature", "properties": { "id": 12611, "name": "Renegade Brewing Company", "addr": "925 W 9th Ave, Denver, Colorado, 80204-4338, United States", "phone": "(303) 534-5407", "web": "renegadebrewing.com", "lat": 39.730631, "lon": -104.999371, "from_id": 19084, "to_id": 12611, "walk": 29.0, "bike": 14, "transit": 29.0 }, "geometry": { "type": "Point", "coordinates": [ -104.999371, 39.730631 ] } },
{ "type": "Feature", "properties": { "id": 10506, "name": "Strange Craft Beer Company", "addr": "1330 Zuni St Ste M, Denver, Colorado, 80204-2328, United States", "phone": "7209852337", "web": "www.strangecraft.com", "lat": 39.737257, "lon": -105.015223, "from_id": 19084, "to_id": 10506, "walk": 4.0, "bike": 3, "transit": 4.0 }, "geometry": { "type": "Point", "coordinates": [ -105.015223, 39.737257 ] } },
{ "type": "Feature", "properties": { "id": 21395, "name": "Raices Brewing Co", "addr": "2060 W Colfax Ave, Denver, Colorado, 80204-2332, United States", "phone": "(720)324-8550", "web": "www.raicesbrewing.com", "lat": 39.739022, "lon": -105.017253, "from_id": 19084, "to_id": 21395, "walk": 0.0, "bike": 0, "transit": 0.0 }, "geometry": { "type": "Point", "coordinates": [ -105.017253, 39.739022 ] } },
{ "type": "Feature", "properties": { "id": 19084, "name": "Raices Brewing Co", "addr": "2060 W Colfax Ave, Denver, Colorado, 80204-2332, United States", "phone": "(720)324-8550", "web": "www.raicesbrewing.com", "lat": 39.739022, "lon": -105.017253, "from_id": 19084, "to_id": 19084, "walk": 0.0, "bike": 0, "transit": 0.0 }, "geometry": { "type": "Point", "coordinates": [ -105.017253, 39.739022 ] } },
{ "type": "Feature", "properties": { "id": 6342, "name": "Seedstock Brewery", "addr": "3600 W Colfax Ave, Denver, Colorado, 80204-1513, United States", "phone": "(720) 476-7831", "web": "www.seedstockbrewery.com", "lat": 39.740068, "lon": -105.034834, "from_id": 19084, "to_id": 6342, "walk": 22.0, "bike": 10, "transit": 22.0 }, "geometry": { "type": "Point", "coordinates": [ -105.034834, 39.740068 ] } },
{ "type": "Feature", "properties": { "id": 7085, "name": "Odell Brewing Sloan's Lake Brewhouse", "addr": "1625 Perry St, Denver, Colorado, 80204, United States", "phone": null, "web": null, "lat": 39.743379, "lon": -105.039627, "from_id": 19084, "to_id": 7085, "walk": 30.0, "bike": 12, "transit": 30.0 }, "geometry": { "type": "Point", "coordinates": [ -105.039627, 39.743379 ] } },
{ "type": "Feature", "properties": { "id": 16564, "name": "Tivoli Brewing Company", "addr": "900 Auraria Pkwy Unit 240, Denver, Colorado, 80204-1897, United States", "phone": "7203943420", "web": "www.tivolibrewingco.com", "lat": 39.746523, "lon": -105.005361, "from_id": 19084, "to_id": 16564, "walk": 18.0, "bike": 12, "transit": 18.0 }, "geometry": { "type": "Point", "coordinates": [ -105.005361, 39.746523 ] } },
{ "type": "Feature", "properties": { "id": 9898, "name": "Little Machine", "addr": "2924 W 20th Ave, Denver, Colorado, 80211-4622, United States", "phone": "(303) 284-7893", "web": "www.littlemachinebeer.com", "lat": 39.747312, "lon": -105.024341, "from_id": 19084, "to_id": 9898, "walk": 18.0, "bike": 8, "transit": 18.0 }, "geometry": { "type": "Point", "coordinates": [ -105.024341, 39.747312 ] } },
{ "type": "Feature", "properties": { "id": 15445, "name": "Briar Common Brewery", "addr": "2298 N Clay St, Denver, Colorado, 80211-5122, United States", "phone": "(720) 470-3731", "web": "www.briarcommon.com", "lat": 39.751002, "lon": -105.020252, "from_id": 19084, "to_id": 15445, "walk": 20.0, "bike": 8, "transit": 20.0 }, "geometry": { "type": "Point", "coordinates": [ -105.020252, 39.751002 ] } },
{ "type": "Feature", "properties": { "id": 18576, "name": "Sleeping Giant Brewing Company", "addr": "2500 W. 5th Ave., Denver, Colorado, 80204, United States", "phone": "(303) 859-1484", "web": "www.sleepinggiantbrewing.com", "lat": 39.723785, "lon": -105.015706, "from_id": 19084, "to_id": 18576, "walk": 28.0, "bike": 12, "transit": 28.0 }, "geometry": { "type": "Point", "coordinates": [ -105.015706, 39.723785 ] } },
{ "type": "Feature", "properties": { "id": 8226, "name": "Good River Beer", "addr": "2500 W. 5th Ave, Denver, Colorado, 80204, United States", "phone": "(970) 319-2888", "web": "www.goodriverbeer.com", "lat": 39.723785, "lon": -105.015706, "from_id": 19084, "to_id": 8226, "walk": 28.0, "bike": 12, "transit": 28.0 }, "geometry": { "type": "Point", "coordinates": [ -105.015706, 39.723785 ] } },
{ "type": "Feature", "properties": { "id": 8937, "name": "Cerebral Brewing", "addr": "1477 Monroe St, Denver, Colorado, 80206-2708, United States", "phone": "(303) 927-7365", "web": "www.cerebralbrewing.com", "lat": 39.739689, "lon": -104.945499, "from_id": 8937, "to_id": 8937, "walk": 0.0, "bike": 0, "transit": 0.0 }, "geometry": { "type": "Point", "coordinates": [ -104.945499, 39.739689 ] } },
{ "type": "Feature", "properties": { "id": 8730, "name": "Bruz Off Fax", "addr": "1495 York St  #101, Denver, Colorado, 80206, United States", "phone": null, "web": null, "lat": 39.739831, "lon": -104.959962, "from_id": 8937, "to_id": 8730, "walk": 16.0, "bike": 9, "transit": 16.0 }, "geometry": { "type": "Point", "coordinates": [ -104.959962, 39.739831 ] } },
{ "type": "Feature", "properties": { "id": 4970, "name": "Reverence Brewing", "addr": "1604 East 17th Ave, Denver, Colorado, 80218, United States", "phone": null, "web": "www.reverencebrewingcompany.com", "lat": 39.743091, "lon": -104.968214, "from_id": 8937, "to_id": 4970, "walk": 27.0, "bike": 11, "transit": 27.0 }, "geometry": { "type": "Point", "coordinates": [ -104.968214, 39.743091 ] } },
{ "type": "Feature", "properties": { "id": 7598, "name": "Vine Street Pub & Brewery", "addr": "1700 Vine St, Denver, Colorado, 80206-1120, United States", "phone": "(303) 388-2337", "web": "www.mountainsunpub.com", "lat": 39.743503, "lon": -104.961918, "from_id": 8937, "to_id": 7598, "walk": 21.0, "bike": 10, "transit": 21.0 }, "geometry": { "type": "Point", "coordinates": [ -104.961918, 39.743503 ] } },
{ "type": "Feature", "properties": { "id": 8937, "name": "Cerebral Brewing", "addr": "1477 Monroe St, Denver, Colorado, 80206-2708, United States", "phone": "(303) 927-7365", "web": "www.cerebralbrewing.com", "lat": 39.739689, "lon": -104.945499, "from_id": 8730, "to_id": 8937, "walk": 16.0, "bike": 9, "transit": 16.0 }, "geometry": { "type": "Point", "coordinates": [ -104.945499, 39.739689 ] } },
{ "type": "Feature", "properties": { "id": 8730, "name": "Bruz Off Fax", "addr": "1495 York St  #101, Denver, Colorado, 80206, United States", "phone": null, "web": null, "lat": 39.739831, "lon": -104.959962, "from_id": 8730, "to_id": 8730, "walk": 0.0, "bike": 0, "transit": 0.0 }, "geometry": { "type": "Point", "coordinates": [ -104.959962, 39.739831 ] } },
{ "type": "Feature", "properties": { "id": 16975, "name": "Crazy Mountain Brewing Co", "addr": "1505 North Ogden Street, Denver, Colorado, 80218, United States", "phone": null, "web": "www.crazymountainbrewery.com", "lat": 39.740312, "lon": -104.974912, "from_id": 8730, "to_id": 16975, "walk": 16.0, "bike": 6, "transit": 16.0 }, "geometry": { "type": "Point", "coordinates": [ -104.974912, 39.740312 ] } },
{ "type": "Feature", "properties": { "id": 4970, "name": "Reverence Brewing", "addr": "1604 East 17th Ave, Denver, Colorado, 80218, United States", "phone": null, "web": "www.reverencebrewingcompany.com", "lat": 39.743091, "lon": -104.968214, "from_id": 8730, "to_id": 4970, "walk": 13.0, "bike": 4, "transit": 13.0 }, "geometry": { "type": "Point", "coordinates": [ -104.968214, 39.743091 ] } },
{ "type": "Feature", "properties": { "id": 12822, "name": "Alpine Dog Brewing Company", "addr": "1308 E 17th Ave, Denver, Colorado, 80218-1527, United States", "phone": "(303) 832-1245", "web": "www.alpinedogbrewery.com", "lat": 39.743096, "lon": -104.970644, "from_id": 8730, "to_id": 12822, "walk": 15.0, "bike": 5, "transit": 15.0 }, "geometry": { "type": "Point", "coordinates": [ -104.970644, 39.743096 ] } },
{ "type": "Feature", "properties": { "id": 7598, "name": "Vine Street Pub & Brewery", "addr": "1700 Vine St, Denver, Colorado, 80206-1120, United States", "phone": "(303) 388-2337", "web": "www.mountainsunpub.com", "lat": 39.743503, "lon": -104.961918, "from_id": 8730, "to_id": 7598, "walk": 7.0, "bike": 3, "transit": 7.0 }, "geometry": { "type": "Point", "coordinates": [ -104.961918, 39.743503 ] } },
{ "type": "Feature", "properties": { "id": 10809, "name": "Wynkoop Brewing Co", "addr": "2645 E 2nd Ave Ste 200, Denver, Colorado, 80206-4768, United States", "phone": "(303) 595-3500", "web": "www.wynkoop.com; www.phantomcanyon.com", "lat": 39.719709, "lon": -104.956158, "from_id": 8730, "to_id": 10809, "walk": 30.0, "bike": 15, "transit": 30.0 }, "geometry": { "type": "Point", "coordinates": [ -104.956158, 39.719709 ] } },
{ "type": "Feature", "properties": { "id": 10506, "name": "Strange Craft Beer Company", "addr": "1330 Zuni St Ste M, Denver, Colorado, 80204-2328, United States", "phone": "7209852337", "web": "www.strangecraft.com", "lat": 39.737257, "lon": -105.015223, "from_id": 6342, "to_id": 10506, "walk": 25.0, "bike": 9, "transit": 25.0 }, "geometry": { "type": "Point", "coordinates": [ -105.015223, 39.737257 ] } },
{ "type": "Feature", "properties": { "id": 21395, "name": "Raices Brewing Co", "addr": "2060 W Colfax Ave, Denver, Colorado, 80204-2332, United States", "phone": "(720)324-8550", "web": "www.raicesbrewing.com", "lat": 39.739022, "lon": -105.017253, "from_id": 6342, "to_id": 21395, "walk": 22.0, "bike": 10, "transit": 22.0 }, "geometry": { "type": "Point", "coordinates": [ -105.017253, 39.739022 ] } },
{ "type": "Feature", "properties": { "id": 19084, "name": "Raices Brewing Co", "addr": "2060 W Colfax Ave, Denver, Colorado, 80204-2332, United States", "phone": "(720)324-8550", "web": "www.raicesbrewing.com", "lat": 39.739022, "lon": -105.017253, "from_id": 6342, "to_id": 19084, "walk": 22.0, "bike": 10, "transit": 22.0 }, "geometry": { "type": "Point", "coordinates": [ -105.017253, 39.739022 ] } },