{
"type": "FeatureCollection",
"crs": { "type": "name", "properties": { "name": "urn:ogc:def:crs:OGC:1.3:CRS84" } },
"features": [
{ "type": "Feature", "properties": { "id": 620, "name": "Salt Springs Brewery", "addr": "117 S Ann Arbor St, Saline, Michigan, 48176-1320, United States", "phone": "(734) 295-9191", "web": "http://www.saltpsringsbrewery.com", "from_id": 620, "to_id": 620, "walk": 0.0, "bike": 0.0, "transit": 0.0 }, "geometry": { "type": "Point", "coordinates": [ -83.780525, 42.165992 ] } },
{ "type": "Feature", "properties": { "id": 3936, "name": "Stony Lake Brewing Company", "addr": "447 E Michigan Ave, Saline, Michigan, 48176-1547, United States", "phone": "(734) 316-7919", "web": "http://www.stonylakebrewing.com", "from_id": 620, "to_id": 3936, "walk": 12.0, "bike": 8.0, "transit": 16.0 }, "geometry": { "type": "Point", "coordinates": [ -83.772458, 42.170949 ] } },
{ "type": "Feature", "properties": { "id": 712, "name": "Unexpected Craft Brewing Company", "addr": "14401 W. 11 Mile Road, Oak Park, Michigan, 48237, United States", "phone": "(248) 802-0555", "web": "http://www.unexpectedcraft.com", "from_id": 712, "to_id": 712, "walk": 0.0, "bike": 0.0, "transit": 0.0 }, "geometry": { "type": "Point", "coordinates": [ -83.190374, 42.488451 ] } },
{ "type": "Feature", "properties": { "id": 851, "name": "Griffin Claw Brewing Co", "addr": "575 S Eton St, Birmingham, Michigan, 48009-6824, United States", "phone": null, "web": "http://www.griffinclawbrewingcompany.com", "from_id": 712, "to_id": 851, "walk": null, "bike": 27.0, "transit": null }, "geometry": { "type": "Point", "coordinates": [ -83.195043, 42.543374 ] } },
{ "type": "Feature", "properties": { "id": 2590, "name": "Woodward Avenue Brewers", "addr": "22646 Woodward Ave, Ferndale, Michigan, 48220-1810, United States", "phone": "(248) 546-3696", "web": "http://www.thewabsite.com", "from_id": 712, "to_id": 2590, "walk": null, "bike": 30.0, "transit": null }, "geometry": { "type": "Point", "coordinates": [ -83.133345, 42.459434 ] } },
{ "type": "Feature", "properties": { "id": 4564, "name": "The Royal Oak Brewery", "addr": "215 E 4th St, Royal Oak, Michigan, 48067-2606, United States", "phone": "(248) 544-1141", "web": "http://www.royaloakbrewery.com", "from_id": 712, "to_id": 4564, "walk": null, "bike": 19.0, "transit": null }, "geometry": { "type": "Point", "coordinates": [ -83.142396, 42.487456 ] } },
{ "type": "Feature", "properties": { "id": 5281, "name": "Urbanrest Brewing Company", "addr": "2615 Wolcott St, Ferndale, Michigan, 48220-1422, United States", "phone": null, "web": "http://www.urbanrest.com", "from_id": 712, "to_id": 5281, "walk": null, "bike": 27.0, "transit": null }, "geometry": { "type": "Point", "coordinates": [ -83.127881, 42.467959 ] } },
{ "type": "Feature", "properties": { "id": 7307, "name": "Lily's Seafood Grill and Brewery", "addr": "410 S Washington Ave, Royal Oak, Michigan, 48067-3824, United States", "phone": "(248) 591-5459", "web": "http://www.lilysseafood.com", "from_id": 712, "to_id": 7307, "walk": null, "bike": 17.0, "transit": null }, "geometry": { "type": "Point", "coordinates": [ -83.146761, 42.487097 ] } },
{ "type": "Feature", "properties": { "id": 8165, "name": "Dog and Pony Show Brewing", "addr": "14661 W 11 Mile Rd, Oak Park, Michigan, 48237, United States", "phone": "(248) 850-8910", "web": "http://www.dogandponyshowbrewing.com", "from_id": 712, "to_id": 8165, "walk": 4.0, "bike": 3.0, "transit": 5.0 }, "geometry": { "type": "Point", "coordinates": [ -83.193713, 42.488402 ] } },
{ "type": "Feature", "properties": { "id": 9227, "name": "Eastern Market Brewing Co Production", "addr": "330 E Lincoln Ave, Royal Oak, Michigan, 48067, United States", "phone": null, "web": null, "from_id": 712, "to_id": 9227, "walk": null, "bike": 18.0, "transit": null }, "geometry": { "type": "Point", "coordinates": [ -83.141438, 42.483346 ] } },
{ "type": "Feature", "properties": { "id": 9643, "name": "Cadillac Straits Brewing Company", "addr": "27651 John R Rd, Madison Heights, Michigan, 48071-3364, United States", "phone": "(248) 850-7673", "web": "https://cadillacstraits.com", "from_id": 712, "to_id": 9643, "walk": null, "bike": 29.0, "transit": null }, "geometry": { "type": "Point", "coordinates": [ -83.106116, 42.494933 ] } },
{ "type": "Feature", "properties": { "id": 10265, "name": "River Rouge Brewing Company", "addr": "14401 W. Eleven Mile Road, Oak Park, Michigan, 48237, United States", "phone": "(248) 802-0555", "web": "http://www.unexpectedcraft.com", "from_id": 712, "to_id": 10265, "walk": 0.0, "bike": 0.0, "transit": 0.0 }, "geometry": { "type": "Point", "coordinates": [ -83.190374, 42.488451 ] } },
{ "type": "Feature", "properties": { "id": 12997, "name": "Elephant & Co", "addr": "330 East Lincoln Avenue, Royal Oak, Michigan, 48067, United States", "phone": null, "web": null, "from_id": 712, "to_id": 12997, "walk": null, "bike": 18.0, "transit": null }, "geometry": { "type": "Point", "coordinates": [ -83.141438, 42.483346 ] } },
{ "type": "Feature", "properties": { "id": 783, "name": "Downey Brewing Company", "addr": "13121 Prospect St, Dearborn, Michigan, 48126-3603, United States", "phone": "(313) 288-8442", "web": "http://www.downeybrewingcompany.com", "from_id": 783, "to_id": 783, "walk": 0.0, "bike": 0.0, "transit": 0.0 }, "geometry": { "type": "Point", "coordinates": [ -83.171026, 42.316442 ] } },
{ "type": "Feature", "properties": { "id": 8795, "name": "Dearborn Brewing", "addr": "21930 Michigan Ave, Dearborn, Michigan, 48124-2351, United States", "phone": "(313) 914-4187", "web": "http://www.dearbornbrewing.com", "from_id": 783, "to_id": 8795, "walk": null, "bike": 27.0, "transit": null }, "geometry": { "type": "Point", "coordinates": [ -83.243687, 42.306451 ] } },
{ "type": "Feature", "properties": { "id": 800, "name": "Drafting Table Brewing Company", "addr": "49438 Pontiac Trl, Wixom, Michigan, 48393-2005, United States", "phone": "(248) 956-7279", "web": "http://www.draftingtablebeer.com", "from_id": 800, "to_id": 800, "walk": 0.0, "bike": 0.0, "transit": 0.0 }, "geometry": { "type": "Point", "coordinates": [ -83.537895, 42.524406 ] } },
{ "type": "Feature", "properties": { "id": 804, "name": "Dragonmead Microbrewery", "addr": "14600 E 11 Mile Rd, Warren, Michigan, 48089-1556, United States", "phone": "(586) 776-9428", "web": null, "from_id": 804, "to_id": 804, "walk": 0.0, "bike": 0.0, "transit": 0.0 }, "geometry": { "type": "Point", "coordinates": [ -82.975263, 42.492653 ] } },
{ "type": "Feature", "properties": { "id": 712, "name": "Unexpected Craft Brewing Company", "addr": "14401 W. 11 Mile Road, Oak Park, Michigan, 48237, United States", "phone": "(248) 802-0555", "web": "http://www.unexpectedcraft.com", "from_id": 851, "to_id": 712, "walk": null, "bike": 27.0, "transit": null }, "geometry": { "type": "Point", "coordinates": [ -83.190374, 42.488451 ] } },
{ "type": "Feature", "properties": { "id": 851, "name": "Griffin Claw Brewing Co", "addr": "575 S Eton St, Birmingham, Michigan, 48009-6824, United States", "phone": null, "web": "http://www.griffinclawbrewingcompany.com", "from_id": 851, "to_id": 851, "walk": 0.0, "bike": 0.0, "transit": 0.0 }, "geometry": { "type": "Point", "coordinates": [ -83.195043, 42.543374 ] } },
{ "type": "Feature", "properties": { "id": 3800, "name": "Granite City Food & Brewery (#28)", "addr": "699 W Big Beaver Rd, Troy, Michigan, 48084-4920, United States", "phone": "(248) 519-1040", "web": "http://www.gcfb.com", "from_id": 851, "to_id": 3800, "walk": null, "bike": 22.0, "transit": null }, "geometry": { "type": "Point", "coordinates": [ -83.161073, 42.561439 ] } },
{ "type": "Feature", "properties": { "id": 8165, "name": "Dog and Pony Show Brewing", "addr": "14661 W 11 Mile Rd, Oak Park, Michigan, 48237, United States", "phone": "(248) 850-8910", "web": "http://www.dogandponyshowbrewing.com", "from_id": 851, "to_id": 8165, "walk": null, "bike": 26.0, "transit": null }, "geometry": { "type": "Point", "coordinates": [ -83.193713, 42.488402 ] } },
{ "type": "Feature", "properties": { "id": 10265, "name": "River Rouge Brewing Company", "addr": "14401 W. Eleven Mile Road, Oak Park, Michigan, 48237, United States", "phone": "(248) 802-0555", "web": "http://www.unexpectedcraft.com", "from_id": 851, "to_id": 10265, "walk": null, "bike": 27.0, "transit": null }, "geometry": { "type": "Point", "coordinates": [ -83.190374, 42.488451 ] } },
{ "type": "Feature", "properties": { "id": 11257, "name": "Kasteel USA LLC", "addr": "2701 Troy Center Dr., Ste 255, Troy, Michigan, 48084, United States", "phone": "(516) 234-6499", "web": "http://www.kasteelusa.com", "from_id": 851, "to_id": 11257, "walk": null, "bike": 19.0, "transit": null }, "geometry": { "type": "Point", "coordinates": [ -83.163967, 42.558811 ] } },
{ "type": "Feature", "properties": { "id": 13122, "name": "Grand River Brewery - Clawson", "addr": "1 East 14 Mile Road, Clawson, Michigan, 48017, United States", "phone": null, "web": null, "from_id": 851, "to_id": 13122, "walk": null, "bike": 25.0, "transit": null }, "geometry": { "type": "Point", "coordinates": [ -83.14596, 42.533511 ] } },
{ "type": "Feature", "properties": { "id": 852, "name": "Griffin Claw Brewing Co. - Think Tank", "addr": "2273 Crooks Rd, Rochester Hills, Michigan, 48309, United States", "phone": "(248) 712-4050", "web": "http://www.griffinclawbrewingcompany.com", "from_id": 852, "to_id": 852, "walk": 0.0, "bike": 0.0, "transit": 0.0 }, "geometry": { "type": "Point", "coordinates": [ -83.169854, 42.647213 ] } },
{ "type": "Feature", "properties": { "id": 8141, "name": "Rochester Mills Beer Co", "addr": "400 Water St Ste 101, Rochester, Michigan, 48307-2089, United States", "phone": "(248) 650-5080", "web": "http://www.beercos.com", "from_id": 852, "to_id": 8141, "walk": null, "bike": 20.0, "transit": null }, "geometry": { "type": "Point", "coordinates": [ -83.130857, 42.680625 ] } },
{ "type": "Feature", "properties": { "id": 868, "name": "Grizzly Peak Brewing Co", "addr": "120 W Washington St Ste 1, Ann Arbor, Michigan, 48104-1356, United States", "phone": "(734) 741-7325", "web": "http://www.grizzlypeak.net", "from_id": 868, "to_id": 868, "walk": 0.0, "bike": 0.0, "transit": 0.0 }, "geometry": { "type": "Point", "coordinates": [ -83.749412, 42.280721 ] } },
{ "type": "Feature", "properties": { "id": 1195, "name": "Blom Meadworks", "addr": "100 S 4th Ave, Ann Arbor, Michigan, 48104, United States", "phone": "(734) 548-9729", "web": "http://www.drinkblom.com", "from_id": 868, "to_id": 1195, "walk": 3.0, "bike": 2.0, "transit": 4.0 }, "geometry": { "type": "Point", "coordinates": [ -83.747614, 42.281099 ] } },
{ "type": "Feature", "properties": { "id": 1483, "name": "Blue Tractor Brewing Co", "addr": "207 E Washington St, Ann Arbor, Michigan, 48104-2007, United States", "phone": "(734) 222-4095", "web": null, "from_id": 868, "to_id": 1483, "walk": 2.0, "bike": 1.0, "transit": 3.0 }, "geometry": { "type": "Point", "coordinates": [ -83.747022, 42.280582 ] } },
{ "type": "Feature", "properties": { "id": 1607, "name": "HOMES Brewery", "addr": "2321 Jackson Ave, Ann Arbor, Michigan, 48103-3814, United States", "phone": "(734) 954-6637", "web": "http://www.homesbrewery.com", "from_id": 868, "to_id": 1607, "walk": null, "bike": 12.0, "transit": null }, "geometry": { "type": "Point", "coordinates": [ -83.778446, 42.280269 ] } },
{ "type": "Feature", "properties": { "id": 4831, "name": "Jolly Pumpkin Cafe and Brewery", "addr": "311 S Main St, Ann Arbor, Michigan, 48104-2107, United States", "phone": "(734) 913-2730", "web": "http://www.jollypumpkin.com", "from_id": 868, "to_id": 4831, "walk": 3.0, "bike": 1.0, "transit": 4.0 }, "geometry": { "type": "Point", "coordinates": [ -83.748247, 42.279149 ] } },
{ "type": "Feature", "properties": { "id": 10959, "name": "Biercamp", "addr": "1643 S State St, Ann Arbor, Michigan, 48104-4302, United States", "phone": "(734) 995-2437", "web": "http://www.bier-camp.com", "from_id": 868, "to_id": 10959, "walk": null, "bike": 18.0, "transit": null }, "geometry": { "type": "Point", "coordinates": [ -83.7398, 42.258421 ] } },
{ "type": "Feature", "properties": { "id": 13932, "name": "hear.say brewing", "addr": "2350 West Liberty Street, Ann Arbor, Michigan, 48103, United States", "phone": "(734) 506-8441", "web": "https://www.heardotsay.com/", "from_id": 868, "to_id": 13932, "walk": null, "bike": 14.0, "transit": null }, "geometry": { "type": "Point", "coordinates": [ -83.779251, 42.274314 ] } },
{ "type": "Feature", "properties": { "id": 886, "name": "Nain Rouge Brewery", "addr": "666 Selden St, Detroit, Michigan, 48201, United States", "phone": "(313) 638-1695", "web": "http://www.nainrougebrewery.com", "from_id": 886, "to_id": 886, "walk": 0.0, "bike": 0.0, "transit": 0.0 }, "geometry": { "type": "Point", "coordinates": [ -83.0659, 42.347382 ] } },
{ "type": "Feature", "properties": { "id": 1629, "name": "American Badass Beer", "addr": "1401 Abbott St, Detroit, Michigan, 48216-1946, United States", "phone": null, "web": "http://www.americanbadassbeer.com", "from_id": 886, "to_id": 1629, "walk": null, "bike": 13.0, "transit": null }, "geometry": { "type": "Point", "coordinates": [ -83.062027, 42.327601 ] } },
{ "type": "Feature", "properties": { "id": 3387, "name": "Motor City Brewing Works", "addr": "470 W Canfield St, Detroit, Michigan, 48201-1220, United States", "phone": "(313) 832-2700", "web": "http://www.motorcitybeer.com", "from_id": 886, "to_id": 3387, "walk": 8.0, "bike": 2.0, "transit": 11.0 }, "geometry": { "type": "Point", "coordinates": [ -83.066023, 42.351793 ] } },
{ "type": "Feature", "properties": { "id": 3388, "name": "Motor City Brewing Works Warehouse", "addr": "441 W Canfield St, Detroit, Michigan, 48201-1231, United States", "phone": null, "web": null, "from_id": 886, "to_id": 3388, "walk": 8.0, "bike": 3.0, "transit": 12.0 }, "geometry": { "type": "Point", "coordinates": [ -83.065278, 42.350998 ] } },
{ "type": "Feature", "properties": { "id": 3687, "name": "Detroit Beer Co", "addr": "1529 Broadway St Ste 100, Detroit, Michigan, 48226-2141, United States", "phone": "(313) 962-1529", "web": "http://www.detroitbeerco.com", "from_id": 886, "to_id": 3687, "walk": 29.0, "bike": 13.0, "transit": null }, "geometry": { "type": "Point", "coordinates": [ -83.04892, 42.335813 ] } },
{ "type": "Feature", "properties": { "id": 6051, "name": "Lagerhaus No. 5", "addr": "1529 Adelaide St, Detroit, Michigan, 48207, United States", "phone": null, "web": null, "from_id": 886, "to_id": 6051, "walk": null, "bike": 15.0, "transit": null }, "geometry": { "type": "Point", "coordinates": [ -83.038527, 42.347591 ] } },
{ "type": "Feature", "properties": { "id": 6738, "name": "Brewery Faisan", "addr": "1087 Beaufait, Detroit, Michigan, 48207, United States", "phone": "(313) 290-2987", "web": "http://www.breweryfaisan.com", "from_id": 886, "to_id": 6738, "walk": null, "bike": 27.0, "transit": null }, "geometry": { "type": "Point", "coordinates": [ -83.010676, 42.348884 ] } },
{ "type": "Feature", "properties": { "id": 7506, "name": "Batch Brewing Co - Funk Room", "addr": "2841 E Grand Blvd, Detroit, Michigan, 48216-1934, United States", "phone": "(313) 338-8008", "web": null, "from_id": 886, "to_id": 7506, "walk": null, "bike": 16.0, "transit": null }, "geometry": { "type": "Point", "coordinates": [ -83.064092, 42.373249 ] } },
{ "type": "Feature", "properties": { "id": 7507, "name": "Batch Brewing Company", "addr": "1400 Porter St, Detroit, Michigan, 48216-1934, United States", "phone": "(313) 338-8008", "web": "http://www.BatchBrewingCompany.com", "from_id": 886, "to_id": 7507, "walk": null, "bike": 13.0, "transit": null }, "geometry": { "type": "Point", "coordinates": [ -83.063389, 42.32852 ] } },
{ "type": "Feature", "properties": { "id": 8718, "name": "Atwater Brewing Co", "addr": "237 Joseph Campau St, Detroit, Michigan, 48207-4107, United States", "phone": "(313) 877-9205", "web": "http://www.atwaterbeer.com", "from_id": 886, "to_id": 8718, "walk": null, "bike": 24.0, "transit": null }, "geometry": { "type": "Point", "coordinates": [ -83.018658, 42.337145 ] } },
{ "type": "Feature", "properties": { "id": 9226, "name": "Eastern Market Brewing Co", "addr": "2515 Riopelle St, Detroit, Michigan, 48207-4526, United States", "phone": null, "web": "http://www.easternmarket.beer", "from_id": 886, "to_id": 9226, "walk": null, "bike": 16.0, "transit": null }, "geometry": { "type": "Point", "coordinates": [ -83.038884, 42.346674 ] } },
{ "type": "Feature", "properties": { "id": 11235, "name": "FUL Beverage", "addr": "2711 E Jefferson Ave, Detroit, Michigan, 48207, United States", "phone": null, "web": "http://www.fulbeverage.com", "from_id": 886, "to_id": 11235, "walk": null, "bike": 25.0, "transit": null }, "geometry": { "type": "Point", "coordinates": [ -83.020956, 42.339364 ] } },
{ "type": "Feature", "properties": { "id": 1033, "name": "BJs Chicago Pizza & Brewery, Inc.", "addr": "14455 Lakeside Circle, Sterling Heights, Michigan, 48313, United States", "phone": "(586) 519-6250", "web": null, "from_id": 1033, "to_id": 1033, "walk": 0.0, "bike": 0.0, "transit": 0.0 }, "geometry": { "type": "Point", "coordinates": [ -82.983736, 42.626158 ] } },
{ "type": "Feature", "properties": { "id": 3362, "name": "Sherwood Brewing Co", "addr": "45689 Hayes Rd, Shelby Township, Michigan, 48315-6214, United States", "phone": "(586) 532-9669", "web": "http://www.sherwoodbrewing.com", "from_id": 1033, "to_id": 3362, "walk": 18.0, "bike": 11.0, "transit": 25.0 }, "geometry": { "type": "Point", "coordinates": [ -82.973683, 42.632507 ] } },
{ "type": "Feature", "properties": { "id": 1042, "name": "BJs Chicago Pizza & Brewery, Inc.", "addr": "19470 Haggerty Rd, Livonia, Michigan, 48152, United States", "phone": "(714) 500-2400", "web": null, "from_id": 1042, "to_id": 1042, "walk": 0.0, "bike": 0.0, "transit": 0.0 }, "geometry": { "type": "Point", "coordinates": [ -83.432998, 42.427712 ] } },
{ "type": "Feature", "properties": { "id": 2071, "name": "Schoolcraft Brewery", "addr": "18600 Haggerty Rd, Livonia, Michigan, 48152-3932, United States", "phone": "(734) 462-7659", "web": "http://www.schoolcraft.edu", "from_id": 1042, "to_id": 2071, "walk": 21.0, "bike": 7.0, "transit": 29.0 }, "geometry": { "type": "Point", "coordinates": [ -83.428418, 42.415642 ] } },
{ "type": "Feature", "properties": { "id": 3804, "name": "Granite City Food & Brewery (#32)", "addr": "39603 Traditions Dr, Northville, Michigan, 48168-9496, United States", "phone": "(248) 662-3400", "web": "http://www.gcfb.net", "from_id": 1042, "to_id": 3804, "walk": 9.0, "bike": 6.0, "transit": 12.0 }, "geometry": { "type": "Point", "coordinates": [ -83.435892, 42.422784 ] } },
{ "type": "Feature", "properties": { "id": 1044, "name": "BJs Chicago Pizza & Brewery, Inc.", "addr": "23002 Eureka Rd, Taylor, Michigan, 48180, United States", "phone": "(714) 500-2400", "web": null, "from_id": 1044, "to_id": 1044, "walk": 0.0, "bike": 0.0, "transit": 0.0 }, "geometry": { "type": "Point", "coordinates": [ -83.256971, 42.197935 ] } },
{ "type": "Feature", "properties": { "id": 868, "name": "Grizzly Peak Brewing Co", "addr": "120 W Washington St Ste 1, Ann Arbor, Michigan, 48104-1356, United States", "phone": "(734) 741-7325", "web": "http://www.grizzlypeak.net", "from_id": 1195, "to_id": 868, "walk": 3.0, "bike": 2.0, "transit": 4.0 }, "geometry": { "type": "Point", "coordinates": [ -83.749412, 42.280721 ] } },
{ "type": "Feature", "properties": { "id": 1195, "name": "Blom Meadworks", "addr": "100 S 4th Ave, Ann Arbor, Michigan, 48104, United States", "phone": "(734) 548-9729", "web": "http://www.drinkblom.com", "from_id": 1195, "to_id": 1195, "walk": 0.0, "bike": 0.0, "transit": 0.0 }, "geometry": { "type": "Point", "coordinates": [ -83.747614, 42.281099 ] } },
{ "type": "Feature", "properties": { "id": 1483, "name": "Blue Tractor Brewing Co", "addr": "207 E Washington St, Ann Arbor, Michigan, 48104-2007, United States", "phone": "(734) 222-4095", "web": null, "from_id": 1195, "to_id": 1483, "walk": 1.0, "bike": 1.0, "transit": 1.0 }, "geometry": { "type": "Point", "coordinates": [ -83.747022, 42.280582 ] } },
{ "type": "Feature", "properties": { "id": 1607, "name": "HOMES Brewery", "addr": "2321 Jackson Ave, Ann Arbor, Michigan, 48103-3814, United States", "phone": "(734) 954-6637", "web": "http://www.homesbrewery.com", "from_id": 1195, "to_id": 1607, "walk": null, "bike": 14.0, "transit": null }, "geometry": { "type": "Point", "coordinates": [ -83.778446, 42.280269 ] } },
{ "type": "Feature", "properties": { "id": 4831, "name": "Jolly Pumpkin Cafe and Brewery", "addr": "311 S Main St, Ann Arbor, Michigan, 48104-2107, United States", "phone": "(734) 913-2730", "web": "http://www.jollypumpkin.com", "from_id": 1195, "to_id": 4831, "walk": 4.0, "bike": 2.0, "transit": 5.0 }, "geometry": { "type": "Point", "coordinates": [ -83.748247, 42.279149 ] } },
{ "type": "Feature", "properties": { "id": 10959, "name": "Biercamp", "addr": "1643 S State St, Ann Arbor, Michigan, 48104-4302, United States", "phone": "(734) 995-2437", "web": "http://www.bier-camp.com", "from_id": 1195, "to_id": 10959, "walk": null, "bike": 19.0, "transit": null }, "geometry": { "type": "Point", "coordinates": [ -83.7398, 42.258421 ] } },
{ "type": "Feature", "properties": { "id": 13932, "name": "hear.say brewing", "addr": "2350 West Liberty Street, Ann Arbor, Michigan, 48103, United States", "phone": "(734) 506-8441", "web": "https://www.heardotsay.com/", "from_id": 1195, "to_id": 13932, "walk": null, "bike": 16.0, "transit": null }, "geometry": { "type": "Point", "coordinates": [ -83.779251, 42.274314 ] } },
{ "type": "Feature", "properties": { "id": 1392, "name": "CJs Brewing Co", "addr": "8115 Richardson Rd, Commerce Township, Michigan, 48390-4131, United States", "phone": "(248) 366-7979", "web": "http://www.cjsbrewingcompany.com", "from_id": 1392, "to_id": 1392, "walk": 0.0, "bike": 0.0, "transit": 0.0 }, "geometry": { "type": "Point", "coordinates": [ -83.442668, 42.576646 ] } },
{ "type": "Feature", "properties": { "id": 3237, "name": "Kickstand Brewing Company", "addr": "3050 Union Lake Rd Ste 4A, Commerce Township, Michigan, 48382-4543, United States", "phone": "(248) 301-5941", "web": "http://www.kickstandbrewingco.com", "from_id": 1392, "to_id": 3237, "walk": 23.0, "bike": 23.0, "transit": null }, "geometry": { "type": "Point", "coordinates": [ -83.447124, 42.590081 ] } },
{ "type": "Feature", "properties": { "id": 1455, "name": "Mishigama Craft Brewing / Ypsi Alehouse", "addr": "124 Pearl St Ste 100, Ypsilanti, Michigan, 48197-5374, United States", "phone": "(734) 487-1555", "web": "http://www.ypsialehouse.com", "from_id": 1455, "to_id": 1455, "walk": 0.0, "bike": 0.0, "transit": 0.0 }, "geometry": { "type": "Point", "coordinates": [ -83.614212, 42.2426 ] } },
{ "type": "Feature", "properties": { "id": 1858, "name": "734 Brewing Company", "addr": "15 E Cross St, Ypsilanti, Michigan, 48198, United States", "phone": "(734) 340-3468", "web": "https://www.734brewing.com/", "from_id": 1455, "to_id": 1858, "walk": 9.0, "bike": 4.0, "transit": 12.0 }, "geometry": { "type": "Point", "coordinates": [ -83.610358, 42.246084 ] } },
{ "type": "Feature", "properties": { "id": 9029, "name": "Arbor Brewing Company Microbrewery", "addr": "720 NORRIS ST, YPSILANTI, Michigan, 48198, United States", "phone": "(734) 480-2739", "web": null, "from_id": 1455, "to_id": 9029, "walk": 15.0, "bike": 7.0, "transit": 20.0 }, "geometry": { "type": "Point", "coordinates": [ -83.609867, 42.250156 ] } },
{ "type": "Feature", "properties": { "id": 868, "name": "Grizzly Peak Brewing Co", "addr": "120 W Washington St Ste 1, Ann Arbor, Michigan, 48104-1356, United States", "phone": "(734) 741-7325", "web": "http://www.grizzlypeak.net", "from_id": 1483, "to_id": 868, "walk": 2.0, "bike": 1.0, "transit": 3.0 }, "geometry": { "type": "Point", "coordinates": [ -83.749412, 42.280721 ] } },
{ "type": "Feature", "properties": { "id": 1195, "name": "Blom Meadworks", "addr": "100 S 4th Ave, Ann Arbor, Michigan, 48104, United States", "phone": "(734) 548-9729", "web": "http://www.drinkblom.com", "from_id": 1483, "to_id": 1195, "walk": 1.0, "bike": 1.0, "transit": 1.0 }, "geometry": { "type": "Point", "coordinates": [ -83.747614, 42.281099 ] } },
{ "type": "Feature", "properties": { "id": 1483, "name": "Blue Tractor Brewing Co", "addr": "207 E Washington St, Ann Arbor, Michigan, 48104-2007, United States", "phone": "(734) 222-4095", "web": null, "from_id": 1483, "to_id": 1483, "walk": 0.0, "bike": 0.0, "transit": 0.0 }, "geometry": { "type": "Point", "coordinates": [ -83.747022, 42.280582 ] } },
{ "type": "Feature", "properties": { "id": 1607, "name": "HOMES Brewery", "addr": "2321 Jackson Ave, Ann Arbor, Michigan, 48103-3814, United States", "phone": "(734) 954-6637", "web": "http://www.homesbrewery.com", "from_id": 1483, "to_id": 1607, "walk": null, "bike": 12.0, "transit": null }, "geometry": { "type": "Point", "coordinates": [ -83.778446, 42.280269 ] } },
{ "type": "Feature", "properties": { "id": 4831, "name": "Jolly Pumpkin Cafe and Brewery", "addr": "311 S Main St, Ann Arbor, Michigan, 48104-2107, United States", "phone": "(734) 913-2730", "web": "http://www.jollypumpkin.com", "from_id": 1483, "to_id": 4831, "walk": 3.0, "bike": 1.0, "transit": 4.0 }, "geometry": { "type": "Point", "coordinates": [ -83.748247, 42.279149 ] } },
{ "type": "Feature", "properties": { "id": 10959, "name": "Biercamp", "addr": "1643 S State St, Ann Arbor, Michigan, 48104-4302, United States", "phone": "(734) 995-2437", "web": "http://www.bier-camp.com", "from_id": 1483, "to_id": 10959, "walk": null, "bike": 17.0, "transit": null }, "geometry": { "type": "Point", "coordinates": [ -83.7398, 42.258421 ] } },
{ "type": "Feature", "properties": { "id": 13932, "name": "hear.say brewing", "addr": "2350 West Liberty Street, Ann Arbor, Michigan, 48103, United States", "phone": "(734) 506-8441", "web": "https://www.heardotsay.com/", "from_id": 1483, "to_id": 13932, "walk": null, "bike": 14.0, "transit": null }, "geometry": { "type": "Point", "coordinates": [ -83.779251, 42.274314 ] } },
{ "type": "Feature", "properties": { "id": 868, "name": "Grizzly Peak Brewing Co", "addr": "120 W Washington St Ste 1, Ann Arbor, Michigan, 48104-1356, United States", "phone": "(734) 741-7325", "web": "http://www.grizzlypeak.net", "from_id": 1607, "to_id": 868, "walk": null, "bike": 12.0, "transit": null }, "geometry": { "type": "Point", "coordinates": [ -83.749412, 42.280721 ] } },
{ "type": "Feature", "properties": { "id": 1195, "name": "Blom Meadworks", "addr": "100 S 4th Ave, Ann Arbor, Michigan, 48104, United States", "phone": "(734) 548-9729", "web": "http://www.drinkblom.com", "from_id": 1607, "to_id": 1195, "walk": null, "bike": 14.0, "transit": null }, "geometry": { "type": "Point", "coordinates": [ -83.747614, 42.281099 ] } },
{ "type": "Feature", "properties": { "id": 1483, "name": "Blue Tractor Brewing Co", "addr": "207 E Washington St, Ann Arbor, Michigan, 48104-2007, United States", "phone": "(734) 222-4095", "web": null, "from_id": 1607, "to_id": 1483, "walk": null, "bike": 12.0, "transit": null }, "geometry": { "type": "Point", "coordinates": [ -83.747022, 42.280582 ] } },
{ "type": "Feature", "properties": { "id": 1607, "name": "HOMES Brewery", "addr": "2321 Jackson Ave, Ann Arbor, Michigan, 48103-3814, United States", "phone": "(734) 954-6637", "web": "http://www.homesbrewery.com", "from_id": 1607, "to_id": 1607, "walk": 0.0, "bike": 0.0, "transit": 0.0 }, "geometry": { "type": "Point", "coordinates": [ -83.778446, 42.280269 ] } },
{ "type": "Feature", "properties": { "id": 1608, "name": "HOMES Campus", "addr": "112 Jackson Plaza, Ann Arbor, Michigan, 48103, United States", "phone": "(734) 954-6637", "web": null, "from_id": 1607, "to_id": 1608, "walk": 29.0, "bike": 21.0, "transit": null }, "geometry": { "type": "Point", "coordinates": [ -83.803082, 42.282992 ] } },
{ "type": "Feature", "properties": { "id": 4831, "name": "Jolly Pumpkin Cafe and Brewery", "addr": "311 S Main St, Ann Arbor, Michigan, 48104-2107, United States", "phone": "(734) 913-2730", "web": "http://www.jollypumpkin.com", "from_id": 1607, "to_id": 4831, "walk": null, "bike": 13.0, "transit": null }, "geometry": { "type": "Point", "coordinates": [ -83.748247, 42.279149 ] } },
{ "type": "Feature", "properties": { "id": 10959, "name": "Biercamp", "addr": "1643 S State St, Ann Arbor, Michigan, 48104-4302, United States", "phone": "(734) 995-2437", "web": "http://www.bier-camp.com", "from_id": 1607, "to_id": 10959, "walk": null, "bike": 29.0, "transit": null }, "geometry": { "type": "Point", "coordinates": [ -83.7398, 42.258421 ] } },
{ "type": "Feature", "properties": { "id": 13932, "name": "hear.say brewing", "addr": "2350 West Liberty Street, Ann Arbor, Michigan, 48103, United States", "phone": "(734) 506-8441", "web": "https://www.heardotsay.com/", "from_id": 1607, "to_id": 13932, "walk": 10.0, "bike": 3.0, "transit": 14.0 }, "geometry": { "type": "Point", "coordinates": [ -83.779251, 42.274314 ] } },
{ "type": "Feature", "properties": { "id": 1607, "name": "HOMES Brewery", "addr": "2321 Jackson Ave, Ann Arbor, Michigan, 48103-3814, United States", "phone": "(734) 954-6637", "web": "http://www.homesbrewery.com", "from_id": 1608, "to_id": 1607, "walk": 29.0, "bike": 21.0, "transit": null }, "geometry": { "type": "Point", "coordinates": [ -83.778446, 42.280269 ] } },
{ "type": "Feature", "properties": { "id": 1608, "name": "HOMES Campus", "addr": "112 Jackson Plaza, Ann Arbor, Michigan, 48103, United States", "phone": "(734) 954-6637", "web": null, "from_id": 1608, "to_id": 1608, "walk": 0.0, "bike": 0.0, "transit": 0.0 }, "geometry": { "type": "Point", "coordinates": [ -83.803082, 42.282992 ] } },
{ "type": "Feature", "properties": { "id": 13932, "name": "hear.say brewing", "addr": "2350 West Liberty Street, Ann Arbor, Michigan, 48103, United States", "phone": "(734) 506-8441", "web": "https://www.heardotsay.com/", "from_id": 1608, "to_id": 13932, "walk": null, "bike": 18.0, "transit": null }, "geometry": { "type": "Point", "coordinates": [ -83.779251, 42.274314 ] } },
{ "type": "Feature", "properties": { "id": 886, "name": "Nain Rouge Brewery", "addr": "666 Selden St, Detroit, Michigan, 48201, United States", "phone": "(313) 638-1695", "web": "http://www.nainrougebrewery.com", "from_id": 1629, "to_id": 886, "walk": null, "bike": 13.0, "transit": null }, "geometry": { "type": "Point", "coordinates": [ -83.0659, 42.347382 ] } },
{ "type": "Feature", "properties": { "id": 1629, "name": "American Badass Beer", "addr": "1401 Abbott St, Detroit, Michigan, 48216-1946, United States", "phone": null, "web": "http://www.americanbadassbeer.com", "from_id": 1629, "to_id": 1629, "walk": 0.0, "bike": 0.0, "transit": 0.0 }, "geometry": { "type": "Point", "coordinates": [ -83.062027, 42.327601 ] } },
{ "type": "Feature", "properties": { "id": 3387, "name": "Motor City Brewing Works", "addr": "470 W Canfield St, Detroit, Michigan, 48201-1220, United States", "phone": "(313) 832-2700", "web": "http://www.motorcitybeer.com", "from_id": 1629, "to_id": 3387, "walk": null, "bike": 15.0, "transit": null }, "geometry": { "type": "Point", "coordinates": [ -83.066023, 42.351793 ] } },
{ "type": "Feature", "properties": { "id": 3388, "name": "Motor City Brewing Works Warehouse", "addr": "441 W Canfield St, Detroit, Michigan, 48201-1231, United States", "phone": null, "web": null, "from_id": 1629, "to_id": 3388, "walk": null, "bike": 15.0, "transit": null }, "geometry": { "type": "Point", "coordinates": [ -83.065278, 42.350998 ] } },
{ "type": "Feature", "properties": { "id": 3687, "name": "Detroit Beer Co", "addr": "1529 Broadway St Ste 100, Detroit, Michigan, 48226-2141, United States", "phone": "(313) 962-1529", "web": "http://www.detroitbeerco.com", "from_id": 1629, "to_id": 3687, "walk": 22.0, "bike": 15.0, "transit": 29.0 }, "geometry": { "type": "Point", "coordinates": [ -83.04892, 42.335813 ] } },
{ "type": "Feature", "properties": { "id": 6051, "name": "Lagerhaus No. 5", "addr": "1529 Adelaide St, Detroit, Michigan, 48207, United States", "phone": null, "web": null, "from_id": 1629, "to_id": 6051, "walk": null, "bike": 24.0, "transit": null }, "geometry": { "type": "Point", "coordinates": [ -83.038527, 42.347591 ] } },
{ "type": "Feature", "properties": { "id": 6738, "name": "Brewery Faisan", "addr": "1087 Beaufait, Detroit, Michigan, 48207, United States", "phone": "(313) 290-2987", "web": "http://www.breweryfaisan.com", "from_id": 1629, "to_id": 6738, "walk": null, "bike": 23.0, "transit": null }, "geometry": { "type": "Point", "coordinates": [ -83.010676, 42.348884 ] } },
{ "type": "Feature", "properties": { "id": 7506, "name": "Batch Brewing Co - Funk Room", "addr": "2841 E Grand Blvd, Detroit, Michigan, 48216-1934, United States", "phone": "(313) 338-8008", "web": null, "from_id": 1629, "to_id": 7506, "walk": null, "bike": 29.0, "transit": null }, "geometry": { "type": "Point", "coordinates": [ -83.064092, 42.373249 ] } },
{ "type": "Feature", "properties": { "id": 7507, "name": "Batch Brewing Company", "addr": "1400 Porter St, Detroit, Michigan, 48216-1934, United States", "phone": "(313) 338-8008", "web": "http://www.BatchBrewingCompany.com", "from_id": 1629, "to_id": 7507, "walk": 5.0, "bike": 1.0, "transit": 6.0 }, "geometry": { "type": "Point", "coordinates": [ -83.063389, 42.32852 ] } },
{ "type": "Feature", "properties": { "id": 8718, "name": "Atwater Brewing Co", "addr": "237 Joseph Campau St, Detroit, Michigan, 48207-4107, United States", "phone": "(313) 877-9205", "web": "http://www.atwaterbeer.com", "from_id": 1629, "to_id": 8718, "walk": null, "bike": 17.0, "transit": null }, "geometry": { "type": "Point", "coordinates": [ -83.018658, 42.337145 ] } },
{ "type": "Feature", "properties": { "id": 9226, "name": "Eastern Market Brewing Co", "addr": "2515 Riopelle St, Detroit, Michigan, 48207-4526, United States", "phone": null, "web": "http://www.easternmarket.beer", "from_id": 1629, "to_id": 9226, "walk": null, "bike": 24.0, "transit": null }, "geometry": { "type": "Point", "coordinates": [ -83.038884, 42.346674 ] } },
{ "type": "Feature", "properties": { "id": 11235, "name": "FUL Beverage", "addr": "2711 E Jefferson Ave, Detroit, Michigan, 48207, United States", "phone": null, "web": "http://www.fulbeverage.com", "from_id": 1629, "to_id": 11235, "walk": null, "bike": 18.0, "transit": null }, "geometry": { "type": "Point", "coordinates": [ -83.020956, 42.339364 ] } },
{ "type": "Feature", "properties": { "id": 1455, "name": "Mishigama Craft Brewing / Ypsi Alehouse", "addr": "124 Pearl St Ste 100, Ypsilanti, Michigan, 48197-5374, United States", "phone": "(734) 487-1555", "web": "http://www.ypsialehouse.com", "from_id": 1858, "to_id": 1455, "walk": 9.0, "bike": 4.0, "transit": 12.0 }, "geometry": { "type": "Point", "coordinates": [ -83.614212, 42.2426 ] } },
{ "type": "Feature", "properties": { "id": 1858, "name": "734 Brewing Company", "addr": "15 E Cross St, Ypsilanti, Michigan, 48198, United States", "phone": "(734) 340-3468", "web": "https://www.734brewing.com/", "from_id": 1858, "to_id": 1858, "walk": 0.0, "bike": 0.0, "transit": 0.0 }, "geometry": { "type": "Point", "coordinates": [ -83.610358, 42.246084 ] } },
{ "type": "Feature", "properties": { "id": 9029, "name": "Arbor Brewing Company Microbrewery", "addr": "720 NORRIS ST, YPSILANTI, Michigan, 48198, United States", "phone": "(734) 480-2739", "web": null, "from_id": 1858, "to_id": 9029, "walk": 8.0, "bike": 3.0, "transit": 11.0 }, "geometry": { "type": "Point", "coordinates": [ -83.609867, 42.250156 ] } },
{ "type": "Feature", "properties": { "id": 1042, "name": "BJs Chicago Pizza & Brewery, Inc.", "addr": "19470 Haggerty Rd, Livonia, Michigan, 48152, United States", "phone": "(714) 500-2400", "web": null, "from_id": 2071, "to_id": 1042, "walk": 21.0, "bike": 7.0, "transit": 29.0 }, "geometry": { "type": "Point", "coordinates": [ -83.432998, 42.427712 ] } },
{ "type": "Feature", "properties": { "id": 2071, "name": "Schoolcraft Brewery", "addr": "18600 Haggerty Rd, Livonia, Michigan, 48152-3932, United States", "phone": "(734) 462-7659", "web": "http://www.schoolcraft.edu", "from_id": 2071, "to_id": 2071, "walk": 0.0, "bike": 0.0, "transit": 0.0 }, "geometry": { "type": "Point", "coordinates": [ -83.428418, 42.415642 ] } },
{ "type": "Feature", "properties": { "id": 2480, "name": "Great White Buffalo Brewing Company", "addr": "101 West Main Street, Northville, Michigan, 48167, United States", "phone": "2489242607", "web": "https://greatwhitebuffalobrewingco.com/", "from_id": 2071, "to_id": 2480, "walk": null, "bike": 27.0, "transit": null }, "geometry": { "type": "Point", "coordinates": [ -83.483359, 42.430933 ] } },
{ "type": "Feature", "properties": { "id": 3804, "name": "Granite City Food & Brewery (#32)", "addr": "39603 Traditions Dr, Northville, Michigan, 48168-9496, United States", "phone": "(248) 662-3400", "web": "http://www.gcfb.net", "from_id": 2071, "to_id": 3804, "walk": 17.0, "bike": 7.0, "transit": 23.0 }, "geometry": { "type": "Point", "coordinates": [ -83.435892, 42.422784 ] } },
{ "type": "Feature", "properties": { "id": 6774, "name": "Bearded Lamb Brewing Company", "addr": "149 W Liberty St Ste 1, Plymouth, Michigan, 48170-8001, United States", "phone": "7342079600", "web": "https://beardedlamb.com/", "from_id": 2071, "to_id": 6774, "walk": null, "bike": 29.0, "transit": null }, "geometry": { "type": "Point", "coordinates": [ -83.461226, 42.379135 ] } },
{ "type": "Feature", "properties": { "id": 2138, "name": "Draught Horse Brewery", "addr": "57721 Grand River Ave, New Hudson, Michigan, 48165-8542, United States", "phone": "(248) 617-3000", "web": "http://www.draughthorsebrewery.com", "from_id": 2138, "to_id": 2138, "walk": 0.0, "bike": 0.0, "transit": 0.0 }, "geometry": { "type": "Point", "coordinates": [ -83.623381, 42.512733 ] } },
{ "type": "Feature", "properties": { "id": 2175, "name": "Witch's Hat Brewing Co.", "addr": "601 S Lafayette St, South Lyon, Michigan, 48178-1453, United States", "phone": "(248) 486-2595", "web": "http://www.witchshatbrewing.com", "from_id": 2175, "to_id": 2175, "walk": 0.0, "bike": 0.0, "transit": 0.0 }, "geometry": { "type": "Point", "coordinates": [ -83.650416, 42.454633 ] } },
{ "type": "Feature", "properties": { "id": 2071, "name": "Schoolcraft Brewery", "addr": "18600 Haggerty Rd, Livonia, Michigan, 48152-3932, United States", "phone": "(734) 462-7659", "web": "http://www.schoolcraft.edu", "from_id": 2480, "to_id": 2071, "walk": null, "bike": 28.0, "transit": null }, "geometry": { "type": "Point", "coordinates": [ -83.428418, 42.415642 ] } },
{ "type": "Feature", "properties": { "id": 2480, "name": "Great White Buffalo Brewing Company", "addr": "101 West Main Street, Northville, Michigan, 48167, United States", "phone": "2489242607", "web": "https://greatwhitebuffalobrewingco.com/", "from_id": 2480, "to_id": 2480, "walk": 0.0, "bike": 0.0, "transit": 0.0 }, "geometry": { "type": "Point", "coordinates": [ -83.483359, 42.430933 ] } },
{ "type": "Feature", "properties": { "id": 6235, "name": "Northville Winery and Brewery", "addr": "630 Old Baseline Rd, Northville, Michigan, 48167, United States", "phone": "(248) 320-6507", "web": "https://www.thenorthvillewinery.com/", "from_id": 2480, "to_id": 6235, "walk": 16.0, "bike": 5.0, "transit": 22.0 }, "geometry": { "type": "Point", "coordinates": [ -83.4938, 42.4366 ] } },
{ "type": "Feature", "properties": { "id": 712, "name": "Unexpected Craft Brewing Company", "addr": "14401 W. 11 Mile Road, Oak Park, Michigan, 48237, United States", "phone": "(248) 802-0555", "web": "http://www.unexpectedcraft.com", "from_id": 2590, "to_id": 712, "walk": null, "bike": 30.0, "transit": null }, "geometry": { "type": "Point", "coordinates": [ -83.190374, 42.488451 ] } },
{ "type": "Feature", "properties": { "id": 2590, "name": "Woodward Avenue Brewers", "addr": "22646 Woodward Ave, Ferndale, Michigan, 48220-1810, United States", "phone": "(248) 546-3696", "web": "http://www.thewabsite.com", "from_id": 2590, "to_id": 2590, "walk": 0.0, "bike": 0.0, "transit": 0.0 }, "geometry": { "type": "Point", "coordinates": [ -83.133345, 42.459434 ] } },
{ "type": "Feature", "properties": { "id": 4564, "name": "The Royal Oak Brewery", "addr": "215 E 4th St, Royal Oak, Michigan, 48067-2606, United States", "phone": "(248) 544-1141", "web": "http://www.royaloakbrewery.com", "from_id": 2590, "to_id": 4564, "walk": null, "bike": 15.0, "transit": null }, "geometry": { "type": "Point", "coordinates": [ -83.142396, 42.487456 ] } },
{ "type": "Feature", "properties": { "id": 5281, "name": "Urbanrest Brewing Company", "addr": "2615 Wolcott St, Ferndale, Michigan, 48220-1422, United States", "phone": null, "web": "http://www.urbanrest.com", "from_id": 2590, "to_id": 5281, "walk": 19.0, "bike": 6.0, "transit": 26.0 }, "geometry": { "type": "Point", "coordinates": [ -83.127881, 42.467959 ] } },
{ "type": "Feature", "properties": { "id": 7307, "name": "Lily's Seafood Grill and Brewery", "addr": "410 S Washington Ave, Royal Oak, Michigan, 48067-3824, United States", "phone": "(248) 591-5459", "web": "http://www.lilysseafood.com", "from_id": 2590, "to_id": 7307, "walk": null, "bike": 16.0, "transit": null }, "geometry": { "type": "Point", "coordinates": [ -83.146761, 42.487097 ] } },
{ "type": "Feature", "properties": { "id": 9067, "name": "B. Nektar Meadery", "addr": "1511 Jarvis St, Ferndale, Michigan, 48220-2025, United States", "phone": "(313) 744-6323", "web": "http://www.bnektar.com", "from_id": 2590, "to_id": 9067, "walk": 26.0, "bike": 11.0, "transit": null }, "geometry": { "type": "Point", "coordinates": [ -83.113536, 42.456896 ] } },
{ "type": "Feature", "properties": { "id": 9227, "name": "Eastern Market Brewing Co Production", "addr": "330 E Lincoln Ave, Royal Oak, Michigan, 48067, United States", "phone": null, "web": null, "from_id": 2590, "to_id": 9227, "walk": null, "bike": 13.0, "transit": null }, "geometry": { "type": "Point", "coordinates": [ -83.141438, 42.483346 ] } },
{ "type": "Feature", "properties": { "id": 9228, "name": "Eastern Market Brewing Company - Ferndale Project", "addr": "567 Livernois, Ferndale, Michigan, 48220, United States", "phone": "(248) 556-5512", "web": "http://www.ferndaleproject.com", "from_id": 2590, "to_id": 9228, "walk": 22.0, "bike": 9.0, "transit": 30.0 }, "geometry": { "type": "Point", "coordinates": [ -83.142987, 42.450571 ] } },
{ "type": "Feature", "properties": { "id": 9643, "name": "Cadillac Straits Brewing Company", "addr": "27651 John R Rd, Madison Heights, Michigan, 48071-3364, United States", "phone": "(248) 850-7673", "web": "https://cadillacstraits.com", "from_id": 2590, "to_id": 9643, "walk": null, "bike": 25.0, "transit": null }, "geometry": { "type": "Point", "coordinates": [ -83.106116, 42.494933 ] } },
{ "type": "Feature", "properties": { "id": 9789, "name": "Stumblebum Beer Co", "addr": "947 Vester St, Ferndale, Michigan, 48220-1932, United States", "phone": "(248) 765-6015", "web": "https://www.stumblebumbeer.com/", "from_id": 2590, "to_id": 9789, "walk": 14.0, "bike": 6.0, "transit": 19.0 }, "geometry": { "type": "Point", "coordinates": [ -83.122019, 42.461803 ] } },
{ "type": "Feature", "properties": { "id": 10265, "name": "River Rouge Brewing Company", "addr": "14401 W. Eleven Mile Road, Oak Park, Michigan, 48237, United States", "phone": "(248) 802-0555", "web": "http://www.unexpectedcraft.com", "from_id": 2590, "to_id": 10265, "walk": null, "bike": 30.0, "transit": null }, "geometry": { "type": "Point", "coordinates": [ -83.190374, 42.488451 ] } },
{ "type": "Feature", "properties": { "id": 12997, "name": "Elephant & Co", "addr": "330 East Lincoln Avenue, Royal Oak, Michigan, 48067, United States", "phone": null, "web": null, "from_id": 2590, "to_id": 12997, "walk": null, "bike": 13.0, "transit": null }, "geometry": { "type": "Point", "coordinates": [ -83.141438, 42.483346 ] } },
{ "type": "Feature", "properties": { "id": 2662, "name": "Brown Iron Brewhouse", "addr": "57695 Van Dyke Avenue, Washington, Michigan, 48094, United States", "phone": "(586) 697-3300", "web": "http://www.browniron.com", "from_id": 2662, "to_id": 2662, "walk": 0.0, "bike": 0.0, "transit": 0.0 }, "geometry": { "type": "Point", "coordinates": [ -83.035865, 42.718638 ] } },
{ "type": "Feature", "properties": { "id": 1392, "name": "CJs Brewing Co", "addr": "8115 Richardson Rd, Commerce Township, Michigan, 48390-4131, United States", "phone": "(248) 366-7979", "web": "http://www.cjsbrewingcompany.com", "from_id": 3237, "to_id": 1392, "walk": 23.0, "bike": 23.0, "transit": null }, "geometry": { "type": "Point", "coordinates": [ -83.442668, 42.576646 ] } },
{ "type": "Feature", "properties": { "id": 3237, "name": "Kickstand Brewing Company", "addr": "3050 Union Lake Rd Ste 4A, Commerce Township, Michigan, 48382-4543, United States", "phone": "(248) 301-5941", "web": "http://www.kickstandbrewingco.com", "from_id": 3237, "to_id": 3237, "walk": 0.0, "bike": 0.0, "transit": 0.0 }, "geometry": { "type": "Point", "coordinates": [ -83.447124, 42.590081 ] } },
{ "type": "Feature", "properties": { "id": 3304, "name": "Rustic Leaf Brewing Company", "addr": "7200 Highland Rd, Waterford, Michigan, 48327-1506, United States", "phone": "(248) 599-9933", "web": "http://www.rusticleafbrewingcompany.com", "from_id": 3304, "to_id": 3304, "walk": 0.0, "bike": 0.0, "transit": 0.0 }, "geometry": { "type": "Point", "coordinates": [ -83.428841, 42.66004 ] } },
{ "type": "Feature", "properties": { "id": 3343, "name": "Four Circles Brewery", "addr": "709 W Grand River Ave, Brighton, Michigan, 48116-2312, United States", "phone": "8105884665", "web": "https://fourcirclesbrewery.com/", "from_id": 3343, "to_id": 3343, "walk": 0.0, "bike": 0.0, "transit": 0.0 }, "geometry": { "type": "Point", "coordinates": [ -83.783172, 42.534965 ] } },
{ "type": "Feature", "properties": { "id": 6734, "name": "Brewery Becker", "addr": "500 W Main St, Brighton, Michigan, 48116-1471, United States", "phone": "(810) 844-0225", "web": "http://www.brauereibecker.us", "from_id": 3343, "to_id": 6734, "walk": 10.0, "bike": 4.0, "transit": 15.0 }, "geometry": { "type": "Point", "coordinates": [ -83.785416, 42.529743 ] } },
{ "type": "Feature", "properties": { "id": 13384, "name": "Grand River Brewery - Brighton", "addr": "201 West Main Street, Brighton, Michigan, 48116, United States", "phone": null, "web": null, "from_id": 3343, "to_id": 13384, "walk": 10.0, "bike": 5.0, "transit": 13.0 }, "geometry": { "type": "Point", "coordinates": [ -83.781839, 42.529226 ] } },
{ "type": "Feature", "properties": { "id": 1033, "name": "BJs Chicago Pizza & Brewery, Inc.", "addr": "14455 Lakeside Circle, Sterling Heights, Michigan, 48313, United States", "phone": "(586) 519-6250", "web": null, "from_id": 3362, "to_id": 1033, "walk": 18.0, "bike": 10.0, "transit": 25.0 }, "geometry": { "type": "Point", "coordinates": [ -82.983736, 42.626158 ] } },
{ "type": "Feature", "properties": { "id": 3362, "name": "Sherwood Brewing Co", "addr": "45689 Hayes Rd, Shelby Township, Michigan, 48315-6214, United States", "phone": "(586) 532-9669", "web": "http://www.sherwoodbrewing.com", "from_id": 3362, "to_id": 3362, "walk": 0.0, "bike": 0.0, "transit": 0.0 }, "geometry": { "type": "Point", "coordinates": [ -82.973683, 42.632507 ] } },
{ "type": "Feature", "properties": { "id": 886, "name": "Nain Rouge Brewery", "addr": "666 Selden St, Detroit, Michigan, 48201, United States", "phone": "(313) 638-1695", "web": "http://www.nainrougebrewery.com", "from_id": 3387, "to_id": 886, "walk": 8.0, "bike": 2.0, "transit": 11.0 }, "geometry": { "type": "Point", "coordinates": [ -83.0659, 42.347382 ] } },
{ "type": "Feature", "properties": { "id": 1629, "name": "American Badass Beer", "addr": "1401 Abbott St, Detroit, Michigan, 48216-1946, United States", "phone": null, "web": "http://www.americanbadassbeer.com", "from_id": 3387, "to_id": 1629, "walk": null, "bike": 15.0, "transit": null }, "geometry": { "type": "Point", "coordinates": [ -83.062027, 42.327601 ] } },
{ "type": "Feature", "properties": { "id": 3387, "name": "Motor City Brewing Works", "addr": "470 W Canfield St, Detroit, Michigan, 48201-1220, United States", "phone": "(313) 832-2700", "web": "http://www.motorcitybeer.com", "from_id": 3387, "to_id": 3387, "walk": 0.0, "bike": 0.0, "transit": 0.0 }, "geometry": { "type": "Point", "coordinates": [ -83.066023, 42.351793 ] } },
{ "type": "Feature", "properties": { "id": 3388, "name": "Motor City Brewing Works Warehouse", "addr": "441 W Canfield St, Detroit, Michigan, 48201-1231, United States", "phone": null, "web": null, "from_id": 3387, "to_id": 3388, "walk": 3.0, "bike": 1.0, "transit": 5.0 }, "geometry": { "type": "Point", "coordinates": [ -83.065278, 42.350998 ] } },
{ "type": "Feature", "properties": { "id": 3687, "name": "Detroit Beer Co", "addr": "1529 Broadway St Ste 100, Detroit, Michigan, 48226-2141, United States", "phone": "(313) 962-1529", "web": "http://www.detroitbeerco.com", "from_id": 3387, "to_id": 3687, "walk": null, "bike": 15.0, "transit": 29.0 }, "geometry": { "type": "Point", "coordinates": [ -83.04892, 42.335813 ] } },
{ "type": "Feature", "properties": { "id": 6051, "name": "Lagerhaus No. 5", "addr": "1529 Adelaide St, Detroit, Michigan, 48207, United States", "phone": null, "web": null, "from_id": 3387, "to_id": 6051, "walk": null, "bike": 13.0, "transit": null }, "geometry": { "type": "Point", "coordinates": [ -83.038527, 42.347591 ] } },
{ "type": "Feature", "properties": { "id": 6738, "name": "Brewery Faisan", "addr": "1087 Beaufait, Detroit, Michigan, 48207, United States", "phone": "(313) 290-2987", "web": "http://www.breweryfaisan.com", "from_id": 3387, "to_id": 6738, "walk": null, "bike": 25.0, "transit": null }, "geometry": { "type": "Point", "coordinates": [ -83.010676, 42.348884 ] } },
{ "type": "Feature", "properties": { "id": 7506, "name": "Batch Brewing Co - Funk Room", "addr": "2841 E Grand Blvd, Detroit, Michigan, 48216-1934, United States", "phone": "(313) 338-8008", "web": null, "from_id": 3387, "to_id": 7506, "walk": null, "bike": 14.0, "transit": null }, "geometry": { "type": "Point", "coordinates": [ -83.064092, 42.373249 ] } },
{ "type": "Feature", "properties": { "id": 7507, "name": "Batch Brewing Company", "addr": "1400 Porter St, Detroit, Michigan, 48216-1934, United States", "phone": "(313) 338-8008", "web": "http://www.BatchBrewingCompany.com", "from_id": 3387, "to_id": 7507, "walk": null, "bike": 14.0, "transit": null }, "geometry": { "type": "Point", "coordinates": [ -83.063389, 42.32852 ] } },
{ "type": "Feature", "properties": { "id": 8718, "name": "Atwater Brewing Co", "addr": "237 Joseph Campau St, Detroit, Michigan, 48207-4107, United States", "phone": "(313) 877-9205", "web": "http://www.atwaterbeer.com", "from_id": 3387, "to_id": 8718, "walk": null, "bike": 23.0, "transit": null }, "geometry": { "type": "Point", "coordinates": [ -83.018658, 42.337145 ] } },
{ "type": "Feature", "properties": { "id": 9226, "name": "Eastern Market Brewing Co", "addr": "2515 Riopelle St, Detroit, Michigan, 48207-4526, United States", "phone": null, "web": "http://www.easternmarket.beer", "from_id": 3387, "to_id": 9226, "walk": null, "bike": 14.0, "transit": null }, "geometry": { "type": "Point", "coordinates": [ -83.038884, 42.346674 ] } },
{ "type": "Feature", "properties": { "id": 11235, "name": "FUL Beverage", "addr": "2711 E Jefferson Ave, Detroit, Michigan, 48207, United States", "phone": null, "web": "http://www.fulbeverage.com", "from_id": 3387, "to_id": 11235, "walk": null, "bike": 24.0, "transit": null }, "geometry": { "type": "Point", "coordinates": [ -83.020956, 42.339364 ] } },
{ "type": "Feature", "properties": { "id": 13797, "name": "Florian East", "addr": "9350 Joseph Campau Avenue, Hamtramck, Michigan, 48212, United States", "phone": null, "web": "http://www.florianeasthamtramck.com", "from_id": 3387, "to_id": 13797, "walk": null, "bike": 28.0, "transit": null }, "geometry": { "type": "Point", "coordinates": [ -83.056089, 42.394488 ] } },
{ "type": "Feature", "properties": { "id": 886, "name": "Nain Rouge Brewery", "addr": "666 Selden St, Detroit, Michigan, 48201, United States", "phone": "(313) 638-1695", "web": "http://www.nainrougebrewery.com", "from_id": 3388, "to_id": 886, "walk": 8.0, "bike": 3.0, "transit": 12.0 }, "geometry": { "type": "Point", "coordinates": [ -83.0659, 42.347382 ] } },
{ "type": "Feature", "properties": { "id": 1629, "name": "American Badass Beer", "addr": "1401 Abbott St, Detroit, Michigan, 48216-1946, United States", "phone": null, "web": "http://www.americanbadassbeer.com", "from_id": 3388, "to_id": 1629, "walk": null, "bike": 15.0, "transit": null }, "geometry": { "type": "Point", "coordinates": [ -83.062027, 42.327601 ] } },
{ "type": "Feature", "properties": { "id": 3387, "name": "Motor City Brewing Works", "addr": "470 W Canfield St, Detroit, Michigan, 48201-1220, United States", "phone": "(313) 832-2700", "web": "http://www.motorcitybeer.com", "from_id": 3388, "to_id": 3387, "walk": 3.0, "bike": 1.0, "transit": 5.0 }, "geometry": { "type": "Point", "coordinates": [ -83.066023, 42.351793 ] } },
{ "type": "Feature", "properties": { "id": 3388, "name": "Motor City Brewing Works Warehouse", "addr": "441 W Canfield St, Detroit, Michigan, 48201-1231, United States", "phone": null, "web": null, "from_id": 3388, "to_id": 3388, "walk": 0.0, "bike": 0.0, "transit": 0.0 }, "geometry": { "type": "Point", "coordinates": [ -83.065278, 42.350998 ] } },
{ "type": "Feature", "properties": { "id": 3687, "name": "Detroit Beer Co", "addr": "1529 Broadway St Ste 100, Detroit, Michigan, 48226-2141, United States", "phone": "(313) 962-1529", "web": "http://www.detroitbeerco.com", "from_id": 3388, "to_id": 3687, "walk": null, "bike": 15.0, "transit": 30.0 }, "geometry": { "type": "Point", "coordinates": [ -83.04892, 42.335813 ] } },
{ "type": "Feature", "properties": { "id": 6051, "name": "Lagerhaus No. 5", "addr": "1529 Adelaide St, Detroit, Michigan, 48207, United States", "phone": null, "web": null, "from_id": 3388, "to_id": 6051, "walk": null, "bike": 14.0, "transit": null }, "geometry": { "type": "Point", "coordinates": [ -83.038527, 42.347591 ] } },
{ "type": "Feature", "properties": { "id": 6738, "name": "Brewery Faisan", "addr": "1087 Beaufait, Detroit, Michigan, 48207, United States", "phone": "(313) 290-2987", "web": "http://www.breweryfaisan.com", "from_id": 3388, "to_id": 6738, "walk": null, "bike": 25.0, "transit": null }, "geometry": { "type": "Point", "coordinates": [ -83.010676, 42.348884 ] } },
{ "type": "Feature", "properties": { "id": 7506, "name": "Batch Brewing Co - Funk Room", "addr": "2841 E Grand Blvd, Detroit, Michigan, 48216-1934, United States", "phone": "(313) 338-8008", "web": null, "from_id": 3388, "to_id": 7506, "walk": null, "bike": 15.0, "transit": null }, "geometry": { "type": "Point", "coordinates": [ -83.064092, 42.373249 ] } },
{ "type": "Feature", "properties": { "id": 7507, "name": "Batch Brewing Company", "addr": "1400 Porter St, Detroit, Michigan, 48216-1934, United States", "phone": "(313) 338-8008", "web": "http://www.BatchBrewingCompany.com", "from_id": 3388, "to_id": 7507, "walk": null, "bike": 15.0, "transit": null }, "geometry": { "type": "Point", "coordinates": [ -83.063389, 42.32852 ] } },
{ "type": "Feature", "properties": { "id": 8718, "name": "Atwater Brewing Co", "addr": "237 Joseph Campau St, Detroit, Michigan, 48207-4107, United States", "phone": "(313) 877-9205", "web": "http://www.atwaterbeer.com", "from_id": 3388, "to_id": 8718, "walk": null, "bike": 23.0, "transit": null }, "geometry": { "type": "Point", "coordinates": [ -83.018658, 42.337145 ] } },
{ "type": "Feature", "properties": { "id": 9226, "name": "Eastern Market Brewing Co", "addr": "2515 Riopelle St, Detroit, Michigan, 48207-4526, United States", "phone": null, "web": "http://www.easternmarket.beer", "from_id": 3388, "to_id": 9226, "walk": null, "bike": 14.0, "transit": null }, "geometry": { "type": "Point", "coordinates": [ -83.038884, 42.346674 ] } },
{ "type": "Feature", "properties": { "id": 11235, "name": "FUL Beverage", "addr": "2711 E Jefferson Ave, Detroit, Michigan, 48207, United States", "phone": null, "web": "http://www.fulbeverage.com", "from_id": 3388, "to_id": 11235, "walk": null, "bike": 24.0, "transit": null }, "geometry": { "type": "Point", "coordinates": [ -83.020956, 42.339364 ] } },
{ "type": "Feature", "properties": { "id": 13797, "name": "Florian East", "addr": "9350 Joseph Campau Avenue, Hamtramck, Michigan, 48212, United States", "phone": null, "web": "http://www.florianeasthamtramck.com", "from_id": 3388, "to_id": 13797, "walk": null, "bike": 29.0, "transit": null }, "geometry": { "type": "Point", "coordinates": [ -83.056089, 42.394488 ] } },
{ "type": "Feature", "properties": { "id": 3429, "name": "Hartland Brewing Company", "addr": "1836 Old US 23, Howell, Michigan, 48843, United States", "phone": "(810) 746-9141", "web": "http://www.hartlandbrewco.com", "from_id": 3429, "to_id": 3429, "walk": 0.0, "bike": 0.0, "transit": 0.0 }, "geometry": { "type": "Point", "coordinates": [ -83.752719, 42.631511 ] } },
{ "type": "Feature", "properties": { "id": 3519, "name": "Copper Hop Brewing Company", "addr": "23401 Greater Mack Ave, Saint Clair Shores, Michigan, 48080-3426, United States", "phone": "(586) 944-7282", "web": "http://www.thecopperhop.com", "from_id": 3519, "to_id": 3519, "walk": 0.0, "bike": 0.0, "transit": 0.0 }, "geometry": { "type": "Point", "coordinates": [ -82.898501, 42.465736 ] } },
{ "type": "Feature", "properties": { "id": 12737, "name": "Someday Brewing", "addr": "20746 Mack Ave, Grosse Pointe Woods, Michigan, 48236-1436, United States", "phone": "(313) 220-3910", "web": "http://somedaybrewing.com", "from_id": 3519, "to_id": 12737, "walk": 30.0, "bike": 13.0, "transit": null }, "geometry": { "type": "Point", "coordinates": [ -82.906448, 42.444474 ] } },
{ "type": "Feature", "properties": { "id": 886, "name": "Nain Rouge Brewery", "addr": "666 Selden St, Detroit, Michigan, 48201, United States", "phone": "(313) 638-1695", "web": "http://www.nainrougebrewery.com", "from_id": 3687, "to_id": 886, "walk": 29.0, "bike": 13.0, "transit": 29.0 }, "geometry": { "type": "Point", "coordinates": [ -83.0659, 42.347382 ] } },
{ "type": "Feature", "properties": { "id": 1629, "name": "American Badass Beer", "addr": "1401 Abbott St, Detroit, Michigan, 48216-1946, United States", "phone": null, "web": "http://www.americanbadassbeer.com", "from_id": 3687, "to_id": 1629, "walk": 22.0, "bike": 14.0, "transit": 29.0 }, "geometry": { "type": "Point", "coordinates": [ -83.062027, 42.327601 ] } },
{ "type": "Feature", "properties": { "id": 3387, "name": "Motor City Brewing Works", "addr": "470 W Canfield St, Detroit, Michigan, 48201-1220, United States", "phone": "(313) 832-2700", "web": "http://www.motorcitybeer.com", "from_id": 3687, "to_id": 3387, "walk": null, "bike": 15.0, "transit": 27.0 }, "geometry": { "type": "Point", "coordinates": [ -83.066023, 42.351793 ] } },
{ "type": "Feature", "properties": { "id": 3388, "name": "Motor City Brewing Works Warehouse", "addr": "441 W Canfield St, Detroit, Michigan, 48201-1231, United States", "phone": null, "web": null, "from_id": 3687, "to_id": 3388, "walk": null, "bike": 15.0, "transit": 27.0 }, "geometry": { "type": "Point", "coordinates": [ -83.065278, 42.350998 ] } },
{ "type": "Feature", "properties": { "id": 3687, "name": "Detroit Beer Co", "addr": "1529 Broadway St Ste 100, Detroit, Michigan, 48226-2141, United States", "phone": "(313) 962-1529", "web": "http://www.detroitbeerco.com", "from_id": 3687, "to_id": 3687, "walk": 0.0, "bike": 0.0, "transit": 0.0 }, "geometry": { "type": "Point", "coordinates": [ -83.04892, 42.335813 ] } },
{ "type": "Feature", "properties": { "id": 6051, "name": "Lagerhaus No. 5", "addr": "1529 Adelaide St, Detroit, Michigan, 48207, United States", "phone": null, "web": null, "from_id": 3687, "to_id": 6051, "walk": 23.0, "bike": 21.0, "transit": null }, "geometry": { "type": "Point", "coordinates": [ -83.038527, 42.347591 ] } },
{ "type": "Feature", "properties": { "id": 6738, "name": "Brewery Faisan", "addr": "1087 Beaufait, Detroit, Michigan, 48207, United States", "phone": "(313) 290-2987", "web": "http://www.breweryfaisan.com", "from_id": 3687, "to_id": 6738, "walk": null, "bike": 22.0, "transit": null }, "geometry": { "type": "Point", "coordinates": [ -83.010676, 42.348884 ] } },
{ "type": "Feature", "properties": { "id": 7506, "name": "Batch Brewing Co - Funk Room", "addr": "2841 E Grand Blvd, Detroit, Michigan, 48216-1934, United States", "phone": "(313) 338-8008", "web": null, "from_id": 3687, "to_id": 7506, "walk": null, "bike": 29.0, "transit": null }, "geometry": { "type": "Point", "coordinates": [ -83.064092, 42.373249 ] } },
{ "type": "Feature", "properties": { "id": 7507, "name": "Batch Brewing Company", "addr": "1400 Porter St, Detroit, Michigan, 48216-1934, United States", "phone": "(313) 338-8008", "web": "http://www.BatchBrewingCompany.com", "from_id": 3687, "to_id": 7507, "walk": 22.0, "bike": 15.0, "transit": 29.0 }, "geometry": { "type": "Point", "coordinates": [ -83.063389, 42.32852 ] } },
{ "type": "Feature", "properties": { "id": 8718, "name": "Atwater Brewing Co", "addr": "237 Joseph Campau St, Detroit, Michigan, 48207-4107, United States", "phone": "(313) 877-9205", "web": "http://www.atwaterbeer.com", "from_id": 3687, "to_id": 8718, "walk": null, "bike": 16.0, "transit": null }, "geometry": { "type": "Point", "coordinates": [ -83.018658, 42.337145 ] } },
{ "type": "Feature", "properties": { "id": 9226, "name": "Eastern Market Brewing Co", "addr": "2515 Riopelle St, Detroit, Michigan, 48207-4526, United States", "phone": null, "web": "http://www.easternmarket.beer", "from_id": 3687, "to_id": 9226, "walk": 22.0, "bike": 19.0, "transit": 30.0 }, "geometry": { "type": "Point", "coordinates": [ -83.038884, 42.346674 ] } },
{ "type": "Feature", "properties": { "id": 11235, "name": "FUL Beverage", "addr": "2711 E Jefferson Ave, Detroit, Michigan, 48207, United States", "phone": null, "web": "http://www.fulbeverage.com", "from_id": 3687, "to_id": 11235, "walk": null, "bike": 16.0, "transit": null }, "geometry": { "type": "Point", "coordinates": [ -83.020956, 42.339364 ] } },
{ "type": "Feature", "properties": { "id": 851, "name": "Griffin Claw Brewing Co", "addr": "575 S Eton St, Birmingham, Michigan, 48009-6824, United States", "phone": null, "web": "http://www.griffinclawbrewingcompany.com", "from_id": 3800, "to_id": 851, "walk": null, "bike": 22.0, "transit": null }, "geometry": { "type": "Point", "coordinates": [ -83.195043, 42.543374 ] } },
{ "type": "Feature", "properties": { "id": 3800, "name": "Granite City Food & Brewery (#28)", "addr": "699 W Big Beaver Rd, Troy, Michigan, 48084-4920, United States", "phone": "(248) 519-1040", "web": "http://www.gcfb.com", "from_id": 3800, "to_id": 3800, "walk": 0.0, "bike": 0.0, "transit": 0.0 }, "geometry": { "type": "Point", "coordinates": [ -83.161073, 42.561439 ] } },
{ "type": "Feature", "properties": { "id": 11257, "name": "Kasteel USA LLC", "addr": "2701 Troy Center Dr., Ste 255, Troy, Michigan, 48084, United States", "phone": "(516) 234-6499", "web": "http://www.kasteelusa.com", "from_id": 3800, "to_id": 11257, "walk": 8.0, "bike": 4.0, "transit": 11.0 }, "geometry": { "type": "Point", "coordinates": [ -83.163967, 42.558811 ] } },
{ "type": "Feature", "properties": { "id": 13122, "name": "Grand River Brewery - Clawson", "addr": "1 East 14 Mile Road, Clawson, Michigan, 48017, United States", "phone": null, "web": null, "from_id": 3800, "to_id": 13122, "walk": null, "bike": 30.0, "transit": null }, "geometry": { "type": "Point", "coordinates": [ -83.14596, 42.533511 ] } },
{ "type": "Feature", "properties": { "id": 1042, "name": "BJs Chicago Pizza & Brewery, Inc.", "addr": "19470 Haggerty Rd, Livonia, Michigan, 48152, United States", "phone": "(714) 500-2400", "web": null, "from_id": 3804, "to_id": 1042, "walk": 9.0, "bike": 6.0, "transit": 12.0 }, "geometry": { "type": "Point", "coordinates": [ -83.432998, 42.427712 ] } },
{ "type": "Feature", "properties": { "id": 2071, "name": "Schoolcraft Brewery", "addr": "18600 Haggerty Rd, Livonia, Michigan, 48152-3932, United States", "phone": "(734) 462-7659", "web": "http://www.schoolcraft.edu", "from_id": 3804, "to_id": 2071, "walk": 17.0, "bike": 7.0, "transit": 23.0 }, "geometry": { "type": "Point", "coordinates": [ -83.428418, 42.415642 ] } },
{ "type": "Feature", "properties": { "id": 2480, "name": "Great White Buffalo Brewing Company", "addr": "101 West Main Street, Northville, Michigan, 48167, United States", "phone": "2489242607", "web": "https://greatwhitebuffalobrewingco.com/", "from_id": 3804, "to_id": 2480, "walk": null, "bike": 30.0, "transit": null }, "geometry": { "type": "Point", "coordinates": [ -83.483359, 42.430933 ] } },
{ "type": "Feature", "properties": { "id": 3804, "name": "Granite City Food & Brewery (#32)", "addr": "39603 Traditions Dr, Northville, Michigan, 48168-9496, United States", "phone": "(248) 662-3400", "web": "http://www.gcfb.net", "from_id": 3804, "to_id": 3804, "walk": 0.0, "bike": 0.0, "transit": 0.0 }, "geometry": { "type": "Point", "coordinates": [ -83.435892, 42.422784 ] } },
{ "type": "Feature", "properties": { "id": 3886, "name": "Great Baraboo Brewing Co", "addr": "35905 Utica Rd, Clinton Township, Michigan, 48035-2155, United States", "phone": "(586) 792-7397", "web": "http://www.greatbaraboo.com", "from_id": 3886, "to_id": 3886, "walk": 0.0, "bike": 0.0, "transit": 0.0 }, "geometry": { "type": "Point", "coordinates": [ -82.965711, 42.560318 ] } },
{ "type": "Feature", "properties": { "id": 620, "name": "Salt Springs Brewery", "addr": "117 S Ann Arbor St, Saline, Michigan, 48176-1320, United States", "phone": "(734) 295-9191", "web": "http://www.saltpsringsbrewery.com", "from_id": 3936, "to_id": 620, "walk": 12.0, "bike": 8.0, "transit": 16.0 }, "geometry": { "type": "Point", "coordinates": [ -83.780525, 42.165992 ] } },
{ "type": "Feature", "properties": { "id": 3936, "name": "Stony Lake Brewing Company", "addr": "447 E Michigan Ave, Saline, Michigan, 48176-1547, United States", "phone": "(734) 316-7919", "web": "http://www.stonylakebrewing.com", "from_id": 3936, "to_id": 3936, "walk": 0.0, "bike": 0.0, "transit": 0.0 }, "geometry": { "type": "Point", "coordinates": [ -83.772458, 42.170949 ] } },
{ "type": "Feature", "properties": { "id": 4080, "name": "Artisan Reserve, Inc.", "addr": "36542 Goddard Road, Romulus, Michigan, 48174, United States", "phone": "(734) 992-8331", "web": null, "from_id": 4080, "to_id": 4080, "walk": 0.0, "bike": 0.0, "transit": 0.0 }, "geometry": { "type": "Point", "coordinates": [ -83.396948, 42.222167 ] } },
{ "type": "Feature", "properties": { "id": 712, "name": "Unexpected Craft Brewing Company", "addr": "14401 W. 11 Mile Road, Oak Park, Michigan, 48237, United States", "phone": "(248) 802-0555", "web": "http://www.unexpectedcraft.com", "from_id": 4564, "to_id": 712, "walk": null, "bike": 19.0, "transit": null }, "geometry": { "type": "Point", "coordinates": [ -83.190374, 42.488451 ] } },
{ "type": "Feature", "properties": { "id": 2590, "name": "Woodward Avenue Brewers", "addr": "22646 Woodward Ave, Ferndale, Michigan, 48220-1810, United States", "phone": "(248) 546-3696", "web": "http://www.thewabsite.com", "from_id": 4564, "to_id": 2590, "walk": null, "bike": 15.0, "transit": null }, "geometry": { "type": "Point", "coordinates": [ -83.133345, 42.459434 ] } },
{ "type": "Feature", "properties": { "id": 4564, "name": "The Royal Oak Brewery", "addr": "215 E 4th St, Royal Oak, Michigan, 48067-2606, United States", "phone": "(248) 544-1141", "web": "http://www.royaloakbrewery.com", "from_id": 4564, "to_id": 4564, "walk": 0.0, "bike": 0.0, "transit": 0.0 }, "geometry": { "type": "Point", "coordinates": [ -83.142396, 42.487456 ] } },
{ "type": "Feature", "properties": { "id": 5281, "name": "Urbanrest Brewing Company", "addr": "2615 Wolcott St, Ferndale, Michigan, 48220-1422, United States", "phone": null, "web": "http://www.urbanrest.com", "from_id": 4564, "to_id": 5281, "walk": null, "bike": 11.0, "transit": null }, "geometry": { "type": "Point", "coordinates": [ -83.127881, 42.467959 ] } },
{ "type": "Feature", "properties": { "id": 7307, "name": "Lily's Seafood Grill and Brewery", "addr": "410 S Washington Ave, Royal Oak, Michigan, 48067-3824, United States", "phone": "(248) 591-5459", "web": "http://www.lilysseafood.com", "from_id": 4564, "to_id": 7307, "walk": 4.0, "bike": 1.0, "transit": 6.0 }, "geometry": { "type": "Point", "coordinates": [ -83.146761, 42.487097 ] } },
{ "type": "Feature", "properties": { "id": 8165, "name": "Dog and Pony Show Brewing", "addr": "14661 W 11 Mile Rd, Oak Park, Michigan, 48237, United States", "phone": "(248) 850-8910", "web": "http://www.dogandponyshowbrewing.com", "from_id": 4564, "to_id": 8165, "walk": null, "bike": 20.0, "transit": null }, "geometry": { "type": "Point", "coordinates": [ -83.193713, 42.488402 ] } },
{ "type": "Feature", "properties": { "id": 9067, "name": "B. Nektar Meadery", "addr": "1511 Jarvis St, Ferndale, Michigan, 48220-2025, United States", "phone": "(313) 744-6323", "web": "http://www.bnektar.com", "from_id": 4564, "to_id": 9067, "walk": null, "bike": 21.0, "transit": null }, "geometry": { "type": "Point", "coordinates": [ -83.113536, 42.456896 ] } },
{ "type": "Feature", "properties": { "id": 9227, "name": "Eastern Market Brewing Co Production", "addr": "330 E Lincoln Ave, Royal Oak, Michigan, 48067, United States", "phone": null, "web": null, "from_id": 4564, "to_id": 9227, "walk": 7.0, "bike": 2.0, "transit": 10.0 }, "geometry": { "type": "Point", "coordinates": [ -83.141438, 42.483346 ] } },
{ "type": "Feature", "properties": { "id": 9228, "name": "Eastern Market Brewing Company - Ferndale Project", "addr": "567 Livernois, Ferndale, Michigan, 48220, United States", "phone": "(248) 556-5512", "web": "http://www.ferndaleproject.com", "from_id": 4564, "to_id": 9228, "walk": null, "bike": 22.0, "transit": null }, "geometry": { "type": "Point", "coordinates": [ -83.142987, 42.450571 ] } },
{ "type": "Feature", "properties": { "id": 9643, "name": "Cadillac Straits Brewing Company", "addr": "27651 John R Rd, Madison Heights, Michigan, 48071-3364, United States", "phone": "(248) 850-7673", "web": "https://cadillacstraits.com", "from_id": 4564, "to_id": 9643, "walk": null, "bike": 16.0, "transit": null }, "geometry": { "type": "Point", "coordinates": [ -83.106116, 42.494933 ] } },
{ "type": "Feature", "properties": { "id": 9789, "name": "Stumblebum Beer Co", "addr": "947 Vester St, Ferndale, Michigan, 48220-1932, United States", "phone": "(248) 765-6015", "web": "https://www.stumblebumbeer.com/", "from_id": 4564, "to_id": 9789, "walk": null, "bike": 15.0, "transit": null }, "geometry": { "type": "Point", "coordinates": [ -83.122019, 42.461803 ] } },
{ "type": "Feature", "properties": { "id": 10265, "name": "River Rouge Brewing Company", "addr": "14401 W. Eleven Mile Road, Oak Park, Michigan, 48237, United States", "phone": "(248) 802-0555", "web": "http://www.unexpectedcraft.com", "from_id": 4564, "to_id": 10265, "walk": null, "bike": 19.0, "transit": null }, "geometry": { "type": "Point", "coordinates": [ -83.190374, 42.488451 ] } },
{ "type": "Feature", "properties": { "id": 12997, "name": "Elephant & Co", "addr": "330 East Lincoln Avenue, Royal Oak, Michigan, 48067, United States", "phone": null, "web": null, "from_id": 4564, "to_id": 12997, "walk": 7.0, "bike": 2.0, "transit": 10.0 }, "geometry": { "type": "Point", "coordinates": [ -83.141438, 42.483346 ] } },
{ "type": "Feature", "properties": { "id": 13122, "name": "Grand River Brewery - Clawson", "addr": "1 East 14 Mile Road, Clawson, Michigan, 48017, United States", "phone": null, "web": null, "from_id": 4564, "to_id": 13122, "walk": null, "bike": 26.0, "transit": null }, "geometry": { "type": "Point", "coordinates": [ -83.14596, 42.533511 ] } },
{ "type": "Feature", "properties": { "id": 868, "name": "Grizzly Peak Brewing Co", "addr": "120 W Washington St Ste 1, Ann Arbor, Michigan, 48104-1356, United States", "phone": "(734) 741-7325", "web": "http://www.grizzlypeak.net", "from_id": 4831, "to_id": 868, "walk": 3.0, "bike": 1.0, "transit": 4.0 }, "geometry": { "type": "Point", "coordinates": [ -83.749412, 42.280721 ] } },
{ "type": "Feature", "properties": { "id": 1195, "name": "Blom Meadworks", "addr": "100 S 4th Ave, Ann Arbor, Michigan, 48104, United States", "phone": "(734) 548-9729", "web": "http://www.drinkblom.com", "from_id": 4831, "to_id": 1195, "walk": 4.0, "bike": 2.0, "transit": 5.0 }, "geometry": { "type": "Point", "coordinates": [ -83.747614, 42.281099 ] } },
{ "type": "Feature", "properties": { "id": 1483, "name": "Blue Tractor Brewing Co", "addr": "207 E Washington St, Ann Arbor, Michigan, 48104-2007, United States", "phone": "(734) 222-4095", "web": null, "from_id": 4831, "to_id": 1483, "walk": 3.0, "bike": 1.0, "transit": 4.0 }, "geometry": { "type": "Point", "coordinates": [ -83.747022, 42.280582 ] } },
{ "type": "Feature", "properties": { "id": 1607, "name": "HOMES Brewery", "addr": "2321 Jackson Ave, Ann Arbor, Michigan, 48103-3814, United States", "phone": "(734) 954-6637", "web": "http://www.homesbrewery.com", "from_id": 4831, "to_id": 1607, "walk": null, "bike": 13.0, "transit": null }, "geometry": { "type": "Point", "coordinates": [ -83.778446, 42.280269 ] } },
{ "type": "Feature", "properties": { "id": 4831, "name": "Jolly Pumpkin Cafe and Brewery", "addr": "311 S Main St, Ann Arbor, Michigan, 48104-2107, United States", "phone": "(734) 913-2730", "web": "http://www.jollypumpkin.com", "from_id": 4831, "to_id": 4831, "walk": 0.0, "bike": 0.0, "transit": 0.0 }, "geometry": { "type": "Point", "coordinates": [ -83.748247, 42.279149 ] } },
{ "type": "Feature", "properties": { "id": 10959, "name": "Biercamp", "addr": "1643 S State St, Ann Arbor, Michigan, 48104-4302, United States", "phone": "(734) 995-2437", "web": "http://www.bier-camp.com", "from_id": 4831, "to_id": 10959, "walk": null, "bike": 17.0, "transit": null }, "geometry": { "type": "Point", "coordinates": [ -83.7398, 42.258421 ] } },
{ "type": "Feature", "properties": { "id": 13932, "name": "hear.say brewing", "addr": "2350 West Liberty Street, Ann Arbor, Michigan, 48103, United States", "phone": "(734) 506-8441", "web": "https://www.heardotsay.com/", "from_id": 4831, "to_id": 13932, "walk": null, "bike": 15.0, "transit": null }, "geometry": { "type": "Point", "coordinates": [ -83.779251, 42.274314 ] } },
{ "type": "Feature", "properties": { "id": 712, "name": "Unexpected Craft Brewing Company", "addr": "14401 W. 11 Mile Road, Oak Park, Michigan, 48237, United States", "phone": "(248) 802-0555", "web": "http://www.unexpectedcraft.com", "from_id": 5281, "to_id": 712, "walk": null, "bike": 27.0, "transit": null }, "geometry": { "type": "Point", "coordinates": [ -83.190374, 42.488451 ] } },
{ "type": "Feature", "properties": { "id": 2590, "name": "Woodward Avenue Brewers", "addr": "22646 Woodward Ave, Ferndale, Michigan, 48220-1810, United States", "phone": "(248) 546-3696", "web": "http://www.thewabsite.com", "from_id": 5281, "to_id": 2590, "walk": 19.0, "bike": 6.0, "transit": 26.0 }, "geometry": { "type": "Point", "coordinates": [ -83.133345, 42.459434 ] } },
{ "type": "Feature", "properties": { "id": 4564, "name": "The Royal Oak Brewery", "addr": "215 E 4th St, Royal Oak, Michigan, 48067-2606, United States", "phone": "(248) 544-1141", "web": "http://www.royaloakbrewery.com", "from_id": 5281, "to_id": 4564, "walk": null, "bike": 11.0, "transit": null }, "geometry": { "type": "Point", "coordinates": [ -83.142396, 42.487456 ] } },
{ "type": "Feature", "properties": { "id": 5281, "name": "Urbanrest Brewing Company", "addr": "2615 Wolcott St, Ferndale, Michigan, 48220-1422, United States", "phone": null, "web": "http://www.urbanrest.com", "from_id": 5281, "to_id": 5281, "walk": 0.0, "bike": 0.0, "transit": 0.0 }, "geometry": { "type": "Point", "coordinates": [ -83.127881, 42.467959 ] } },
{ "type": "Feature", "properties": { "id": 7307, "name": "Lily's Seafood Grill and Brewery", "addr": "410 S Washington Ave, Royal Oak, Michigan, 48067-3824, United States", "phone": "(248) 591-5459", "web": "http://www.lilysseafood.com", "from_id": 5281, "to_id": 7307, "walk": null, "bike": 12.0, "transit": null }, "geometry": { "type": "Point", "coordinates": [ -83.146761, 42.487097 ] } },
{ "type": "Feature", "properties": { "id": 8165, "name": "Dog and Pony Show Brewing", "addr": "14661 W 11 Mile Rd, Oak Park, Michigan, 48237, United States", "phone": "(248) 850-8910", "web": "http://www.dogandponyshowbrewing.com", "from_id": 5281, "to_id": 8165, "walk": null, "bike": 29.0, "transit": null }, "geometry": { "type": "Point", "coordinates": [ -83.193713, 42.488402 ] } },
{ "type": "Feature", "properties": { "id": 9067, "name": "B. Nektar Meadery", "addr": "1511 Jarvis St, Ferndale, Michigan, 48220-2025, United States", "phone": "(313) 744-6323", "web": "http://www.bnektar.com", "from_id": 5281, "to_id": 9067, "walk": 30.0, "bike": 10.0, "transit": null }, "geometry": { "type": "Point", "coordinates": [ -83.113536, 42.456896 ] } },
{ "type": "Feature", "properties": { "id": 9227, "name": "Eastern Market Brewing Co Production", "addr": "330 E Lincoln Ave, Royal Oak, Michigan, 48067, United States", "phone": null, "web": null, "from_id": 5281, "to_id": 9227, "walk": null, "bike": 9.0, "transit": null }, "geometry": { "type": "Point", "coordinates": [ -83.141438, 42.483346 ] } },
{ "type": "Feature", "properties": { "id": 9228, "name": "Eastern Market Brewing Company - Ferndale Project", "addr": "567 Livernois, Ferndale, Michigan, 48220, United States", "phone": "(248) 556-5512", "web": "http://www.ferndaleproject.com", "from_id": 5281, "to_id": 9228, "walk": null, "bike": 13.0, "transit": null }, "geometry": { "type": "Point", "coordinates": [ -83.142987, 42.450571 ] } },
{ "type": "Feature", "properties": { "id": 9643, "name": "Cadillac Straits Brewing Company", "addr": "27651 John R Rd, Madison Heights, Michigan, 48071-3364, United States", "phone": "(248) 850-7673", "web": "https://cadillacstraits.com", "from_id": 5281, "to_id": 9643, "walk": null, "bike": 21.0, "transit": null }, "geometry": { "type": "Point", "coordinates": [ -83.106116, 42.494933 ] } },
{ "type": "Feature", "properties": { "id": 9789, "name": "Stumblebum Beer Co", "addr": "947 Vester St, Ferndale, Michigan, 48220-1932, United States", "phone": "(248) 765-6015", "web": "https://www.stumblebumbeer.com/", "from_id": 5281, "to_id": 9789, "walk": 14.0, "bike": 4.0, "transit": 20.0 }, "geometry": { "type": "Point", "coordinates": [ -83.122019, 42.461803 ] } },
{ "type": "Feature", "properties": { "id": 10265, "name": "River Rouge Brewing Company", "addr": "14401 W. Eleven Mile Road, Oak Park, Michigan, 48237, United States", "phone": "(248) 802-0555", "web": "http://www.unexpectedcraft.com", "from_id": 5281, "to_id": 10265, "walk": null, "bike": 27.0, "transit": null }, "geometry": { "type": "Point", "coordinates": [ -83.190374, 42.488451 ] } },
{ "type": "Feature", "properties": { "id": 12997, "name": "Elephant & Co", "addr": "330 East Lincoln Avenue, Royal Oak, Michigan, 48067, United States", "phone": null, "web": null, "from_id": 5281, "to_id": 12997, "walk": null, "bike": 9.0, "transit": null }, "geometry": { "type": "Point", "coordinates": [ -83.141438, 42.483346 ] } },
{ "type": "Feature", "properties": { "id": 5425, "name": "Fillmore 13 Brewery", "addr": "7 N Saginaw St, Pontiac, Michigan, 48342-2182, United States", "phone": "(248) 977-3972", "web": "http://www.fillmore13brewery.com", "from_id": 5425, "to_id": 5425, "walk": 0.0, "bike": 0.0, "transit": 0.0 }, "geometry": { "type": "Point", "coordinates": [ -83.292205, 42.636936 ] } },
{ "type": "Feature", "properties": { "id": 5450, "name": "Kuhnhenn Brewing Co", "addr": "5919 Chicago Rd, Warren, Michigan, 48092-1606, United States", "phone": "(586) 979-8361", "web": "http://www.kuhnhenn.beer", "from_id": 5450, "to_id": 5450, "walk": 0.0, "bike": 0.0, "transit": 0.0 }, "geometry": { "type": "Point", "coordinates": [ -83.046759, 42.527752 ] } },
{ "type": "Feature", "properties": { "id": 5451, "name": "Kuhnhenn Clinton Township", "addr": "36000 Groesbeck Hwy, Clinton Township, Michigan, 48035-1541, United States", "phone": "(586) 231-0249", "web": null, "from_id": 5451, "to_id": 5451, "walk": 0.0, "bike": 0.0, "transit": 0.0 }, "geometry": { "type": "Point", "coordinates": [ -82.916928, 42.561889 ] } },
{ "type": "Feature", "properties": { "id": 886, "name": "Nain Rouge Brewery", "addr": "666 Selden St, Detroit, Michigan, 48201, United States", "phone": "(313) 638-1695", "web": "http://www.nainrougebrewery.com", "from_id": 6051, "to_id": 886, "walk": null, "bike": 15.0, "transit": null }, "geometry": { "type": "Point", "coordinates": [ -83.0659, 42.347382 ] } },
{ "type": "Feature", "properties": { "id": 1629, "name": "American Badass Beer", "addr": "1401 Abbott St, Detroit, Michigan, 48216-1946, United States", "phone": null, "web": "http://www.americanbadassbeer.com", "from_id": 6051, "to_id": 1629, "walk": null, "bike": 24.0, "transit": null }, "geometry": { "type": "Point", "coordinates": [ -83.062027, 42.327601 ] } },
{ "type": "Feature", "properties": { "id": 3387, "name": "Motor City Brewing Works", "addr": "470 W Canfield St, Detroit, Michigan, 48201-1220, United States", "phone": "(313) 832-2700", "web": "http://www.motorcitybeer.com", "from_id": 6051, "to_id": 3387, "walk": null, "bike": 13.0, "transit": null }, "geometry": { "type": "Point", "coordinates": [ -83.066023, 42.351793 ] } },
{ "type": "Feature", "properties": { "id": 3388, "name": "Motor City Brewing Works Warehouse", "addr": "441 W Canfield St, Detroit, Michigan, 48201-1231, United States", "phone": null, "web": null, "from_id": 6051, "to_id": 3388, "walk": null, "bike": 13.0, "transit": null }, "geometry": { "type": "Point", "coordinates": [ -83.065278, 42.350998 ] } },
{ "type": "Feature", "properties": { "id": 3687, "name": "Detroit Beer Co", "addr": "1529 Broadway St Ste 100, Detroit, Michigan, 48226-2141, United States", "phone": "(313) 962-1529", "web": "http://www.detroitbeerco.com", "from_id": 6051, "to_id": 3687, "walk": 23.0, "bike": 20.0, "transit": null }, "geometry": { "type": "Point", "coordinates": [ -83.04892, 42.335813 ] } },
{ "type": "Feature", "properties": { "id": 6051, "name": "Lagerhaus No. 5", "addr": "1529 Adelaide St, Detroit, Michigan, 48207, United States", "phone": null, "web": null, "from_id": 6051, "to_id": 6051, "walk": 0.0, "bike": 0.0, "transit": 0.0 }, "geometry": { "type": "Point", "coordinates": [ -83.038527, 42.347591 ] } },
{ "type": "Feature", "properties": { "id": 6738, "name": "Brewery Faisan", "addr": "1087 Beaufait, Detroit, Michigan, 48207, United States", "phone": "(313) 290-2987", "web": "http://www.breweryfaisan.com", "from_id": 6051, "to_id": 6738, "walk": null, "bike": 15.0, "transit": null }, "geometry": { "type": "Point", "coordinates": [ -83.010676, 42.348884 ] } },
{ "type": "Feature", "properties": { "id": 7506, "name": "Batch Brewing Co - Funk Room", "addr": "2841 E Grand Blvd, Detroit, Michigan, 48216-1934, United States", "phone": "(313) 338-8008", "web": null, "from_id": 6051, "to_id": 7506, "walk": null, "bike": 16.0, "transit": null }, "geometry": { "type": "Point", "coordinates": [ -83.064092, 42.373249 ] } },
{ "type": "Feature", "properties": { "id": 7507, "name": "Batch Brewing Company", "addr": "1400 Porter St, Detroit, Michigan, 48216-1934, United States", "phone": "(313) 338-8008", "web": "http://www.BatchBrewingCompany.com", "from_id": 6051, "to_id": 7507, "walk": null, "bike": 24.0, "transit": null }, "geometry": { "type": "Point", "coordinates": [ -83.063389, 42.32852 ] } },
{ "type": "Feature", "properties": { "id": 8718, "name": "Atwater Brewing Co", "addr": "237 Joseph Campau St, Detroit, Michigan, 48207-4107, United States", "phone": "(313) 877-9205", "web": "http://www.atwaterbeer.com", "from_id": 6051, "to_id": 8718, "walk": null, "bike": 13.0, "transit": null }, "geometry": { "type": "Point", "coordinates": [ -83.018658, 42.337145 ] } },
{ "type": "Feature", "properties": { "id": 9226, "name": "Eastern Market Brewing Co", "addr": "2515 Riopelle St, Detroit, Michigan, 48207-4526, United States", "phone": null, "web": "http://www.easternmarket.beer", "from_id": 6051, "to_id": 9226, "walk": 1.0, "bike": 1.0, "transit": 2.0 }, "geometry": { "type": "Point", "coordinates": [ -83.038884, 42.346674 ] } },
{ "type": "Feature", "properties": { "id": 11235, "name": "FUL Beverage", "addr": "2711 E Jefferson Ave, Detroit, Michigan, 48207, United States", "phone": null, "web": "http://www.fulbeverage.com", "from_id": 6051, "to_id": 11235, "walk": 30.0, "bike": 13.0, "transit": null }, "geometry": { "type": "Point", "coordinates": [ -83.020956, 42.339364 ] } },
{ "type": "Feature", "properties": { "id": 13797, "name": "Florian East", "addr": "9350 Joseph Campau Avenue, Hamtramck, Michigan, 48212, United States", "phone": null, "web": "http://www.florianeasthamtramck.com", "from_id": 6051, "to_id": 13797, "walk": null, "bike": 30.0, "transit": null }, "geometry": { "type": "Point", "coordinates": [ -83.056089, 42.394488 ] } },
{ "type": "Feature", "properties": { "id": 2480, "name": "Great White Buffalo Brewing Company", "addr": "101 West Main Street, Northville, Michigan, 48167, United States", "phone": "2489242607", "web": "https://greatwhitebuffalobrewingco.com/", "from_id": 6235, "to_id": 2480, "walk": 16.0, "bike": 5.0, "transit": 22.0 }, "geometry": { "type": "Point", "coordinates": [ -83.483359, 42.430933 ] } },
{ "type": "Feature", "properties": { "id": 6235, "name": "Northville Winery and Brewery", "addr": "630 Old Baseline Rd, Northville, Michigan, 48167, United States", "phone": "(248) 320-6507", "web": "https://www.thenorthvillewinery.com/", "from_id": 6235, "to_id": 6235, "walk": 0.0, "bike": 0.0, "transit": 0.0 }, "geometry": { "type": "Point", "coordinates": [ -83.4938, 42.4366 ] } },
{ "type": "Feature", "properties": { "id": 6269, "name": "Supernatural Brewing and Spirits", "addr": "36685 Plymouth Rd, Livonia, Michigan, 48150, United States", "phone": "(734) 469-2251", "web": "http://www.supernaturalbrewing.com", "from_id": 6269, "to_id": 6269, "walk": 0.0, "bike": 0.0, "transit": 0.0 }, "geometry": { "type": "Point", "coordinates": [ -83.406416, 42.367093 ] } },
{ "type": "Feature", "properties": { "id": 6775, "name": "Bearded Lamb Brewing Company Production Facility", "addr": "11721 Levan Rd, Livonia, Michigan, 48150-1401, United States", "phone": null, "web": null, "from_id": 6269, "to_id": 6775, "walk": 7.0, "bike": 6.0, "transit": 10.0 }, "geometry": { "type": "Point", "coordinates": [ -83.401757, 42.368449 ] } },
{ "type": "Feature", "properties": { "id": 14064, "name": "1 For All Brewery", "addr": "38083 Ann Arbor Road, Livonia, Michigan, 48150, United States", "phone": null, "web": null, "from_id": 6269, "to_id": 14064, "walk": 15.0, "bike": 16.0, "transit": 20.0 }, "geometry": { "type": "Point", "coordinates": [ -83.417584, 42.361017 ] } },
{ "type": "Feature", "properties": { "id": 6365, "name": "Old Chicago - Southgate", "addr": "15231 Trenton Rd., Southgate, Michigan, 48195, United States", "phone": "(734) 282-8111", "web": null, "from_id": 6365, "to_id": 6365, "walk": 0.0, "bike": 0.0, "transit": 0.0 }, "geometry": { "type": "Point", "coordinates": [ -83.192526, 42.197504 ] } },
{ "type": "Feature", "properties": { "id": 13615, "name": "Wyandotte Beer Company", "addr": "3016 1st, Wyandotte, Michigan, 48192, United States", "phone": "7347522040", "web": "https://www.wyandottebeercompany.com/", "from_id": 6365, "to_id": 13615, "walk": null, "bike": 19.0, "transit": null }, "geometry": { "type": "Point", "coordinates": [ -83.150331, 42.202883 ] } },
{ "type": "Feature", "properties": { "id": 3343, "name": "Four Circles Brewery", "addr": "709 W Grand River Ave, Brighton, Michigan, 48116-2312, United States", "phone": "8105884665", "web": "https://fourcirclesbrewery.com/", "from_id": 6734, "to_id": 3343, "walk": 10.0, "bike": 5.0, "transit": 15.0 }, "geometry": { "type": "Point", "coordinates": [ -83.783172, 42.534965 ] } },
{ "type": "Feature", "properties": { "id": 6734, "name": "Brewery Becker", "addr": "500 W Main St, Brighton, Michigan, 48116-1471, United States", "phone": "(810) 844-0225", "web": "http://www.brauereibecker.us", "from_id": 6734, "to_id": 6734, "walk": 0.0, "bike": 0.0, "transit": 0.0 }, "geometry": { "type": "Point", "coordinates": [ -83.785416, 42.529743 ] } },
{ "type": "Feature", "properties": { "id": 13384, "name": "Grand River Brewery - Brighton", "addr": "201 West Main Street, Brighton, Michigan, 48116, United States", "phone": null, "web": null, "from_id": 6734, "to_id": 13384, "walk": 4.0, "bike": 1.0, "transit": 6.0 }, "geometry": { "type": "Point", "coordinates": [ -83.781839, 42.529226 ] } },
{ "type": "Feature", "properties": { "id": 886, "name": "Nain Rouge Brewery", "addr": "666 Selden St, Detroit, Michigan, 48201, United States", "phone": "(313) 638-1695", "web": "http://www.nainrougebrewery.com", "from_id": 6738, "to_id": 886, "walk": null, "bike": 26.0, "transit": null }, "geometry": { "type": "Point", "coordinates": [ -83.0659, 42.347382 ] } },
{ "type": "Feature", "properties": { "id": 1629, "name": "American Badass Beer", "addr": "1401 Abbott St, Detroit, Michigan, 48216-1946, United States", "phone": null, "web": "http://www.americanbadassbeer.com", "from_id": 6738, "to_id": 1629, "walk": null, "bike": 24.0, "transit": null }, "geometry": { "type": "Point", "coordinates": [ -83.062027, 42.327601 ] } },
{ "type": "Feature", "properties": { "id": 3387, "name": "Motor City Brewing Works", "addr": "470 W Canfield St, Detroit, Michigan, 48201-1220, United States", "phone": "(313) 832-2700", "web": "http://www.motorcitybeer.com", "from_id": 6738, "to_id": 3387, "walk": null, "bike": 25.0, "transit": null }, "geometry": { "type": "Point", "coordinates": [ -83.066023, 42.351793 ] } },
{ "type": "Feature", "properties": { "id": 3388, "name": "Motor City Brewing Works Warehouse", "addr": "441 W Canfield St, Detroit, Michigan, 48201-1231, United States", "phone": null, "web": null, "from_id": 6738, "to_id": 3388, "walk": null, "bike": 25.0, "transit": null }, "geometry": { "type": "Point", "coordinates": [ -83.065278, 42.350998 ] } },
{ "type": "Feature", "properties": { "id": 3687, "name": "Detroit Beer Co", "addr": "1529 Broadway St Ste 100, Detroit, Michigan, 48226-2141, United States", "phone": "(313) 962-1529", "web": "http://www.detroitbeerco.com", "from_id": 6738, "to_id": 3687, "walk": null, "bike": 24.0, "transit": null }, "geometry": { "type": "Point", "coordinates": [ -83.04892, 42.335813 ] } },
{ "type": "Feature", "properties": { "id": 6051, "name": "Lagerhaus No. 5", "addr": "1529 Adelaide St, Detroit, Michigan, 48207, United States", "phone": null, "web": null, "from_id": 6738, "to_id": 6051, "walk": null, "bike": 14.0, "transit": null }, "geometry": { "type": "Point", "coordinates": [ -83.038527, 42.347591 ] } },
{ "type": "Feature", "properties": { "id": 6738, "name": "Brewery Faisan", "addr": "1087 Beaufait, Detroit, Michigan, 48207, United States", "phone": "(313) 290-2987", "web": "http://www.breweryfaisan.com", "from_id": 6738, "to_id": 6738, "walk": 0.0, "bike": 0.0, "transit": 0.0 }, "geometry": { "type": "Point", "coordinates": [ -83.010676, 42.348884 ] } },
{ "type": "Feature", "properties": { "id": 7506, "name": "Batch Brewing Co - Funk Room", "addr": "2841 E Grand Blvd, Detroit, Michigan, 48216-1934, United States", "phone": "(313) 338-8008", "web": null, "from_id": 6738, "to_id": 7506, "walk": null, "bike": 26.0, "transit": null }, "geometry": { "type": "Point", "coordinates": [ -83.064092, 42.373249 ] } },
{ "type": "Feature", "properties": { "id": 7507, "name": "Batch Brewing Company", "addr": "1400 Porter St, Detroit, Michigan, 48216-1934, United States", "phone": "(313) 338-8008", "web": "http://www.BatchBrewingCompany.com", "from_id": 6738, "to_id": 7507, "walk": null, "bike": 25.0, "transit": null }, "geometry": { "type": "Point", "coordinates": [ -83.063389, 42.32852 ] } },
{ "type": "Feature", "properties": { "id": 8718, "name": "Atwater Brewing Co", "addr": "237 Joseph Campau St, Detroit, Michigan, 48207-4107, United States", "phone": "(313) 877-9205", "web": "http://www.atwaterbeer.com", "from_id": 6738, "to_id": 8718, "walk": 24.0, "bike": 7.0, "transit": 25.0 }, "geometry": { "type": "Point", "coordinates": [ -83.018658, 42.337145 ] } },
{ "type": "Feature", "properties": { "id": 9226, "name": "Eastern Market Brewing Co", "addr": "2515 Riopelle St, Detroit, Michigan, 48207-4526, United States", "phone": null, "web": "http://www.easternmarket.beer", "from_id": 6738, "to_id": 9226, "walk": null, "bike": 15.0, "transit": null }, "geometry": { "type": "Point", "coordinates": [ -83.038884, 42.346674 ] } },
{ "type": "Feature", "properties": { "id": 11235, "name": "FUL Beverage", "addr": "2711 E Jefferson Ave, Detroit, Michigan, 48207, United States", "phone": null, "web": "http://www.fulbeverage.com", "from_id": 6738, "to_id": 11235, "walk": 21.0, "bike": 9.0, "transit": 21.0 }, "geometry": { "type": "Point", "coordinates": [ -83.020956, 42.339364 ] } },
{ "type": "Feature", "properties": { "id": 2071, "name": "Schoolcraft Brewery", "addr": "18600 Haggerty Rd, Livonia, Michigan, 48152-3932, United States", "phone": "(734) 462-7659", "web": "http://www.schoolcraft.edu", "from_id": 6774, "to_id": 2071, "walk": null, "bike": 29.0, "transit": null }, "geometry": { "type": "Point", "coordinates": [ -83.428418, 42.415642 ] } },
{ "type": "Feature", "properties": { "id": 6774, "name": "Bearded Lamb Brewing Company", "addr": "149 W Liberty St Ste 1, Plymouth, Michigan, 48170-8001, United States", "phone": "7342079600", "web": "https://beardedlamb.com/", "from_id": 6774, "to_id": 6774, "walk": 0.0, "bike": 0.0, "transit": 0.0 }, "geometry": { "type": "Point", "coordinates": [ -83.461226, 42.379135 ] } },
{ "type": "Feature", "properties": { "id": 9030, "name": "Arbor Brewing Company - Plymouth Taproom", "addr": "777 W Ann Arbor Trail, Plymouth, Michigan, 48170, United States", "phone": "(734) 233-6201", "web": null, "from_id": 6774, "to_id": 9030, "walk": 17.0, "bike": 7.0, "transit": 24.0 }, "geometry": { "type": "Point", "coordinates": [ -83.468979, 42.369448 ] } },
{ "type": "Feature", "properties": { "id": 9435, "name": "Canton Brew Works, LLC", "addr": "8521 N Lilley Rd, Canton, Michigan, 48187-2091, United States", "phone": "(734) 927-7081", "web": "http://www.cantonbrewworks.com", "from_id": 6774, "to_id": 9435, "walk": null, "bike": 27.0, "transit": null }, "geometry": { "type": "Point", "coordinates": [ -83.460125, 42.348292 ] } },
{ "type": "Feature", "properties": { "id": 14064, "name": "1 For All Brewery", "addr": "38083 Ann Arbor Road, Livonia, Michigan, 48150, United States", "phone": null, "web": null, "from_id": 6774, "to_id": 14064, "walk": null, "bike": 29.0, "transit": null }, "geometry": { "type": "Point", "coordinates": [ -83.417584, 42.361017 ] } },
{ "type": "Feature", "properties": { "id": 6269, "name": "Supernatural Brewing and Spirits", "addr": "36685 Plymouth Rd, Livonia, Michigan, 48150, United States", "phone": "(734) 469-2251", "web": "http://www.supernaturalbrewing.com", "from_id": 6775, "to_id": 6269, "walk": 7.0, "bike": 6.0, "transit": 10.0 }, "geometry": { "type": "Point", "coordinates": [ -83.406416, 42.367093 ] } },
{ "type": "Feature", "properties": { "id": 6775, "name": "Bearded Lamb Brewing Company Production Facility", "addr": "11721 Levan Rd, Livonia, Michigan, 48150-1401, United States", "phone": null, "web": null, "from_id": 6775, "to_id": 6775, "walk": 0.0, "bike": 0.0, "transit": 0.0 }, "geometry": { "type": "Point", "coordinates": [ -83.401757, 42.368449 ] } },
{ "type": "Feature", "properties": { "id": 14064, "name": "1 For All Brewery", "addr": "38083 Ann Arbor Road, Livonia, Michigan, 48150, United States", "phone": null, "web": null, "from_id": 6775, "to_id": 14064, "walk": 20.0, "bike": 20.0, "transit": 28.0 }, "geometry": { "type": "Point", "coordinates": [ -83.417584, 42.361017 ] } },
{ "type": "Feature", "properties": { "id": 712, "name": "Unexpected Craft Brewing Company", "addr": "14401 W. 11 Mile Road, Oak Park, Michigan, 48237, United States", "phone": "(248) 802-0555", "web": "http://www.unexpectedcraft.com", "from_id": 7307, "to_id": 712, "walk": null, "bike": 17.0, "transit": null }, "geometry": { "type": "Point", "coordinates": [ -83.190374, 42.488451 ] } },
{ "type": "Feature", "properties": { "id": 2590, "name": "Woodward Avenue Brewers", "addr": "22646 Woodward Ave, Ferndale, Michigan, 48220-1810, United States", "phone": "(248) 546-3696", "web": "http://www.thewabsite.com", "from_id": 7307, "to_id": 2590, "walk": null, "bike": 16.0, "transit": null }, "geometry": { "type": "Point", "coordinates": [ -83.133345, 42.459434 ] } },
{ "type": "Feature", "properties": { "id": 4564, "name": "The Royal Oak Brewery", "addr": "215 E 4th St, Royal Oak, Michigan, 48067-2606, United States", "phone": "(248) 544-1141", "web": "http://www.royaloakbrewery.com", "from_id": 7307, "to_id": 4564, "walk": 4.0, "bike": 1.0, "transit": 6.0 }, "geometry": { "type": "Point", "coordinates": [ -83.142396, 42.487456 ] } },
{ "type": "Feature", "properties": { "id": 5281, "name": "Urbanrest Brewing Company", "addr": "2615 Wolcott St, Ferndale, Michigan, 48220-1422, United States", "phone": null, "web": "http://www.urbanrest.com", "from_id": 7307, "to_id": 5281, "walk": null, "bike": 12.0, "transit": null }, "geometry": { "type": "Point", "coordinates": [ -83.127881, 42.467959 ] } },
{ "type": "Feature", "properties": { "id": 7307, "name": "Lily's Seafood Grill and Brewery", "addr": "410 S Washington Ave, Royal Oak, Michigan, 48067-3824, United States", "phone": "(248) 591-5459", "web": "http://www.lilysseafood.com", "from_id": 7307, "to_id": 7307, "walk": 0.0, "bike": 0.0, "transit": 0.0 }, "geometry": { "type": "Point", "coordinates": [ -83.146761, 42.487097 ] } },
{ "type": "Feature", "properties": { "id": 8165, "name": "Dog and Pony Show Brewing", "addr": "14661 W 11 Mile Rd, Oak Park, Michigan, 48237, United States", "phone": "(248) 850-8910", "web": "http://www.dogandponyshowbrewing.com", "from_id": 7307, "to_id": 8165, "walk": null, "bike": 19.0, "transit": null }, "geometry": { "type": "Point", "coordinates": [ -83.193713, 42.488402 ] } },
{ "type": "Feature", "properties": { "id": 9067, "name": "B. Nektar Meadery", "addr": "1511 Jarvis St, Ferndale, Michigan, 48220-2025, United States", "phone": "(313) 744-6323", "web": "http://www.bnektar.com", "from_id": 7307, "to_id": 9067, "walk": null, "bike": 22.0, "transit": null }, "geometry": { "type": "Point", "coordinates": [ -83.113536, 42.456896 ] } },
{ "type": "Feature", "properties": { "id": 9227, "name": "Eastern Market Brewing Co Production", "addr": "330 E Lincoln Ave, Royal Oak, Michigan, 48067, United States", "phone": null, "web": null, "from_id": 7307, "to_id": 9227, "walk": 9.0, "bike": 3.0, "transit": 13.0 }, "geometry": { "type": "Point", "coordinates": [ -83.141438, 42.483346 ] } },
{ "type": "Feature", "properties": { "id": 9228, "name": "Eastern Market Brewing Company - Ferndale Project", "addr": "567 Livernois, Ferndale, Michigan, 48220, United States", "phone": "(248) 556-5512", "web": "http://www.ferndaleproject.com", "from_id": 7307, "to_id": 9228, "walk": null, "bike": 23.0, "transit": null },