{
"type": "FeatureCollection",
"crs": { "type": "name", "properties": { "name": "urn:ogc:def:crs:OGC:1.3:CRS84" } },
"features": [
{ "type": "Feature", "properties": { "id": 589, "name": "Somerset Brewing Company", "addr": "94C Cherry Valley Ave, West Hempstead, New York, 11552, United States", "phone": "(516) 447-6983", "web": "www.somersetbrewing.com", "lat": 295536.04919618327, "long": 1756464.9978987391, "from_id": 589, "to_id": 589, "walk": 0.0, "bike": 0.0, "transit": 0.0 }, "geometry": { "type": "Point", "coordinates": [ -73.653899, 40.708016 ] } },
{ "type": "Feature", "properties": { "id": 2111, "name": "Bronx Brewery Hudson Yards", "addr": "20 Hudson Yards, New York, New York, 10001, United States", "phone": null, "web": "thebronxbrewery.com/hudson-yards-location-2", "lat": 293746.69581476023, "long": 1729509.167468146, "from_id": 2111, "to_id": 2111, "walk": 0.0, "bike": 1.0, "transit": 0.0 }, "geometry": { "type": "Point", "coordinates": [ -73.9889, 40.751 ] } },
{ "type": "Feature", "properties": { "id": 9729, "name": "Radiant Pig Craft Beers", "addr": "122 W 27th St Fl 10, New York, New York, 10001-6227, United States", "phone": null, "web": null, "lat": 293114.76166702481, "long": 1729386.0655381647, "from_id": 2111, "to_id": 9729, "walk": 10.0, "bike": 8.0, "transit": 13.0 }, "geometry": { "type": "Point", "coordinates": [ -73.992315, 40.745741 ] } },
{ "type": "Feature", "properties": { "id": 11534, "name": "Birreria @ Eataly", "addr": "200 5th Ave Fl 14, New York, New York, 10010-3302, United States", "phone": "(212) 539-0204", "web": "www.eatalyny.com", "lat": 292869.07266422873, "long": 1729731.2523939349, "from_id": 2111, "to_id": 11534, "walk": 12.0, "bike": 5.0, "transit": 12.0 }, "geometry": { "type": "Point", "coordinates": [ -73.988834, 40.742848 ] } },
{ "type": "Feature", "properties": { "id": 12381, "name": "Death Avenue", "addr": "315 10th Ave, New York, New York, 10001-1416, United States", "phone": "(212) 695-8080", "web": "www.deathave.com", "lat": 293509.98054739099, "long": 1728490.8251980385, "from_id": 2111, "to_id": 12381, "walk": 18.0, "bike": 12.0, "transit": 23.0 }, "geometry": { "type": "Point", "coordinates": [ -74.002075, 40.751128 ] } },
{ "type": "Feature", "properties": { "id": 13244, "name": "Heartland Brewery (# 2)", "addr": "1285 6th Ave Fl CONC1, New York, New York, 10019-6086, United States", "phone": "(212) 582-8244", "web": "www.heartlandbrewery.com/", "lat": 295001.32752627868, "long": 1729882.7099410843, "from_id": 2111, "to_id": 13244, "walk": 19.0, "bike": 20.0, "transit": 15.0 }, "geometry": { "type": "Point", "coordinates": [ -73.980538, 40.761162 ] } },
{ "type": "Feature", "properties": { "id": 16608, "name": "Toast Ale", "addr": "601 W 26th St Ste 325-291, New York, New York, 10001-1101, United States", "phone": "(916) 202-3851", "web": "www.toastale.com/us", "lat": 293474.38705177268, "long": 1728133.3112055443, "from_id": 2111, "to_id": 16608, "walk": 24.0, "bike": 13.0, "transit": 24.0 }, "geometry": { "type": "Point", "coordinates": [ -74.006557, 40.751588 ] } },
{ "type": "Feature", "properties": { "id": 3157, "name": "Grin Brewing", "addr": "32 Church St, Keansburg, New Jersey, 07734, United States", "phone": "(703) 300-5326", "web": "www.grinbrewing.com", "lat": 257668.92601984885, "long": 1726696.1212388484, "from_id": 3157, "to_id": 3157, "walk": 0.0, "bike": 0.0, "transit": 0.0 }, "geometry": { "type": "Point", "coordinates": [ -74.13163, 40.441574 ] } },
{ "type": "Feature", "properties": { "id": 3201, "name": "18th Ward Brewing", "addr": "40 Division Street, New Rochelle, New York, 10801, United States", "phone": null, "web": null, "lat": 314705.41217482521, "long": 1741043.4306139559, "from_id": 3201, "to_id": 3201, "walk": 0.0, "bike": 1.0, "transit": 0.0 }, "geometry": { "type": "Point", "coordinates": [ -73.783958, 40.909167 ] } },
{ "type": "Feature", "properties": { "id": 10127, "name": "Brewery In Planning - New Rochelle", "addr": "None, New Rochelle, New York, 10801, United States", "phone": "(914) 447-2787", "web": null, "lat": 315461.73246294598, "long": 1740802.5150137465, "from_id": 3201, "to_id": 10127, "walk": 13.0, "bike": 16.0, "transit": 18.0 }, "geometry": { "type": "Point", "coordinates": [ -73.7846, 40.9163 ] } },
{ "type": "Feature", "properties": { "id": 13596, "name": "Diner Brew Co.", "addr": "40 Division St, New Rochelle, New York, 10801, United States", "phone": "(914) 229-3472", "web": "www.dinerbrewco.com", "lat": 314730.23977246432, "long": 1741092.0604431189, "from_id": 3201, "to_id": 13596, "walk": 3.0, "bike": 7.0, "transit": 4.0 }, "geometry": { "type": "Point", "coordinates": [ -73.783286, 40.909278 ] } },
{ "type": "Feature", "properties": { "id": 4482, "name": "Sean McGoldrick Household", "addr": "43 Herbert St, Brooklyn, NY 11222, Brooklyn, None, 11206, United States", "phone": null, "web": null, "lat": 289377.25279891567, "long": 1734415.8369710131, "from_id": 4482, "to_id": 4482, "walk": 0.0, "bike": 0.0, "transit": 0.0 }, "geometry": { "type": "Point", "coordinates": [ -73.9421, 40.7022 ] } },
{ "type": "Feature", "properties": { "id": 6751, "name": "Grimm Artisanal Ales", "addr": "990 Metropolitan Ave, BROOKLYN, None, 11215, United States", "phone": "9175884084", "web": "GrimmAles.com", "lat": 290784.3002692943, "long": 1734523.7837160453, "from_id": 4482, "to_id": 6751, "walk": 23.0, "bike": 9.0, "transit": 27.0 }, "geometry": { "type": "Point", "coordinates": [ -73.936523, 40.714266 ] } },
{ "type": "Feature", "properties": { "id": 7273, "name": "18th Ward Brewing", "addr": "300 Richardson Street, Brooklyn, New York, 11222, United States", "phone": "(718) 387-4025", "web": "/www.18thwardbrewing.com", "lat": 291290.61561088869, "long": 1734147.4759335187, "from_id": 4482, "to_id": 7273, "walk": 27.0, "bike": 8.0, "transit": 28.0 }, "geometry": { "type": "Point", "coordinates": [ -73.939592, 40.719506 ] } },
{ "type": "Feature", "properties": { "id": 10722, "name": "Kings County Brewers Collective", "addr": "381 Troutman St, Brooklyn, New York, 11237-2613, United States", "phone": "(718) 288-2891", "web": "www.kcbcbeer.com", "lat": 290146.12535900588, "long": 1735729.5751323786, "from_id": 4482, "to_id": 10722, "walk": 23.0, "bike": 9.0, "transit": 21.0 }, "geometry": { "type": "Point", "coordinates": [ -73.923713, 40.706078 ] } },
{ "type": "Feature", "properties": { "id": 13419, "name": "Non Sequitur Beer Project", "addr": "8 Wilson Ave, Brooklyn, New York, 11206, United States", "phone": null, "web": "www.nonsequiturbeer.com", "lat": 289730.66476680723, "long": 1735241.4361552291, "from_id": 4482, "to_id": 13419, "walk": 14.0, "bike": 6.0, "transit": 18.0 }, "geometry": { "type": "Point", "coordinates": [ -73.930938, 40.703503 ] } },
{ "type": "Feature", "properties": { "id": 17750, "name": "Randolph Beer", "addr": "104 South 4th St, Brooklyn, New York, 11249, United States", "phone": null, "web": null, "lat": 290028.47981856612, "long": 1732466.2058797013, "from_id": 4482, "to_id": 17750, "walk": 28.0, "bike": 10.0, "transit": 24.0 }, "geometry": { "type": "Point", "coordinates": [ -73.963967, 40.712108 ] } },
{ "type": "Feature", "properties": { "id": 17791, "name": "Interboro Spirits And Ales", "addr": "942 Grand St, Brooklyn, New York, 11211-2707, United States", "phone": "(646) 245-5417", "web": "www.interboro.nyc", "lat": 290596.83002212469, "long": 1734538.6966817921, "from_id": 4482, "to_id": 17791, "walk": 20.0, "bike": 8.0, "transit": 23.0 }, "geometry": { "type": "Point", "coordinates": [ -73.936908, 40.712595 ] } },
{ "type": "Feature", "properties": { "id": 17862, "name": "TALEA Beer Co", "addr": "87 Richardston St, Brooklyn, New York, 11211, United States", "phone": "(415) 713-8998", "web": "www.taleabeer.com", "lat": 291037.94952922076, "long": 1733507.7485732816, "from_id": 4482, "to_id": 17862, "walk": 26.0, "bike": 9.0, "transit": 24.0 }, "geometry": { "type": "Point", "coordinates": [ -73.948179, 40.718681 ] } },
{ "type": "Feature", "properties": { "id": 20618, "name": "Randolph Beer", "addr": "104 South 4th St, Brooklyn, New York, 11249, United States", "phone": null, "web": null, "lat": 290028.47981856612, "long": 1732466.2058797013, "from_id": 4482, "to_id": 20618, "walk": 28.0, "bike": 10.0, "transit": 24.0 }, "geometry": { "type": "Point", "coordinates": [ -73.963967, 40.712108 ] } },
{ "type": "Feature", "properties": { "id": 4743, "name": "That Witch Ales You", "addr": "116 Madison St, New York, New York, 10002, United States", "phone": "(646) 669-7363", "web": "www.thatwitchalesyou.com", "lat": 289435.20075694332, "long": 1730091.2863956783, "from_id": 4743, "to_id": 4743, "walk": 0.0, "bike": 0.0, "transit": 0.0 }, "geometry": { "type": "Point", "coordinates": [ -73.994799, 40.71205 ] } },
{ "type": "Feature", "properties": { "id": 4989, "name": "The Bronx Brewery East Village", "addr": "64 2nd Ave, New York, New York, 10003, United States", "phone": "(718) 402-1000", "web": null, "lat": 291024.89219297952, "long": 1730146.4474096783, "from_id": 4743, "to_id": 4989, "walk": 22.0, "bike": 11.0, "transit": 21.0 }, "geometry": { "type": "Point", "coordinates": [ -73.989325, 40.725829 ] } },
{ "type": "Feature", "properties": { "id": 12821, "name": "Alphabet City Brewing Co", "addr": "96 Avenue C Frnt 4, New York, New York, 10009-7055, United States", "phone": "(914) 356-6809", "web": "www.acbnyc.com", "lat": 290990.37979430775, "long": 1731011.7750121041, "from_id": 4743, "to_id": 12821, "walk": 26.0, "bike": 11.0, "transit": 29.0 }, "geometry": { "type": "Point", "coordinates": [ -73.978846, 40.723659 ] } },
{ "type": "Feature", "properties": { "id": 13245, "name": "Heartland Brewery (#4)", "addr": "93 South Street at Fulton, New York, New York, 10038, United States", "phone": "(646) 572-2337", "web": null, "lat": 289035.33860381518, "long": 1729560.1955428415, "from_id": 4743, "to_id": 13245, "walk": 10.0, "bike": 8.0, "transit": 13.0 }, "geometry": { "type": "Point", "coordinates": [ -74.0025, 40.7097 ] } },
{ "type": "Feature", "properties": { "id": 17777, "name": "Randolph Beer", "addr": "343 Broome St, New York, New York, 10013-4236, United States", "phone": null, "web": null, "lat": 290239.07043229649, "long": 1729880.4330372475, "from_id": 4743, "to_id": 17777, "walk": 13.0, "bike": 7.0, "transit": 17.0 }, "geometry": { "type": "Point", "coordinates": [ -73.994951, 40.719533 ] } },
{ "type": "Feature", "properties": { "id": 19706, "name": "Torch & Crown Brewing Company", "addr": "12 Vandam St, New York, New York, 10013-1214, United States", "phone": "(201) 452-4196", "web": "www.torchandcrown.com", "lat": 290781.05240979855, "long": 1728981.4640153444, "from_id": 4743, "to_id": 19706, "walk": 27.0, "bike": 11.0, "transit": 23.0 }, "geometry": { "type": "Point", "coordinates": [ -74.00431, 40.726211 ] } },
{ "type": "Feature", "properties": { "id": 20656, "name": "Randolph Beer", "addr": "343 Broome St, New York, New York, 10013-4236, United States", "phone": null, "web": null, "lat": 290239.07043229649, "long": 1729880.4330372475, "from_id": 4743, "to_id": 20656, "walk": 13.0, "bike": 7.0, "transit": 17.0 }, "geometry": { "type": "Point", "coordinates": [ -73.994951, 40.719533 ] } },
{ "type": "Feature", "properties": { "id": 4840, "name": "Atmosphere Brewery", "addr": "221 Banker Street, Brooklyn, New York, 11222, United States", "phone": "9174074102", "web": "www.atmospherebrewery.com", "lat": 291650.56264380913, "long": 1732751.6686490071, "from_id": 4840, "to_id": 4840, "walk": 0.0, "bike": 2.0, "transit": 0.0 }, "geometry": { "type": "Point", "coordinates": [ -73.955572, 40.725671 ] } },
{ "type": "Feature", "properties": { "id": 7273, "name": "18th Ward Brewing", "addr": "300 Richardson Street, Brooklyn, New York, 11222, United States", "phone": "(718) 387-4025", "web": "/www.18thwardbrewing.com", "lat": 291290.61561088869, "long": 1734147.4759335187, "from_id": 4840, "to_id": 7273, "walk": 23.0, "bike": 9.0, "transit": 30.0 }, "geometry": { "type": "Point", "coordinates": [ -73.939592, 40.719506 ] } },
{ "type": "Feature", "properties": { "id": 10458, "name": "Keg & Lantern Brewing Co", "addr": "97 Nassau Ave, Brooklyn, New York, 11222-3081, United States", "phone": "(718) 389-5050", "web": "www.kegandlanternbrooklyn.com", "lat": 291582.25083611888, "long": 1733193.7713318802, "from_id": 4840, "to_id": 10458, "walk": 8.0, "bike": 4.0, "transit": 11.0 }, "geometry": { "type": "Point", "coordinates": [ -73.950372, 40.724118 ] } },
{ "type": "Feature", "properties": { "id": 11045, "name": "Other Half Brewing Company - Domino Park", "addr": "34 River St, Brooklyn, New York, 11249, United States", "phone": null, "web": "www.otherhalfbrewing.com/location/domino-park", "lat": 290484.87157256616, "long": 1732182.8792024758, "from_id": 4840, "to_id": 11045, "walk": 18.0, "bike": 11.0, "transit": 25.0 }, "geometry": { "type": "Point", "coordinates": [ -73.966052, 40.71671 ] } },
{ "type": "Feature", "properties": { "id": 13079, "name": "Greenpoint Beer", "addr": "1150 Manhattan Ave, Brooklyn, New York, 11222, United States", "phone": "(917) 750-1541", "web": "www.greenpointbeer.com", "lat": 292952.60568343103, "long": 1732463.5267148733, "from_id": 4840, "to_id": 13079, "walk": 19.0, "bike": 8.0, "transit": 21.0 }, "geometry": { "type": "Point", "coordinates": [ -73.955158, 40.737676 ] } },
{ "type": "Feature", "properties": { "id": 15634, "name": "Brooklyn Brewery", "addr": "79 N 11th St, Brooklyn, New York, 11249-1913, United States", "phone": "(718) 486-7422", "web": "www.brooklynbrewery.com", "lat": 291183.28758370428, "long": 1732686.9931418435, "from_id": 4840, "to_id": 15634, "walk": 7.0, "bike": 7.0, "transit": 9.0 }, "geometry": { "type": "Point", "coordinates": [ -73.957776, 40.721726 ] } },
{ "type": "Feature", "properties": { "id": 17750, "name": "Randolph Beer", "addr": "104 South 4th St, Brooklyn, New York, 11249, United States", "phone": null, "web": null, "lat": 290028.47981856612, "long": 1732466.2058797013, "from_id": 4840, "to_id": 17750, "walk": 23.0, "bike": 11.0, "transit": 28.0 }, "geometry": { "type": "Point", "coordinates": [ -73.963967, 40.712108 ] } },
{ "type": "Feature", "properties": { "id": 17862, "name": "TALEA Beer Co", "addr": "87 Richardston St, Brooklyn, New York, 11211, United States", "phone": "(415) 713-8998", "web": "www.taleabeer.com", "lat": 291037.94952922076, "long": 1733507.7485732816, "from_id": 4840, "to_id": 17862, "walk": 15.0, "bike": 8.0, "transit": 21.0 }, "geometry": { "type": "Point", "coordinates": [ -73.948179, 40.718681 ] } },
{ "type": "Feature", "properties": { "id": 20618, "name": "Randolph Beer", "addr": "104 South 4th St, Brooklyn, New York, 11249, United States", "phone": null, "web": null, "lat": 290028.47981856612, "long": 1732466.2058797013, "from_id": 4840, "to_id": 20618, "walk": 23.0, "bike": 11.0, "transit": 28.0 }, "geometry": { "type": "Point", "coordinates": [ -73.963967, 40.712108 ] } },
{ "type": "Feature", "properties": { "id": 4988, "name": "The Bronx Brewery", "addr": "856 E 136th St, Bronx, New York, 10454-3509, United States", "phone": "(718) 402-1000", "web": "www.thebronxbrewery.com", "lat": 300723.63226935104, "long": 1734177.7710708452, "from_id": 4988, "to_id": 4988, "walk": 0.0, "bike": 0.0, "transit": 0.0 }, "geometry": { "type": "Point", "coordinates": [ -73.910639, 40.801894 ] } },
{ "type": "Feature", "properties": { "id": 4743, "name": "That Witch Ales You", "addr": "116 Madison St, New York, New York, 10002, United States", "phone": "(646) 669-7363", "web": "www.thatwitchalesyou.com", "lat": 289435.20075694332, "long": 1730091.2863956783, "from_id": 4989, "to_id": 4743, "walk": 22.0, "bike": 13.0, "transit": 20.0 }, "geometry": { "type": "Point", "coordinates": [ -73.994799, 40.71205 ] } },
{ "type": "Feature", "properties": { "id": 4989, "name": "The Bronx Brewery East Village", "addr": "64 2nd Ave, New York, New York, 10003, United States", "phone": "(718) 402-1000", "web": null, "lat": 291024.89219297952, "long": 1730146.4474096783, "from_id": 4989, "to_id": 4989, "walk": 0.0, "bike": 1.0, "transit": 0.0 }, "geometry": { "type": "Point", "coordinates": [ -73.989325, 40.725829 ] } },
{ "type": "Feature", "properties": { "id": 11534, "name": "Birreria @ Eataly", "addr": "200 5th Ave Fl 14, New York, New York, 10010-3302, United States", "phone": "(212) 539-0204", "web": "www.eatalyny.com", "lat": 292869.07266422873, "long": 1729731.2523939349, "from_id": 4989, "to_id": 11534, "walk": 26.0, "bike": 18.0, "transit": 22.0 }, "geometry": { "type": "Point", "coordinates": [ -73.988834, 40.742848 ] } },
{ "type": "Feature", "properties": { "id": 12821, "name": "Alphabet City Brewing Co", "addr": "96 Avenue C Frnt 4, New York, New York, 10009-7055, United States", "phone": "(914) 356-6809", "web": "www.acbnyc.com", "lat": 290990.37979430775, "long": 1731011.7750121041, "from_id": 4989, "to_id": 12821, "walk": 13.0, "bike": 9.0, "transit": 18.0 }, "geometry": { "type": "Point", "coordinates": [ -73.978846, 40.723659 ] } },
{ "type": "Feature", "properties": { "id": 13245, "name": "Heartland Brewery (#4)", "addr": "93 South Street at Fulton, New York, New York, 10038, United States", "phone": "(646) 572-2337", "web": null, "lat": 289035.33860381518, "long": 1729560.1955428415, "from_id": 4989, "to_id": 13245, "walk": 28.0, "bike": 18.0, "transit": 26.0 }, "geometry": { "type": "Point", "coordinates": [ -74.0025, 40.7097 ] } },
{ "type": "Feature", "properties": { "id": 17777, "name": "Randolph Beer", "addr": "343 Broome St, New York, New York, 10013-4236, United States", "phone": null, "web": null, "lat": 290239.07043229649, "long": 1729880.4330372475, "from_id": 4989, "to_id": 17777, "walk": 12.0, "bike": 11.0, "transit": 17.0 }, "geometry": { "type": "Point", "coordinates": [ -73.994951, 40.719533 ] } },
{ "type": "Feature", "properties": { "id": 17941, "name": "Beerternational", "addr": "428 E 10th St, New York, New York, 10009, United States", "phone": "(617) 893-3817", "web": null, "lat": 291195.80401581351, "long": 1731166.8321039435, "from_id": 4989, "to_id": 17941, "walk": 17.0, "bike": 10.0, "transit": 23.0 }, "geometry": { "type": "Point", "coordinates": [ -73.976329, 40.72512 ] } },
{ "type": "Feature", "properties": { "id": 19706, "name": "Torch & Crown Brewing Company", "addr": "12 Vandam St, New York, New York, 10013-1214, United States", "phone": "(201) 452-4196", "web": "www.torchandcrown.com", "lat": 290781.05240979855, "long": 1728981.4640153444, "from_id": 4989, "to_id": 19706, "walk": 20.0, "bike": 8.0, "transit": 19.0 }, "geometry": { "type": "Point", "coordinates": [ -74.00431, 40.726211 ] } },
{ "type": "Feature", "properties": { "id": 20656, "name": "Randolph Beer", "addr": "343 Broome St, New York, New York, 10013-4236, United States", "phone": null, "web": null, "lat": 290239.07043229649, "long": 1729880.4330372475, "from_id": 4989, "to_id": 20656, "walk": 12.0, "bike": 11.0, "transit": 17.0 }, "geometry": { "type": "Point", "coordinates": [ -73.994951, 40.719533 ] } },
{ "type": "Feature", "properties": { "id": 5015, "name": "The Alementary", "addr": "58 Voorhis Ln, Hackensack, New Jersey, 07601-4820, United States", "phone": "(201) 968-1290", "web": "www.alementary.com", "lat": 309338.55027983856, "long": 1721491.951611914, "from_id": 5015, "to_id": 5015, "walk": 0.0, "bike": 0.0, "transit": 0.0 }, "geometry": { "type": "Point", "coordinates": [ -74.040012, 40.904605 ] } },
{ "type": "Feature", "properties": { "id": 16507, "name": "Hackensack Brewing Company", "addr": "78 Johnson Ave, Hackensack, New Jersey, 07601-4824, United States", "phone": "(551) 265-8342", "web": "www.hackensackbrewing.com", "lat": 309211.39175288024, "long": 1721429.3533603956, "from_id": 5015, "to_id": 16507, "walk": 3.0, "bike": 3.0, "transit": 4.0 }, "geometry": { "type": "Point", "coordinates": [ -74.041164, 40.903628 ] } },
{ "type": "Feature", "properties": { "id": 5184, "name": "The Flagship Brewing Company", "addr": "40 Minthorne St, Staten Island, New York, 10301-3241, United States", "phone": "(718) 448-5284", "web": "www.flagshipbrewery.nyc", "lat": 279788.28852014366, "long": 1725847.4887266024, "from_id": 5184, "to_id": 5184, "walk": 0.0, "bike": 0.0, "transit": 0.0 }, "geometry": { "type": "Point", "coordinates": [ -74.075718, 40.636842 ] } },
{ "type": "Feature", "properties": { "id": 11567, "name": "Rubsam and Horrmann Brewing Company", "addr": "73 Wave St, Staten Island, New York, 10304, United States", "phone": "(623) 640-5371", "web": null, "lat": 279006.39502745698, "long": 1725917.0381654461, "from_id": 5184, "to_id": 11567, "walk": 11.0, "bike": 6.0, "transit": 13.0 }, "geometry": { "type": "Point", "coordinates": [ -74.077217, 40.629855 ] } },
{ "type": "Feature", "properties": { "id": 17979, "name": "Kills Boro Brewing Company", "addr": "60 Van Duzer St, Staten Island, New York, 10301-3226, United States", "phone": "(347) 277-8680", "web": "www.killsboro.com", "lat": 279702.7475633623, "long": 1725718.646535937, "from_id": 5184, "to_id": 17979, "walk": 4.0, "bike": 3.0, "transit": 5.0 }, "geometry": { "type": "Point", "coordinates": [ -74.077549, 40.636371 ] } },
{ "type": "Feature", "properties": { "id": 6063, "name": "Threes Brewing", "addr": "333 Douglass St, Brooklyn, New York, 11217-3115, United States", "phone": "(718) 522-2110", "web": "www.threesbrewing.com", "lat": 286191.79191558366, "long": 1731924.9971514039, "from_id": 6063, "to_id": 6063, "walk": 0.0, "bike": 1.0, "transit": 0.0 }, "geometry": { "type": "Point", "coordinates": [ -73.982172, 40.679736 ] } },
{ "type": "Feature", "properties": { "id": 10472, "name": "Strong Rope Brewery", "addr": "574A President St, Brooklyn, New York, 11215-1019, United States", "phone": "(585) 703-3010", "web": "www.strongropebrewery.com", "lat": 285837.96054940391, "long": 1731849.8022537499, "from_id": 6063, "to_id": 10472, "walk": 5.0, "bike": 7.0, "transit": 7.0 }, "geometry": { "type": "Point", "coordinates": [ -73.984159, 40.676805 ] } },
{ "type": "Feature", "properties": { "id": 11043, "name": "Other Half Brewing Company", "addr": "191 Centre St, Brooklyn, New York, 11231-3907, United States", "phone": "(917) 765-6107", "web": "www.otherhalfbrewing.com", "lat": 285240.08533893566, "long": 1730769.7904902208, "from_id": 6063, "to_id": 11043, "walk": 27.0, "bike": 14.0, "transit": 25.0 }, "geometry": { "type": "Point", "coordinates": [ -73.999162, 40.673909 ] } },
{ "type": "Feature", "properties": { "id": 11778, "name": "KelSo Beer Company", "addr": "529 Waverly Ave, Brooklyn, New York, 11238-2701, United States", "phone": null, "web": "www.kelsoofbrooklyn.com", "lat": 286822.19656536914, "long": 1733128.282930051, "from_id": 6063, "to_id": 11778, "walk": 24.0, "bike": 11.0, "transit": 27.0 }, "geometry": { "type": "Point", "coordinates": [ -73.965562, 40.682648 ] } },
{ "type": "Feature", "properties": { "id": 12556, "name": "Finback Brooklyn", "addr": "545 President St, Brooklyn, New York, 11215, United States", "phone": "(347) 227-8008", "web": null, "lat": 285903.29349897167, "long": 1731785.9645614917, "from_id": 6063, "to_id": 12556, "walk": 6.0, "bike": 5.0, "transit": 8.0 }, "geometry": { "type": "Point", "coordinates": [ -73.984742, 40.677514 ] } },
{ "type": "Feature", "properties": { "id": 14260, "name": "Wild East Brewing Co.", "addr": "623 Sackett St, Brooklyn, New York, 11217-3116, United States", "phone": "718-797-5135", "web": "www.wildeastbrewing.com", "lat": 286055.44654308492, "long": 1731862.9401824442, "from_id": 6063, "to_id": 14260, "walk": 3.0, "bike": 4.0, "transit": 4.0 }, "geometry": { "type": "Point", "coordinates": [ -73.983342, 40.678678 ] } },
{ "type": "Feature", "properties": { "id": 15825, "name": "Circa Brewing Co", "addr": "141 Lawrence St, Brooklyn, None, 11201, United States", "phone": "(718) 858-0055", "web": "www.circabrewing.co", "lat": 287404.19103697268, "long": 1731309.6191341702, "from_id": 6063, "to_id": 15825, "walk": 22.0, "bike": 9.0, "transit": 17.0 }, "geometry": { "type": "Point", "coordinates": [ -73.986034, 40.691664 ] } },
{ "type": "Feature", "properties": { "id": 17836, "name": "Back Home Beer", "addr": "633 Union Street, Unit 1, Brooklyn, New York, 11215, United States", "phone": "(917) 817-9313", "web": "www.backhomebeer.com", "lat": 285976.37575338513, "long": 1731821.5921587087, "from_id": 6063, "to_id": 17836, "walk": 4.0, "bike": 4.0, "transit": 6.0 }, "geometry": { "type": "Point", "coordinates": [ -73.984086, 40.678076 ] } },
{ "type": "Feature", "properties": { "id": 6182, "name": "New Jersey Beer Company", "addr": "4201 Tonnelle Ave, North Bergen, New Jersey, 07047-2430, United States", "phone": "(201) 758-8342", "web": "www.njbeerco.com", "lat": 296303.93478030118, "long": 1725093.3302409418, "from_id": 6182, "to_id": 6182, "walk": 0.0, "bike": 0.0, "transit": 0.0 }, "geometry": { "type": "Point", "coordinates": [ -74.035227, 40.78288 ] } },
{ "type": "Feature", "properties": { "id": 6496, "name": "Newark Local Beer", "addr": "540 Broad St, Upper Montclair, New Jersey, 07102, United States", "phone": "(973) 856-2234", "web": "www.newarklocalbeer.com", "lat": 289486.90687022073, "long": 1715858.3257565463, "from_id": 6496, "to_id": 6496, "walk": 0.0, "bike": 0.0, "transit": 0.0 }, "geometry": { "type": "Point", "coordinates": [ -74.168771, 40.743098 ] } },
{ "type": "Feature", "properties": { "id": 4482, "name": "Sean McGoldrick Household", "addr": "43 Herbert St, Brooklyn, NY 11222, Brooklyn, None, 11206, United States", "phone": null, "web": null, "lat": 289377.25279891567, "long": 1734415.8369710131, "from_id": 6751, "to_id": 4482, "walk": 23.0, "bike": 7.0, "transit": 27.0 }, "geometry": { "type": "Point", "coordinates": [ -73.9421, 40.7022 ] } },
{ "type": "Feature", "properties": { "id": 6751, "name": "Grimm Artisanal Ales", "addr": "990 Metropolitan Ave, BROOKLYN, None, 11215, United States", "phone": "9175884084", "web": "GrimmAles.com", "lat": 290784.3002692943, "long": 1734523.7837160453, "from_id": 6751, "to_id": 6751, "walk": 0.0, "bike": 0.0, "transit": 0.0 }, "geometry": { "type": "Point", "coordinates": [ -73.936523, 40.714266 ] } },
{ "type": "Feature", "properties": { "id": 7273, "name": "18th Ward Brewing", "addr": "300 Richardson Street, Brooklyn, New York, 11222, United States", "phone": "(718) 387-4025", "web": "/www.18thwardbrewing.com", "lat": 291290.61561088869, "long": 1734147.4759335187, "from_id": 6751, "to_id": 7273, "walk": 11.0, "bike": 4.0, "transit": 15.0 }, "geometry": { "type": "Point", "coordinates": [ -73.939592, 40.719506 ] } },
{ "type": "Feature", "properties": { "id": 10458, "name": "Keg & Lantern Brewing Co", "addr": "97 Nassau Ave, Brooklyn, New York, 11222-3081, United States", "phone": "(718) 389-5050", "web": "www.kegandlanternbrooklyn.com", "lat": 291582.25083611888, "long": 1733193.7713318802, "from_id": 6751, "to_id": 10458, "walk": 24.0, "bike": 8.0, "transit": 26.0 }, "geometry": { "type": "Point", "coordinates": [ -73.950372, 40.724118 ] } },
{ "type": "Feature", "properties": { "id": 10722, "name": "Kings County Brewers Collective", "addr": "381 Troutman St, Brooklyn, New York, 11237-2613, United States", "phone": "(718) 288-2891", "web": "www.kcbcbeer.com", "lat": 290146.12535900588, "long": 1735729.5751323786, "from_id": 6751, "to_id": 10722, "walk": 22.0, "bike": 9.0, "transit": 19.0 }, "geometry": { "type": "Point", "coordinates": [ -73.923713, 40.706078 ] } },
{ "type": "Feature", "properties": { "id": 13419, "name": "Non Sequitur Beer Project", "addr": "8 Wilson Ave, Brooklyn, New York, 11206, United States", "phone": null, "web": "www.nonsequiturbeer.com", "lat": 289730.66476680723, "long": 1735241.4361552291, "from_id": 6751, "to_id": 13419, "walk": 17.0, "bike": 6.0, "transit": 21.0 }, "geometry": { "type": "Point", "coordinates": [ -73.930938, 40.703503 ] } },
{ "type": "Feature", "properties": { "id": 15634, "name": "Brooklyn Brewery", "addr": "79 N 11th St, Brooklyn, New York, 11249-1913, United States", "phone": "(718) 486-7422", "web": "www.brooklynbrewery.com", "lat": 291183.28758370428, "long": 1732686.9931418435, "from_id": 6751, "to_id": 15634, "walk": 29.0, "bike": 11.0, "transit": 28.0 }, "geometry": { "type": "Point", "coordinates": [ -73.957776, 40.721726 ] } },
{ "type": "Feature", "properties": { "id": 17791, "name": "Interboro Spirits And Ales", "addr": "942 Grand St, Brooklyn, New York, 11211-2707, United States", "phone": "(646) 245-5417", "web": "www.interboro.nyc", "lat": 290596.83002212469, "long": 1734538.6966817921, "from_id": 6751, "to_id": 17791, "walk": 5.0, "bike": 1.0, "transit": 7.0 }, "geometry": { "type": "Point", "coordinates": [ -73.936908, 40.712595 ] } },
{ "type": "Feature", "properties": { "id": 17862, "name": "TALEA Beer Co", "addr": "87 Richardston St, Brooklyn, New York, 11211, United States", "phone": "(415) 713-8998", "web": "www.taleabeer.com", "lat": 291037.94952922076, "long": 1733507.7485732816, "from_id": 6751, "to_id": 17862, "walk": 17.0, "bike": 7.0, "transit": 24.0 }, "geometry": { "type": "Point", "coordinates": [ -73.948179, 40.718681 ] } },
{ "type": "Feature", "properties": { "id": 6857, "name": "Yale Terrace Brewery", "addr": "26 Eastman St, Cranford, New Jersey, 07016, United States", "phone": "(973) 996-8601", "web": "www.ytbrewery.com", "lat": 277520.52306068724, "long": 1707589.7149311756, "from_id": 6857, "to_id": 6857, "walk": 0.0, "bike": 0.0, "transit": 0.0 }, "geometry": { "type": "Point", "coordinates": [ -74.305651, 40.656062 ] } },
{ "type": "Feature", "properties": { "id": 10662, "name": "Climax Brewing Co", "addr": "112 Valley Rd, Roselle Park, New Jersey, 07204-1402, United States", "phone": "(908) 620-9585", "web": "www.climaxbrewing.com", "lat": 278341.90622072085, "long": 1709242.8795218482, "from_id": 6857, "to_id": 10662, "walk": 26.0, "bike": 18.0, "transit": null }, "geometry": { "type": "Point", "coordinates": [ -74.282992, 40.659729 ] } },
{ "type": "Feature", "properties": { "id": 4482, "name": "Sean McGoldrick Household", "addr": "43 Herbert St, Brooklyn, NY 11222, Brooklyn, None, 11206, United States", "phone": null, "web": null, "lat": 289377.25279891567, "long": 1734415.8369710131, "from_id": 7273, "to_id": 4482, "walk": 27.0, "bike": 8.0, "transit": 29.0 }, "geometry": { "type": "Point", "coordinates": [ -73.9421, 40.7022 ] } },
{ "type": "Feature", "properties": { "id": 4840, "name": "Atmosphere Brewery", "addr": "221 Banker Street, Brooklyn, New York, 11222, United States", "phone": "9174074102", "web": "www.atmospherebrewery.com", "lat": 291650.56264380913, "long": 1732751.6686490071, "from_id": 7273, "to_id": 4840, "walk": 23.0, "bike": 9.0, "transit": 30.0 }, "geometry": { "type": "Point", "coordinates": [ -73.955572, 40.725671 ] } },
{ "type": "Feature", "properties": { "id": 6751, "name": "Grimm Artisanal Ales", "addr": "990 Metropolitan Ave, BROOKLYN, None, 11215, United States", "phone": "9175884084", "web": "GrimmAles.com", "lat": 290784.3002692943, "long": 1734523.7837160453, "from_id": 7273, "to_id": 6751, "walk": 11.0, "bike": 5.0, "transit": 15.0 }, "geometry": { "type": "Point", "coordinates": [ -73.936523, 40.714266 ] } },
{ "type": "Feature", "properties": { "id": 7273, "name": "18th Ward Brewing", "addr": "300 Richardson Street, Brooklyn, New York, 11222, United States", "phone": "(718) 387-4025", "web": "/www.18thwardbrewing.com", "lat": 291290.61561088869, "long": 1734147.4759335187, "from_id": 7273, "to_id": 7273, "walk": 0.0, "bike": 0.0, "transit": 0.0 }, "geometry": { "type": "Point", "coordinates": [ -73.939592, 40.719506 ] } },
{ "type": "Feature", "properties": { "id": 10458, "name": "Keg & Lantern Brewing Co", "addr": "97 Nassau Ave, Brooklyn, New York, 11222-3081, United States", "phone": "(718) 389-5050", "web": "www.kegandlanternbrooklyn.com", "lat": 291582.25083611888, "long": 1733193.7713318802, "from_id": 7273, "to_id": 10458, "walk": 15.0, "bike": 6.0, "transit": 21.0 }, "geometry": { "type": "Point", "coordinates": [ -73.950372, 40.724118 ] } },
{ "type": "Feature", "properties": { "id": 13419, "name": "Non Sequitur Beer Project", "addr": "8 Wilson Ave, Brooklyn, New York, 11206, United States", "phone": null, "web": "www.nonsequiturbeer.com", "lat": 289730.66476680723, "long": 1735241.4361552291, "from_id": 7273, "to_id": 13419, "walk": 25.0, "bike": 8.0, "transit": 26.0 }, "geometry": { "type": "Point", "coordinates": [ -73.930938, 40.703503 ] } },
{ "type": "Feature", "properties": { "id": 15634, "name": "Brooklyn Brewery", "addr": "79 N 11th St, Brooklyn, New York, 11249-1913, United States", "phone": "(718) 486-7422", "web": "www.brooklynbrewery.com", "lat": 291183.28758370428, "long": 1732686.9931418435, "from_id": 7273, "to_id": 15634, "walk": 22.0, "bike": 8.0, "transit": 30.0 }, "geometry": { "type": "Point", "coordinates": [ -73.957776, 40.721726 ] } },
{ "type": "Feature", "properties": { "id": 17791, "name": "Interboro Spirits And Ales", "addr": "942 Grand St, Brooklyn, New York, 11211-2707, United States", "phone": "(646) 245-5417", "web": "www.interboro.nyc", "lat": 290596.83002212469, "long": 1734538.6966817921, "from_id": 7273, "to_id": 17791, "walk": 14.0, "bike": 6.0, "transit": 19.0 }, "geometry": { "type": "Point", "coordinates": [ -73.936908, 40.712595 ] } },
{ "type": "Feature", "properties": { "id": 17862, "name": "TALEA Beer Co", "addr": "87 Richardston St, Brooklyn, New York, 11211, United States", "phone": "(415) 713-8998", "web": "www.taleabeer.com", "lat": 291037.94952922076, "long": 1733507.7485732816, "from_id": 7273, "to_id": 17862, "walk": 10.0, "bike": 4.0, "transit": 14.0 }, "geometry": { "type": "Point", "coordinates": [ -73.948179, 40.718681 ] } },
{ "type": "Feature", "properties": { "id": 7282, "name": "J.J. Bitting Brewing Co.", "addr": "33 Main St, Woodbridge, New Jersey, 07095-3335, United States", "phone": "(732) 634-2929", "web": "www.njbrewpubs.com", "lat": 267104.19990497921, "long": 1712455.9751557123, "from_id": 7282, "to_id": 7282, "walk": 0.0, "bike": 0.0, "transit": 0.0 }, "geometry": { "type": "Point", "coordinates": [ -74.277169, 40.554558 ] } },
{ "type": "Feature", "properties": { "id": 7365, "name": "Magnify Brewing Company", "addr": "1275 Bloomfield Ave Ste 7 Unit 40C, Fairfield, New Jersey, 07004-2736, United States", "phone": "973-287-6099", "web": "www.magnifybrewing.com", "lat": 299311.6169303981, "long": 1701353.3005142738, "from_id": 7365, "to_id": 7365, "walk": 0.0, "bike": 0.0, "transit": 0.0 }, "geometry": { "type": "Point", "coordinates": [ -74.317139, 40.860004 ] } },
{ "type": "Feature", "properties": { "id": 8053, "name": "Cypress Brewing Company", "addr": "30 Nixon Ln Unit E, Edison, New Jersey, 08837-3844, United States", "phone": "(732) 243-9565", "web": "www.cypressbrewing.com", "lat": 259375.98255687018, "long": 1707051.6689899305, "from_id": 8053, "to_id": 8053, "walk": 0.0, "bike": 0.0, "transit": 0.0 }, "geometry": { "type": "Point", "coordinates": [ -74.366046, 40.498424 ] } },
{ "type": "Feature", "properties": { "id": 8200, "name": "Twin Elephant Brewing Company", "addr": "13 Watchung Ave., Chatham, New Jersey, 07928, United States", "phone": "(973) 507-9862", "web": "www.twinelephant.com", "lat": 283987.26430324727, "long": 1699882.4987439935, "from_id": 8200, "to_id": 8200, "walk": 0.0, "bike": 0.0, "transit": 0.0 }, "geometry": { "type": "Point", "coordinates": [ -74.380747, 40.729026 ] } },
{ "type": "Feature", "properties": { "id": 16151, "name": "Bull n Bear Brewery", "addr": "425 Springfield Ave, Summit, New Jersey, 07901, United States", "phone": "(908) 219-4255", "web": "www.bullnbearbrewery.com", "lat": 283201.0679564153, "long": 1701799.9291887926, "from_id": 8200, "to_id": 16151, "walk": 29.0, "bike": 20.0, "transit": null }, "geometry": { "type": "Point", "coordinates": [ -74.359606, 40.718077 ] } },
{ "type": "Feature", "properties": { "id": 20995, "name": "Bull n Bear Brewery", "addr": "425 Springfield Ave, Summit, New Jersey, 07901, United States", "phone": "(908) 219-4255", "web": "www.bullnbearbrewery.com", "lat": 283201.0679564153, "long": 1701799.9291887926, "from_id": 8200, "to_id": 20995, "walk": 29.0, "bike": 20.0, "transit": null }, "geometry": { "type": "Point", "coordinates": [ -74.359606, 40.718077 ] } },
{ "type": "Feature", "properties": { "id": 8358, "name": "Two Ton Brewing", "addr": "730 Federal Ave, Kenilworth, New Jersey, 07033, United States", "phone": null, "web": "www.twotonbrewing.com", "lat": 280337.59249141102, "long": 1708489.1439070546, "from_id": 8358, "to_id": 8358, "walk": 0.0, "bike": 0.0, "transit": 0.0 }, "geometry": { "type": "Point", "coordinates": [ -74.286268, 40.678796 ] } },
{ "type": "Feature", "properties": { "id": 8523, "name": "Barrier Brewing Co", "addr": "3001 New St Ste A2, Oceanside, New York, 11572-2747, United States", "phone": "(516) 594-1028", "web": "www.barrierbrewing.com", "lat": 287906.06819982361, "long": 1758207.3812439879, "from_id": 8523, "to_id": 8523, "walk": 1.0, "bike": 1.0, "transit": 1.0 }, "geometry": { "type": "Point", "coordinates": [ -73.65599, 40.637554 ] } },
{ "type": "Feature", "properties": { "id": 13218, "name": "Long Beach Brewing Company", "addr": "3350A Lawson Blvd, Oceanside, New York, 11572, United States", "phone": "(917) 597-3129", "web": "www.longbeachbrew.com", "lat": 287101.89657348662, "long": 1758675.1776216228, "from_id": 8523, "to_id": 13218, "walk": 13.0, "bike": 7.0, "transit": 17.0 }, "geometry": { "type": "Point", "coordinates": [ -73.652743, 40.629505 ] } },
{ "type": "Feature", "properties": { "id": 17142, "name": "Flying Belgian Brewery", "addr": "3350A Lawson Blvd, Oceanside, New York, 11572, United States", "phone": "(818) 457-7548", "web": "www.flyingbelgian.com", "lat": 287101.89657348662, "long": 1758675.1776216228, "from_id": 8523, "to_id": 17142, "walk": 13.0, "bike": 7.0, "transit": 17.0 }, "geometry": { "type": "Point", "coordinates": [ -73.652743, 40.629505 ] } },
{ "type": "Feature", "properties": { "id": 17232, "name": "South Shore Craft Brewery", "addr": "3505 Hampton Rd, Oceanside, New York, 11572, United States", "phone": "(516) 587-4145", "web": "https://www.southshorecraftbrewery.com/", "lat": 286586.62824826897, "long": 1758676.231859399, "from_id": 8523, "to_id": 17232, "walk": 21.0, "bike": 8.0, "transit": 29.0 }, "geometry": { "type": "Point", "coordinates": [ -73.654307, 40.625002 ] } },
{ "type": "Feature", "properties": { "id": 8951, "name": "Garvies Point Brewery", "addr": "1 Garvies Point Rd, Glen Cove, New York, 11542-2821, United States", "phone": "(516) 277-2787", "web": "www.garviespointbrewery.com", "lat": 312164.68990030582, "long": 1753268.8539263352, "from_id": 8951, "to_id": 8951, "walk": 0.0, "bike": 1.0, "transit": 1.0 }, "geometry": { "type": "Point", "coordinates": [ -73.641965, 40.860259 ] } },
{ "type": "Feature", "properties": { "id": 9161, "name": "Alewife Brewing", "addr": "41-11 39th Street, Queens, New York, 11104, United States", "phone": "(917) 238-2449", "web": "www.alewife.beer", "lat": 294522.17952227371, "long": 1734520.6972063349, "from_id": 9161, "to_id": 9161, "walk": 0.0, "bike": 0.0, "transit": 0.0 }, "geometry": { "type": "Point", "coordinates": [ -73.925243, 40.746946 ] } },
{ "type": "Feature", "properties": { "id": 9550, "name": "Alewife NYC", "addr": "5/14 51st Ave, Long Island City, New York, 11101, United States", "phone": "(917) 238-2449", "web": null, "lat": 294165.42383848823, "long": 1733378.1388370597, "from_id": 9161, "to_id": 9550, "walk": 21.0, "bike": 10.0, "transit": 24.0 }, "geometry": { "type": "Point", "coordinates": [ -73.9403, 40.7463 ] } },
{ "type": "Feature", "properties": { "id": 12231, "name": "Fifth Hammer Brewing Company", "addr": "1028 46th Ave, Long Island City, New York, 11101-5217, United States", "phone": "(718) 663-2084", "web": "www.fifthhammerbrewing.com", "lat": 293962.75390962081, "long": 1732507.1754980877, "from_id": 9161, "to_id": 12231, "walk": 29.0, "bike": 18.0, "transit": 27.0 }, "geometry": { "type": "Point", "coordinates": [ -73.951568, 40.746412 ] } },
{ "type": "Feature", "properties": { "id": 16786, "name": "Iconyc Brewing Company", "addr": "43-63 11th St, Long Island City, New York, 11101, United States", "phone": null, "web": "www.iconycbrewing.com", "lat": 294422.72817411873, "long": 1732627.8328640377, "from_id": 9161, "to_id": 16786, "walk": 29.0, "bike": 13.0, "transit": 27.0 }, "geometry": { "type": "Point", "coordinates": [ -73.9487, 40.750172 ] } },
{ "type": "Feature", "properties": { "id": 18573, "name": "LIC Beer Project", "addr": "3928 23rd St, Long Island City, New York, 11101-4817, United States", "phone": "(917) 832-6840", "web": "licbeerproject.com", "lat": 295156.54817061825, "long": 1733253.6673850997, "from_id": 9161, "to_id": 18573, "walk": 21.0, "bike": 8.0, "transit": 27.0 }, "geometry": { "type": "Point", "coordinates": [ -73.938822, 40.755233 ] } },
{ "type": "Feature", "properties": { "id": 21224, "name": "Iconyc Brewing Company", "addr": "43-63 11th St, Long Island City, New York, 11101, United States", "phone": null, "web": "www.iconycbrewing.com", "lat": 294422.72817411873, "long": 1732627.8328640377, "from_id": 9161, "to_id": 21224, "walk": 29.0, "bike": 13.0, "transit": 27.0 }, "geometry": { "type": "Point", "coordinates": [ -73.9487, 40.750172 ] } },
{ "type": "Feature", "properties": { "id": 9161, "name": "Alewife Brewing", "addr": "41-11 39th Street, Queens, New York, 11104, United States", "phone": "(917) 238-2449", "web": "www.alewife.beer", "lat": 294522.17952227371, "long": 1734520.6972063349, "from_id": 9550, "to_id": 9161, "walk": 21.0, "bike": 11.0, "transit": 25.0 }, "geometry": { "type": "Point", "coordinates": [ -73.925243, 40.746946 ] } },
{ "type": "Feature", "properties": { "id": 9550, "name": "Alewife NYC", "addr": "5/14 51st Ave, Long Island City, New York, 11101, United States", "phone": "(917) 238-2449", "web": null, "lat": 294165.42383848823, "long": 1733378.1388370597, "from_id": 9550, "to_id": 9550, "walk": 0.0, "bike": 0.0, "transit": 0.0 }, "geometry": { "type": "Point", "coordinates": [ -73.9403, 40.7463 ] } },
{ "type": "Feature", "properties": { "id": 12231, "name": "Fifth Hammer Brewing Company", "addr": "1028 46th Ave, Long Island City, New York, 11101-5217, United States", "phone": "(718) 663-2084", "web": "www.fifthhammerbrewing.com", "lat": 293962.75390962081, "long": 1732507.1754980877, "from_id": 9550, "to_id": 12231, "walk": 14.0, "bike": 13.0, "transit": 19.0 }, "geometry": { "type": "Point", "coordinates": [ -73.951568, 40.746412 ] } },
{ "type": "Feature", "properties": { "id": 13079, "name": "Greenpoint Beer", "addr": "1150 Manhattan Ave, Brooklyn, New York, 11222, United States", "phone": "(917) 750-1541", "web": "www.greenpointbeer.com", "lat": 292952.60568343103, "long": 1732463.5267148733, "from_id": 9550, "to_id": 13079, "walk": 25.0, "bike": 20.0, "transit": 26.0 }, "geometry": { "type": "Point", "coordinates": [ -73.955158, 40.737676 ] } },
{ "type": "Feature", "properties": { "id": 16786, "name": "Iconyc Brewing Company", "addr": "43-63 11th St, Long Island City, New York, 11101, United States", "phone": null, "web": "www.iconycbrewing.com", "lat": 294422.72817411873, "long": 1732627.8328640377, "from_id": 9550, "to_id": 16786, "walk": 13.0, "bike": 8.0, "transit": 17.0 }, "geometry": { "type": "Point", "coordinates": [ -73.9487, 40.750172 ] } },
{ "type": "Feature", "properties": { "id": 17361, "name": "Rockaway Brewing Company", "addr": "4601 5th St, Long Island City, New York, 11101-5369, United States", "phone": "(718) 482-6528", "web": "www.rockawaybrewco.com", "lat": 293970.88839069178, "long": 1732240.8063310764, "from_id": 9550, "to_id": 17361, "walk": 17.0, "bike": 11.0, "transit": 23.0 }, "geometry": { "type": "Point", "coordinates": [ -73.954802, 40.747059 ] } },
{ "type": "Feature", "properties": { "id": 17660, "name": "Big aLICe Brewing Company", "addr": "808 43rd Rd, Long Island City, New York, 11101-6820, United States", "phone": "(347) 688-2337", "web": "www.bigalicebrewing.com", "lat": 294589.76805558533, "long": 1732431.3737488093, "from_id": 9550, "to_id": 17660, "walk": 15.0, "bike": 9.0, "transit": 21.0 }, "geometry": { "type": "Point", "coordinates": [ -73.950598, 40.752057 ] } },
{ "type": "Feature", "properties": { "id": 18573, "name": "LIC Beer Project", "addr": "3928 23rd St, Long Island City, New York, 11101-4817, United States", "phone": "(917) 832-6840", "web": "licbeerproject.com", "lat": 295156.54817061825, "long": 1733253.6673850997, "from_id": 9550, "to_id": 18573, "walk": 15.0, "bike": 7.0, "transit": 21.0 }, "geometry": { "type": "Point", "coordinates": [ -73.938822, 40.755233 ] } },
{ "type": "Feature", "properties": { "id": 20667, "name": "Big aLICe Brewing Company", "addr": "808 43rd Rd, Long Island City, New York, 11101-6820, United States", "phone": "(347) 688-2337", "web": "www.bigalicebrewing.com", "lat": 294589.76805558533, "long": 1732431.3737488093, "from_id": 9550, "to_id": 20667, "walk": 15.0, "bike": 9.0, "transit": 21.0 }, "geometry": { "type": "Point", "coordinates": [ -73.950598, 40.752057 ] } },
{ "type": "Feature", "properties": { "id": 21224, "name": "Iconyc Brewing Company", "addr": "43-63 11th St, Long Island City, New York, 11101, United States", "phone": null, "web": "www.iconycbrewing.com", "lat": 294422.72817411873, "long": 1732627.8328640377, "from_id": 9550, "to_id": 21224, "walk": 13.0, "bike": 8.0, "transit": 17.0 }, "geometry": { "type": "Point", "coordinates": [ -73.9487, 40.750172 ] } },
{ "type": "Feature", "properties": { "id": 9678, "name": "Daleview Brewery", "addr": "1170 Nostrand Ave, Brooklyn, New York, 11225, United States", "phone": null, "web": "Biscuitsandbeer.nyc", "lat": 284547.30441571923, "long": 1734901.1601722981, "from_id": 9678, "to_id": 9678, "walk": 0.0, "bike": 4.0, "transit": 0.0 }, "geometry": { "type": "Point", "coordinates": [ -73.950772, 40.658929 ] } },
{ "type": "Feature", "properties": { "id": 2111, "name": "Bronx Brewery Hudson Yards", "addr": "20 Hudson Yards, New York, New York, 10001, United States", "phone": null, "web": "thebronxbrewery.com/hudson-yards-location-2", "lat": 293746.69581476023, "long": 1729509.167468146, "from_id": 9729, "to_id": 2111, "walk": 10.0, "bike": 7.0, "transit": 13.0 }, "geometry": { "type": "Point", "coordinates": [ -73.9889, 40.751 ] } },
{ "type": "Feature", "properties": { "id": 9729, "name": "Radiant Pig Craft Beers", "addr": "122 W 27th St Fl 10, New York, New York, 10001-6227, United States", "phone": null, "web": null, "lat": 293114.76166702481, "long": 1729386.0655381647, "from_id": 9729, "to_id": 9729, "walk": 0.0, "bike": 1.0, "transit": 0.0 }, "geometry": { "type": "Point", "coordinates": [ -73.992315, 40.745741 ] } },
{ "type": "Feature", "properties": { "id": 11534, "name": "Birreria @ Eataly", "addr": "200 5th Ave Fl 14, New York, New York, 10010-3302, United States", "phone": "(212) 539-0204", "web": "www.eatalyny.com", "lat": 292869.07266422873, "long": 1729731.2523939349, "from_id": 9729, "to_id": 11534, "walk": 6.0, "bike": 2.0, "transit": 9.0 }, "geometry": { "type": "Point", "coordinates": [ -73.988834, 40.742848 ] } },
{ "type": "Feature", "properties": { "id": 12381, "name": "Death Avenue", "addr": "315 10th Ave, New York, New York, 10001-1416, United States", "phone": "(212) 695-8080", "web": "www.deathave.com", "lat": 293509.98054739099, "long": 1728490.8251980385, "from_id": 9729, "to_id": 12381, "walk": 13.0, "bike": 12.0, "transit": 18.0 }, "geometry": { "type": "Point", "coordinates": [ -74.002075, 40.751128 ] } },
{ "type": "Feature", "properties": { "id": 13244, "name": "Heartland Brewery (# 2)", "addr": "1285 6th Ave Fl CONC1, New York, New York, 10019-6086, United States", "phone": "(212) 582-8244", "web": "www.heartlandbrewery.com/", "lat": 295001.32752627868, "long": 1729882.7099410843, "from_id": 9729, "to_id": 13244, "walk": 26.0, "bike": 22.0, "transit": 19.0 }, "geometry": { "type": "Point", "coordinates": [ -73.980538, 40.761162 ] } },
{ "type": "Feature", "properties": { "id": 16608, "name": "Toast Ale", "addr": "601 W 26th St Ste 325-291, New York, New York, 10001-1101, United States", "phone": "(916) 202-3851", "web": "www.toastale.com/us", "lat": 293474.38705177268, "long": 1728133.3112055443, "from_id": 9729, "to_id": 16608, "walk": 17.0, "bike": 12.0, "transit": 24.0 }, "geometry": { "type": "Point", "coordinates": [ -74.006557, 40.751588 ] } },
{ "type": "Feature", "properties": { "id": 9747, "name": "Montclair Brewery", "addr": "101 Walnut St, Montclair, New Jersey, 07042-4038, United States", "phone": "(973) 780-7513", "web": "www.montclairbrewery.com", "lat": 296651.71031176293, "long": 1710638.6303521339, "from_id": 9747, "to_id": 9747, "walk": 0.0, "bike": 0.0, "transit": 0.0 }, "geometry": { "type": "Point", "coordinates": [ -74.211239, 40.816936 ] } },
{ "type": "Feature", "properties": { "id": 18886, "name": "Egan & Sons", "addr": "118 Walnut St, Montclair, New Jersey, 07042-3852, United States", "phone": "(973) 744-1413", "web": "www.eganandsons.com", "lat": 296727.71595925104, "long": 1710573.061388277, "from_id": 9747, "to_id": 18886, "walk": 1.0, "bike": 0.0, "transit": 2.0 }, "geometry": { "type": "Point", "coordinates": [ -74.211815, 40.817741 ] } },
{ "type": "Feature", "properties": { "id": 9950, "name": "Wet Ticket Brewing", "addr": "1435 Main St, Rahway, New Jersey, 07065, United States", "phone": "(908) 616-9091", "web": "www.wetticketbrewing.com", "lat": 272679.50174772437, "long": 1711361.284109513, "from_id": 9950, "to_id": 9950, "walk": 0.0, "bike": 0.0, "transit": 0.0 }, "geometry": { "type": "Point", "coordinates": [ -74.273954, 40.605672 ] } },
{ "type": "Feature", "properties": { "id": 9965, "name": "Coastal Brew Works LLC", "addr": "195 M Gold Street, North Arlington, New Jersey, 07031, United States", "phone": "(201) 640-5260", "web": "www.coastalbrewworks.com", "lat": 295749.67117863084, "long": 1717353.3274316606, "from_id": 9965, "to_id": 9965, "walk": 0.0, "bike": 0.0, "transit": 0.0 }, "geometry": { "type": "Point", "coordinates": [ -74.131677, 40.79467 ] } },
{ "type": "Feature", "properties": { "id": 3201, "name": "18th Ward Brewing", "addr": "40 Division Street, New Rochelle, New York, 10801, United States", "phone": null, "web": null, "lat": 314705.41217482521, "long": 1741043.4306139559, "from_id": 10127, "to_id": 3201, "walk": 13.0, "bike": 16.0, "transit": 18.0 }, "geometry": { "type": "Point", "coordinates": [ -73.783958, 40.909167 ] } },
{ "type": "Feature", "properties": { "id": 10127, "name": "Brewery In Planning - New Rochelle", "addr": "None, New Rochelle, New York, 10801, United States", "phone": "(914) 447-2787", "web": null, "lat": 315461.73246294598, "long": 1740802.5150137465, "from_id": 10127, "to_id": 10127, "walk": 0.0, "bike": 0.0, "transit": 0.0 }, "geometry": { "type": "Point", "coordinates": [ -73.7846, 40.9163 ] } },
{ "type": "Feature", "properties": { "id": 13596, "name": "Diner Brew Co.", "addr": "40 Division St, New Rochelle, New York, 10801, United States", "phone": "(914) 229-3472", "web": "www.dinerbrewco.com", "lat": 314730.23977246432, "long": 1741092.0604431189, "from_id": 10127, "to_id": 13596, "walk": 13.0, "bike": 15.0, "transit": 19.0 }, "geometry": { "type": "Point", "coordinates": [ -73.783286, 40.909278 ] } },
{ "type": "Feature", "properties": { "id": 10362, "name": "Brainy Borough Brewing", "addr": "15 Station Place, Metuchen, New Jersey, 08840, United States", "phone": "(732) 921-9895", "web": null, "lat": 264124.88239651069, "long": 1706352.4053183324, "from_id": 10362, "to_id": 10362, "walk": 0.0, "bike": 0.0, "transit": 0.0 }, "geometry": { "type": "Point", "coordinates": [ -74.360523, 40.541469 ] } },
{ "type": "Feature", "properties": { "id": 10429, "name": "Queens Brewery", "addr": "1539 Covert St, Ridgewood, New York, 11385-5356, United States", "phone": "(646) 265-2049", "web": "www.queensbrewery.com", "lat": 289322.5995572402, "long": 1737519.1053057357, "from_id": 10429, "to_id": 10429, "walk": 0.0, "bike": 0.0, "transit": 0.0 }, "geometry": { "type": "Point", "coordinates": [ -73.904333, 40.695004 ] } },
{ "type": "Feature", "properties": { "id": 10722, "name": "Kings County Brewers Collective", "addr": "381 Troutman St, Brooklyn, New York, 11237-2613, United States", "phone": "(718) 288-2891", "web": "www.kcbcbeer.com", "lat": 290146.12535900588, "long": 1735729.5751323786, "from_id": 10429, "to_id": 10722, "walk": 28.0, "bike": 10.0, "transit": 11.0 }, "geometry": { "type": "Point", "coordinates": [ -73.923713, 40.706078 ] } },
{ "type": "Feature", "properties": { "id": 12073, "name": "Bridge And Tunnel Brewery", "addr": "1535 Decatur St, Ridgewood, New York, 11385-5818, United States", "phone": "(347) 392-8593", "web": "www.bridgeandtunnelbrewery.com", "lat": 289223.01058464998, "long": 1737666.1144721177, "from_id": 10429, "to_id": 12073, "walk": 4.0, "bike": 2.0, "transit": 6.0 }, "geometry": { "type": "Point", "coordinates": [ -73.902838, 40.693815 ] } },
{ "type": "Feature", "properties": { "id": 16637, "name": "Evil Twin Brewing", "addr": "1616 George St, Ridgewood, New York, 11385, United States", "phone": "(718) 366-1850", "web": "www.eviltwin.nyc", "lat": 289488.56220051646, "long": 1737512.0003847957, "from_id": 10429, "to_id": 16637, "walk": 4.0, "bike": 2.0, "transit": 5.0 }, "geometry": { "type": "Point", "coordinates": [ -73.903917, 40.69647 ] } },
{ "type": "Feature", "properties": { "id": 4840, "name": "Atmosphere Brewery", "addr": "221 Banker Street, Brooklyn, New York, 11222, United States", "phone": "9174074102", "web": "www.atmospherebrewery.com", "lat": 291650.56264380913, "long": 1732751.6686490071, "from_id": 10458, "to_id": 4840, "walk": 8.0, "bike": 5.0, "transit": 11.0 }, "geometry": { "type": "Point", "coordinates": [ -73.955572, 40.725671 ] } },
{ "type": "Feature", "properties": { "id": 6751, "name": "Grimm Artisanal Ales", "addr": "990 Metropolitan Ave, BROOKLYN, None, 11215, United States", "phone": "9175884084", "web": "GrimmAles.com", "lat": 290784.3002692943, "long": 1734523.7837160453, "from_id": 10458, "to_id": 6751, "walk": 24.0, "bike": 10.0, "transit": 27.0 }, "geometry": { "type": "Point", "coordinates": [ -73.936523, 40.714266 ] } },
{ "type": "Feature", "properties": { "id": 7273, "name": "18th Ward Brewing", "addr": "300 Richardson Street, Brooklyn, New York, 11222, United States", "phone": "(718) 387-4025", "web": "/www.18thwardbrewing.com", "lat": 291290.61561088869, "long": 1734147.4759335187, "from_id": 10458, "to_id": 7273, "walk": 15.0, "bike": 5.0, "transit": 21.0 }, "geometry": { "type": "Point", "coordinates": [ -73.939592, 40.719506 ] } },
{ "type": "Feature", "properties": { "id": 10458, "name": "Keg & Lantern Brewing Co", "addr": "97 Nassau Ave, Brooklyn, New York, 11222-3081, United States", "phone": "(718) 389-5050", "web": "www.kegandlanternbrooklyn.com", "lat": 291582.25083611888, "long": 1733193.7713318802, "from_id": 10458, "to_id": 10458, "walk": 0.0, "bike": 0.0, "transit": 0.0 }, "geometry": { "type": "Point", "coordinates": [ -73.950372, 40.724118 ] } },
{ "type": "Feature", "properties": { "id": 11045, "name": "Other Half Brewing Company - Domino Park", "addr": "34 River St, Brooklyn, New York, 11249, United States", "phone": null, "web": "www.otherhalfbrewing.com/location/domino-park", "lat": 290484.87157256616, "long": 1732182.8792024758, "from_id": 10458, "to_id": 11045, "walk": 22.0, "bike": 8.0, "transit": 26.0 }, "geometry": { "type": "Point", "coordinates": [ -73.966052, 40.71671 ] } },
{ "type": "Feature", "properties": { "id": 13079, "name": "Greenpoint Beer", "addr": "1150 Manhattan Ave, Brooklyn, New York, 11222, United States", "phone": "(917) 750-1541", "web": "www.greenpointbeer.com", "lat": 292952.60568343103, "long": 1732463.5267148733, "from_id": 10458, "to_id": 13079, "walk": 20.0, "bike": 7.0, "transit": 18.0 }, "geometry": { "type": "Point", "coordinates": [ -73.955158, 40.737676 ] } },
{ "type": "Feature", "properties": { "id": 15634, "name": "Brooklyn Brewery", "addr": "79 N 11th St, Brooklyn, New York, 11249-1913, United States", "phone": "(718) 486-7422", "web": "www.brooklynbrewery.com", "lat": 291183.28758370428, "long": 1732686.9931418435, "from_id": 10458, "to_id": 15634, "walk": 9.0, "bike": 6.0, "transit": 13.0 }, "geometry": { "type": "Point", "coordinates": [ -73.957776, 40.721726 ] } },
{ "type": "Feature", "properties": { "id": 17750, "name": "Randolph Beer", "addr": "104 South 4th St, Brooklyn, New York, 11249, United States", "phone": null, "web": null, "lat": 290028.47981856612, "long": 1732466.2058797013, "from_id": 10458, "to_id": 17750, "walk": 22.0, "bike": 8.0, "transit": 22.0 }, "geometry": { "type": "Point", "coordinates": [ -73.963967, 40.712108 ] } },
{ "type": "Feature", "properties": { "id": 17791, "name": "Interboro Spirits And Ales", "addr": "942 Grand St, Brooklyn, New York, 11211-2707, United States", "phone": "(646) 245-5417", "web": "www.interboro.nyc", "lat": 290596.83002212469, "long": 1734538.6966817921, "from_id": 10458, "to_id": 17791, "walk": 26.0, "bike": 10.0, "transit": 24.0 }, "geometry": { "type": "Point", "coordinates": [ -73.936908, 40.712595 ] } },
{ "type": "Feature", "properties": { "id": 17862, "name": "TALEA Beer Co", "addr": "87 Richardston St, Brooklyn, New York, 11211, United States", "phone": "(415) 713-8998", "web": "www.taleabeer.com", "lat": 291037.94952922076, "long": 1733507.7485732816, "from_id": 10458, "to_id": 17862, "walk": 8.0, "bike": 5.0, "transit": 11.0 }, "geometry": { "type": "Point", "coordinates": [ -73.948179, 40.718681 ] } },
{ "type": "Feature", "properties": { "id": 20618, "name": "Randolph Beer", "addr": "104 South 4th St, Brooklyn, New York, 11249, United States", "phone": null, "web": null, "lat": 290028.47981856612, "long": 1732466.2058797013, "from_id": 10458, "to_id": 20618, "walk": 22.0, "bike": 8.0, "transit": 22.0 }, "geometry": { "type": "Point", "coordinates": [ -73.963967, 40.712108 ] } },
{ "type": "Feature", "properties": { "id": 10459, "name": "Keg & Lantern Brewing Red Hook", "addr": "158 Beard St, Brooklyn, New York, 11231, United States", "phone": "(718) 852-3692", "web": "www.kegandlanternbrooklyn.com/redhook", "lat": 285118.66051937215, "long": 1729439.2976076086, "from_id": 10459, "to_id": 10459, "walk": 0.0, "bike": 0.0, "transit": 0.0 }, "geometry": { "type": "Point", "coordinates": [ -74.015789, 40.675717 ] } },
{ "type": "Feature", "properties": { "id": 11043, "name": "Other Half Brewing Company", "addr": "191 Centre St, Brooklyn, New York, 11231-3907, United States", "phone": "(917) 765-6107", "web": "www.otherhalfbrewing.com", "lat": 285240.08533893566, "long": 1730769.7904902208, "from_id": 10459, "to_id": 11043, "walk": 22.0, "bike": 11.0, "transit": 22.0 }, "geometry": { "type": "Point", "coordinates": [ -73.999162, 40.673909 ] } },
{ "type": "Feature", "properties": { "id": 18433, "name": "Sixpoint Brewery", "addr": "40 Van Dyke St, Brooklyn, New York, 11231-1529, United States", "phone": "(347) 227-8676", "web": "www.sixpoint.com", "lat": 285010.70783012174, "long": 1729786.7368502163, "from_id": 10459, "to_id": 18433, "walk": 5.0, "bike": 5.0, "transit": 8.0 }, "geometry": { "type": "Point", "coordinates": [ -74.011868, 40.674024 ] } },
{ "type": "Feature", "properties": { "id": 6063, "name": "Threes Brewing", "addr": "333 Douglass St, Brooklyn, New York, 11217-3115, United States", "phone": "(718) 522-2110", "web": "www.threesbrewing.com", "lat": 286191.79191558366, "long": 1731924.9971514039, "from_id": 10472, "to_id": 6063, "walk": 5.0, "bike": 8.0, "transit": 7.0 }, "geometry": { "type": "Point", "coordinates": [ -73.982172, 40.679736 ] } },
{ "type": "Feature", "properties": { "id": 10472, "name": "Strong Rope Brewery", "addr": "574A President St, Brooklyn, New York, 11215-1019, United States", "phone": "(585) 703-3010", "web": "www.strongropebrewery.com", "lat": 285837.96054940391, "long": 1731849.8022537499, "from_id": 10472, "to_id": 10472, "walk": 0.0, "bike": 1.0, "transit": 0.0 }, "geometry": { "type": "Point", "coordinates": [ -73.984159, 40.676805 ] } },
{ "type": "Feature", "properties": { "id": 11043, "name": "Other Half Brewing Company", "addr": "191 Centre St, Brooklyn, New York, 11231-3907, United States", "phone": "(917) 765-6107", "web": "www.otherhalfbrewing.com", "lat": 285240.08533893566, "long": 1730769.7904902208, "from_id": 10472, "to_id": 11043, "walk": 23.0, "bike": 14.0, "transit": 23.0 }, "geometry": { "type": "Point", "coordinates": [ -73.999162, 40.673909 ] } },
{ "type": "Feature", "properties": { "id": 11778, "name": "KelSo Beer Company", "addr": "529 Waverly Ave, Brooklyn, New York, 11238-2701, United States", "phone": null, "web": "www.kelsoofbrooklyn.com", "lat": 286822.19656536914, "long": 1733128.282930051, "from_id": 10472, "to_id": 11778, "walk": 28.0, "bike": 11.0, "transit": 27.0 }, "geometry": { "type": "Point", "coordinates": [ -73.965562, 40.682648 ] } },
{ "type": "Feature", "properties": { "id": 12556, "name": "Finback Brooklyn", "addr": "545 President St, Brooklyn, New York, 11215, United States", "phone": "(347) 227-8008", "web": null, "lat": 285903.29349897167, "long": 1731785.9645614917, "from_id": 10472, "to_id": 12556, "walk": 2.0, "bike": 4.0, "transit": 3.0 }, "geometry": { "type": "Point", "coordinates": [ -73.984742, 40.677514 ] } },
{ "type": "Feature", "properties": { "id": 14260, "name": "Wild East Brewing Co.", "addr": "623 Sackett St, Brooklyn, New York, 11217-3116, United States", "phone": "718-797-5135", "web": "www.wildeastbrewing.com", "lat": 286055.44654308492, "long": 1731862.9401824442, "from_id": 10472, "to_id": 14260, "walk": 4.0, "bike": 5.0, "transit": 5.0 }, "geometry": { "type": "Point", "coordinates": [ -73.983342, 40.678678 ] } },
{ "type": "Feature", "properties": { "id": 15825, "name": "Circa Brewing Co", "addr": "141 Lawrence St, Brooklyn, None, 11201, United States", "phone": "(718) 858-0055", "web": "www.circabrewing.co", "lat": 287404.19103697268, "long": 1731309.6191341702, "from_id": 10472, "to_id": 15825, "walk": 26.0, "bike": 11.0, "transit": 15.0 }, "geometry": { "type": "Point", "coordinates": [ -73.986034, 40.691664 ] } },
{ "type": "Feature", "properties": { "id": 17836, "name": "Back Home Beer", "addr": "633 Union Street, Unit 1, Brooklyn, New York, 11215, United States", "phone": "(917) 817-9313", "web": "www.backhomebeer.com", "lat": 285976.37575338513, "long": 1731821.5921587087, "from_id": 10472, "to_id": 17836, "walk": 3.0, "bike": 4.0, "transit": 4.0 }, "geometry": { "type": "Point", "coordinates": [ -73.984086, 40.678076 ] } },
{ "type": "Feature", "properties": { "id": 10644, "name": "Endless Life Brewing", "addr": "585 Franklin Avenue, Brooklyn, New York, 11238, United States", "phone": "(646) 593-0741", "web": "www.EndlessLifeBrewing.com", "lat": 286577.77986865031, "long": 1734062.1106455384, "from_id": 10644, "to_id": 10644, "walk": 0.0, "bike": 0.0, "transit": 0.0 }, "geometry": { "type": "Point", "coordinates": [ -73.954888, 40.678493 ] } },
{ "type": "Feature", "properties": { "id": 11778, "name": "KelSo Beer Company", "addr": "529 Waverly Ave, Brooklyn, New York, 11238-2701, United States", "phone": null, "web": "www.kelsoofbrooklyn.com", "lat": 286822.19656536914, "long": 1733128.282930051, "from_id": 10644, "to_id": 11778, "walk": 13.0, "bike": 7.0, "transit": 15.0 }, "geometry": { "type": "Point", "coordinates": [ -73.965562, 40.682648 ] } },
{ "type": "Feature", "properties": { "id": 14795, "name": "Dyke Beer", "addr": "1255 Park Place, Brooklyn, New York, 11213, United States", "phone": "(617) 913-3881", "web": null, "lat": 286339.57325960282, "long": 1735695.047173783, "from_id": 10644, "to_id": 14795, "walk": 26.0, "bike": 10.0, "transit": 28.0 }, "geometry": { "type": "Point", "coordinates": [ -73.935654, 40.672879 ] } },
{ "type": "Feature", "properties": { "id": 6857, "name": "Yale Terrace Brewery", "addr": "26 Eastman St, Cranford, New Jersey, 07016, United States", "phone": "(973) 996-8601", "web": "www.ytbrewery.com", "lat": 277520.52306068724, "long": 1707589.7149311756, "from_id": 10662, "to_id": 6857, "walk": 26.0, "bike": 19.0, "transit": null }, "geometry": { "type": "Point", "coordinates": [ -74.305651, 40.656062 ] } },
{ "type": "Feature", "properties": { "id": 10662, "name": "Climax Brewing Co", "addr": "112 Valley Rd, Roselle Park, New Jersey, 07204-1402, United States", "phone": "(908) 620-9585", "web": "www.climaxbrewing.com", "lat": 278341.90622072085, "long": 1709242.8795218482, "from_id": 10662, "to_id": 10662, "walk": 0.0, "bike": 0.0, "transit": 0.0 }, "geometry": { "type": "Point", "coordinates": [ -74.282992, 40.659729 ] } },
{ "type": "Feature", "properties": { "id": 4482, "name": "Sean McGoldrick Household", "addr": "43 Herbert St, Brooklyn, NY 11222, Brooklyn, None, 11206, United States", "phone": null, "web": null, "lat": 289377.25279891567, "long": 1734415.8369710131, "from_id": 10722, "to_id": 4482, "walk": 23.0, "bike": 10.0, "transit": 22.0 }, "geometry": { "type": "Point", "coordinates": [ -73.9421, 40.7022 ] } },
{ "type": "Feature", "properties": { "id": 6751, "name": "Grimm Artisanal Ales", "addr": "990 Metropolitan Ave, BROOKLYN, None, 11215, United States", "phone": "9175884084", "web": "GrimmAles.com", "lat": 290784.3002692943, "long": 1734523.7837160453, "from_id": 10722, "to_id": 6751, "walk": 22.0, "bike": 9.0, "transit": 18.0 }, "geometry": { "type": "Point", "coordinates": [ -73.936523, 40.714266 ] } },
{ "type": "Feature", "properties": { "id": 10429, "name": "Queens Brewery", "addr": "1539 Covert St, Ridgewood, New York, 11385-5356, United States", "phone": "(646) 265-2049", "web": "www.queensbrewery.com", "lat": 289322.5995572402, "long": 1737519.1053057357, "from_id": 10722, "to_id": 10429, "walk": 28.0, "bike": 10.0, "transit": 13.0 }, "geometry": { "type": "Point", "coordinates": [ -73.904333, 40.695004 ] } },
{ "type": "Feature", "properties": { "id": 10722, "name": "Kings County Brewers Collective", "addr": "381 Troutman St, Brooklyn, New York, 11237-2613, United States", "phone": "(718) 288-2891", "web": "www.kcbcbeer.com", "lat": 290146.12535900588, "long": 1735729.5751323786, "from_id": 10722, "to_id": 10722, "walk": 0.0, "bike": 1.0, "transit": 0.0 }, "geometry": { "type": "Point", "coordinates": [ -73.923713, 40.706078 ] } },
{ "type": "Feature", "properties": { "id": 12073, "name": "Bridge And Tunnel Brewery", "addr": "1535 Decatur St, Ridgewood, New York, 11385-5818, United States", "phone": "(347) 392-8593", "web": "www.bridgeandtunnelbrewery.com", "lat": 289223.01058464998, "long": 1737666.1144721177, "from_id": 10722, "to_id": 12073, "walk": 30.0, "bike": 11.0, "transit": 15.0 }, "geometry": { "type": "Point", "coordinates": [ -73.902838, 40.693815 ] } },
{ "type": "Feature", "properties": { "id": 13419, "name": "Non Sequitur Beer Project", "addr": "8 Wilson Ave, Brooklyn, New York, 11206, United States", "phone": null, "web": "www.nonsequiturbeer.com", "lat": 289730.66476680723, "long": 1735241.4361552291, "from_id": 10722, "to_id": 13419, "walk": 9.0, "bike": 5.0, "transit": 13.0 }, "geometry": { "type": "Point", "coordinates": [ -73.930938, 40.703503 ] } },
{ "type": "Feature", "properties": { "id": 16637, "name": "Evil Twin Brewing", "addr": "1616 George St, Ridgewood, New York, 11385, United States", "phone": "(718) 366-1850", "web": "www.eviltwin.nyc", "lat": 289488.56220051646, "long": 1737512.0003847957, "from_id": 10722, "to_id": 16637, "walk": 26.0, "bike": 10.0, "transit": 12.0 }, "geometry": { "type": "Point", "coordinates": [ -73.903917, 40.69647 ] } },
{ "type": "Feature", "properties": { "id": 17791, "name": "Interboro Spirits And Ales", "addr": "942 Grand St, Brooklyn, New York, 11211-2707, United States", "phone": "(646) 245-5417", "web": "www.interboro.nyc", "lat": 290596.83002212469, "long": 1734538.6966817921, "from_id": 10722, "to_id": 17791, "walk": 22.0, "bike": 9.0, "transit": 15.0 }, "geometry": { "type": "Point", "coordinates": [ -73.936908, 40.712595 ] } },
{ "type": "Feature", "properties": { "id": 10870, "name": "Coney Island Beer", "addr": "1904 Surf Ave, Brooklyn, New York, 11224-2410, United States", "phone": "(818) 451-8452", "web": "www.coneyislandbeer.com", "lat": 274734.48878146824, "long": 1734545.9499357436, "from_id": 10870, "to_id": 10870, "walk": 0.0, "bike": 0.0, "transit": 0.0 }, "geometry": { "type": "Point", "coordinates": [ -73.98472, 40.573911 ] } },
{ "type": "Feature", "properties": { "id": 6063, "name": "Threes Brewing", "addr": "333 Douglass St, Brooklyn, New York, 11217-3115, United States", "phone": "(718) 522-2110", "web": "www.threesbrewing.com", "lat": 286191.79191558366, "long": 1731924.9971514039, "from_id": 11043, "to_id": 6063, "walk": 27.0, "bike": 18.0, "transit": 27.0 }, "geometry": { "type": "Point", "coordinates": [ -73.982172, 40.679736 ] } },
{ "type": "Feature", "properties": { "id": 10459, "name": "Keg & Lantern Brewing Red Hook", "addr": "158 Beard St, Brooklyn, New York, 11231, United States", "phone": "(718) 852-3692", "web": "www.kegandlanternbrooklyn.com/redhook", "lat": 285118.66051937215, "long": 1729439.2976076086, "from_id": 11043, "to_id": 10459, "walk": 22.0, "bike": 10.0, "transit": 21.0 }, "geometry": { "type": "Point", "coordinates": [ -74.015789, 40.675717 ] } },
{ "type": "Feature", "properties": { "id": 10472, "name": "Strong Rope Brewery", "addr": "574A President St, Brooklyn, New York, 11215-1019, United States", "phone": "(585) 703-3010", "web": "www.strongropebrewery.com", "lat": 285837.96054940391, "long": 1731849.8022537499, "from_id": 11043, "to_id": 10472, "walk": 23.0, "bike": 15.0, "transit": 24.0 }, "geometry": { "type": "Point", "coordinates": [ -73.984159, 40.676805 ] } },
{ "type": "Feature", "properties": { "id": 11043, "name": "Other Half Brewing Company", "addr": "191 Centre St, Brooklyn, New York, 11231-3907, United States", "phone": "(917) 765-6107", "web": "www.otherhalfbrewing.com", "lat": 285240.08533893566, "long": 1730769.7904902208, "from_id": 11043, "to_id": 11043, "walk": 0.0, "bike": 1.0, "transit": 0.0 }, "geometry": { "type": "Point", "coordinates": [ -73.999162, 40.673909 ] } },
{ "type": "Feature", "properties": { "id": 12556, "name": "Finback Brooklyn", "addr": "545 President St, Brooklyn, New York, 11215, United States", "phone": "(347) 227-8008", "web": null, "lat": 285903.29349897167, "long": 1731785.9645614917, "from_id": 11043, "to_id": 12556, "walk": 22.0, "bike": 17.0, "transit": 25.0 }, "geometry": { "type": "Point", "coordinates": [ -73.984742, 40.677514 ] } },
{ "type": "Feature", "properties": { "id": 14260, "name": "Wild East Brewing Co.", "addr": "623 Sackett St, Brooklyn, New York, 11217-3116, United States", "phone": "718-797-5135", "web": "www.wildeastbrewing.com", "lat": 286055.44654308492, "long": 1731862.9401824442, "from_id": 11043, "to_id": 14260, "walk": 25.0, "bike": 16.0, "transit": 25.0 }, "geometry": { "type": "Point", "coordinates": [ -73.983342, 40.678678 ] } },
{ "type": "Feature", "properties": { "id": 15825, "name": "Circa Brewing Co", "addr": "141 Lawrence St, Brooklyn, None, 11201, United States", "phone": "(718) 858-0055", "web": "www.circabrewing.co", "lat": 287404.19103697268, "long": 1731309.6191341702, "from_id": 11043, "to_id": 15825, "walk": 30.0, "bike": 17.0, "transit": 20.0 }, "geometry": { "type": "Point", "coordinates": [ -73.986034, 40.691664 ] } },
{ "type": "Feature", "properties": { "id": 17659, "name": "Big Alice Barrel Room", "addr": "52 34th St, Brooklyn, New York, 11232, United States", "phone": "(347) 688-2337", "web": null, "lat": 283306.15338605881, "long": 1730637.5545199327, "from_id": 11043, "to_id": 17659, "walk": 29.0, "bike": null, "transit": null }, "geometry": { "type": "Point", "coordinates": [ -74.006609, 40.657286 ] } },
{ "type": "Feature", "properties": { "id": 17836, "name": "Back Home Beer", "addr": "633 Union Street, Unit 1, Brooklyn, New York, 11215, United States", "phone": "(917) 817-9313", "web": "www.backhomebeer.com", "lat": 285976.37575338513, "long": 1731821.5921587087, "from_id": 11043, "to_id": 17836, "walk": 23.0, "bike": 16.0, "transit": 24.0 }, "geometry": { "type": "Point", "coordinates": [ -73.984086, 40.678076 ] } },
{ "type": "Feature", "properties": { "id": 18433, "name": "Sixpoint Brewery", "addr": "40 Van Dyke St, Brooklyn, New York, 11231-1529, United States", "phone": "(347) 227-8676", "web": "www.sixpoint.com", "lat": 285010.70783012174, "long": 1729786.7368502163, "from_id": 11043, "to_id": 18433, "walk": 16.0, "bike": 9.0, "transit": 14.0 }, "geometry": { "type": "Point", "coordinates": [ -74.011868, 40.674024 ] } },
{ "type": "Feature", "properties": { "id": 20666, "name": "Big Alice Barrel Room", "addr": "52 34th St, Brooklyn, New York, 11232, United States", "phone": "(347) 688-2337", "web": null, "lat": 283306.15338605881, "long": 1730637.5545199327, "from_id": 11043, "to_id": 20666, "walk": 29.0, "bike": null, "transit": null }, "geometry": { "type": "Point", "coordinates": [ -74.006609, 40.657286 ] } },
{ "type": "Feature", "properties": { "id": 4840, "name": "Atmosphere Brewery", "addr": "221 Banker Street, Brooklyn, New York, 11222, United States", "phone": "9174074102", "web": "www.atmospherebrewery.com", "lat": 291650.56264380913, "long": 1732751.6686490071, "from_id": 11045, "to_id": 4840, "walk": 18.0, "bike": 8.0, "transit": 25.0 }, "geometry": { "type": "Point", "coordinates": [ -73.955572, 40.725671 ] } },
{ "type": "Feature", "properties": { "id": 10458, "name": "Keg & Lantern Brewing Co", "addr": "97 Nassau Ave, Brooklyn, New York, 11222-3081, United States", "phone": "(718) 389-5050", "web": "www.kegandlanternbrooklyn.com", "lat": 291582.25083611888, "long": 1733193.7713318802, "from_id": 11045, "to_id": 10458, "walk": 22.0, "bike": 8.0, "transit": 25.0 }, "geometry": { "type": "Point", "coordinates": [ -73.950372, 40.724118 ] } },
{ "type": "Feature", "properties": { "id": 11045, "name": "Other Half Brewing Company - Domino Park", "addr": "34 River St, Brooklyn, New York, 11249, United States", "phone": null, "web": "www.otherhalfbrewing.com/location/domino-park", "lat": 290484.87157256616, "long": 1732182.8792024758, "from_id": 11045, "to_id": 11045, "walk": 0.0, "bike": 0.0, "transit": 0.0 }, "geometry": { "type": "Point", "coordinates": [ -73.966052, 40.71671 ] } },
{ "type": "Feature", "properties": { "id": 12856, "name": "Transmitter Brewing", "addr": "141 Flushing Ave Bldg 77, Brooklyn, New York, 11205-1338, United States", "phone": "(646) 378-8529", "web": "www.transmitterbrew.com", "lat": 288383.49237107678, "long": 1732281.7405726011, "from_id": 11045, "to_id": 12856, "walk": 29.0, "bike": 16.0, "transit": null }, "geometry": { "type": "Point", "coordinates": [ -73.971193, 40.698126 ] } },
{ "type": "Feature", "properties": { "id": 15634, "name": "Brooklyn Brewery", "addr": "79 N 11th St, Brooklyn, New York, 11249-1913, United States", "phone": "(718) 486-7422", "web": "www.brooklynbrewery.com", "lat": 291183.28758370428, "long": 1732686.9931418435, "from_id": 11045, "to_id": 15634, "walk": 13.0, "bike": 7.0, "transit": 17.0 }, "geometry": { "type": "Point", "coordinates": [ -73.957776, 40.721726 ] } },
{ "type": "Feature", "properties": { "id": 17750, "name": "Randolph Beer", "addr": "104 South 4th St, Brooklyn, New York, 11249, United States", "phone": null, "web": null, "lat": 290028.47981856612, "long": 1732466.2058797013, "from_id": 11045, "to_id": 17750, "walk": 9.0, "bike": 3.0, "transit": 13.0 }, "geometry": { "type": "Point", "coordinates": [ -73.963967, 40.712108 ] } },
{ "type": "Feature", "properties": { "id": 17862, "name": "TALEA Beer Co", "addr": "87 Richardston St, Brooklyn, New York, 11211, United States", "phone": "(415) 713-8998", "web": "www.taleabeer.com", "lat": 291037.94952922076, "long": 1733507.7485732816, "from_id": 11045, "to_id": 17862, "walk": 23.0, "bike": 10.0, "transit": 27.0 }, "geometry": { "type": "Point", "coordinates": [ -73.948179, 40.718681 ] } },
{ "type": "Feature", "properties": { "id": 20618, "name": "Randolph Beer", "addr": "104 South 4th St, Brooklyn, New York, 11249, United States", "phone": null, "web": null, "lat": 290028.47981856612, "long": 1732466.2058797013, "from_id": 11045, "to_id": 20618, "walk": 9.0, "bike": 3.0, "transit": 13.0 }, "geometry": { "type": "Point", "coordinates": [ -73.963967, 40.712108 ] } },
{ "type": "Feature", "properties": { "id": 11358, "name": "Ghost Hawk Brewing Company", "addr": "321 River Rd Unit 6, Clifton, New Jersey, 07014, United States", "phone": "(973) 259-6037", "web": "www.ghosthawkbrewing.com", "lat": 299358.11242905725, "long": 1716995.4639181893, "from_id": 11358, "to_id": 11358, "walk": 0.0, "bike": 0.0, "transit": 0.0 }, "geometry": { "type": "Point", "coordinates": [ -74.125218, 40.826996 ] } },
{ "type": "Feature", "properties": { "id": 2111, "name": "Bronx Brewery Hudson Yards", "addr": "20 Hudson Yards, New York, New York, 10001, United States", "phone": null, "web": "thebronxbrewery.com/hudson-yards-location-2", "lat": 293746.69581476023, "long": 1729509.167468146, "from_id": 11534, "to_id": 2111, "walk": 12.0, "bike": 5.0, "transit": 12.0 }, "geometry": { "type": "Point", "coordinates": [ -73.9889, 40.751 ] } },
{ "type": "Feature", "properties": { "id": 4989, "name": "The Bronx Brewery East Village", "addr": "64 2nd Ave, New York, New York, 10003, United States", "phone": "(718) 402-1000", "web": null, "lat": 291024.89219297952, "long": 1730146.4474096783, "from_id": 11534, "to_id": 4989, "walk": 26.0, "bike": 16.0, "transit": 22.0 }, "geometry": { "type": "Point", "coordinates": [ -73.989325, 40.725829 ] } },
{ "type": "Feature", "properties": { "id": 9729, "name": "Radiant Pig Craft Beers", "addr": "122 W 27th St Fl 10, New York, New York, 10001-6227, United States", "phone": null, "web": null, "lat": 293114.76166702481, "long": 1729386.0655381647, "from_id": 11534, "to_id": 9729, "walk": 6.0, "bike": 4.0, "transit": 9.0 }, "geometry": { "type": "Point", "coordinates": [ -73.992315, 40.745741 ] } },
{ "type": "Feature", "properties": { "id": 11534, "name": "Birreria @ Eataly", "addr": "200 5th Ave Fl 14, New York, New York, 10010-3302, United States", "phone": "(212) 539-0204", "web": "www.eatalyny.com", "lat": 292869.07266422873, "long": 1729731.2523939349, "from_id": 11534, "to_id": 11534, "walk": 0.0, "bike": 0.0, "transit": 0.0 }, "geometry": { "type": "Point", "coordinates": [ -73.988834, 40.742848 ] } },
{ "type": "Feature", "properties": { "id": 12381, "name": "Death Avenue", "addr": "315 10th Ave, New York, New York, 10001-1416, United States", "phone": "(212) 695-8080", "web": "www.deathave.com", "lat": 293509.98054739099, "long": 1728490.8251980385, "from_id": 11534, "to_id": 12381, "walk": 19.0, "bike": 10.0, "transit": 23.0 }, "geometry": { "type": "Point", "coordinates": [ -74.002075, 40.751128 ] } },
{ "type": "Feature", "properties": { "id": 13244, "name": "Heartland Brewery (# 2)", "addr": "1285 6th Ave Fl CONC1, New York, New York, 10019-6086, United States", "phone": "(212) 582-8244", "web": "www.heartlandbrewery.com/", "lat": 295001.32752627868, "long": 1729882.7099410843, "from_id": 11534, "to_id": 13244, "walk": 28.0, "bike": 21.0, "transit": 20.0 }, "geometry": { "type": "Point", "coordinates": [ -73.980538, 40.761162 ] } },
{ "type": "Feature", "properties": { "id": 16608, "name": "Toast Ale", "addr": "601 W 26th St Ste 325-291, New York, New York, 10001-1101, United States", "phone": "(916) 202-3851", "web": "www.toastale.com/us", "lat": 293474.38705177268, "long": 1728133.3112055443, "from_id": 11534, "to_id": 16608, "walk": 22.0, "bike": 10.0, "transit": 23.0 }, "geometry": { "type": "Point", "coordinates": [ -74.006557, 40.751588 ] } },
{ "type": "Feature", "properties": { "id": 19706, "name": "Torch & Crown Brewing Company", "addr": "12 Vandam St, New York, New York, 10013-1214, United States", "phone": "(201) 452-4196", "web": "www.torchandcrown.com", "lat": 290781.05240979855, "long": 1728981.4640153444, "from_id": 11534, "to_id": 19706, "walk": 29.0, "bike": 16.0, "transit": 18.0 }, "geometry": { "type": "Point", "coordinates": [ -74.00431, 40.726211 ] } },
{ "type": "Feature", "properties": { "id": 5184, "name": "The Flagship Brewing Company", "addr": "40 Minthorne St, Staten Island, New York, 10301-3241, United States", "phone": "(718) 448-5284", "web": "www.flagshipbrewery.nyc", "lat": 279788.28852014366, "long": 1725847.4887266024, "from_id": 11567, "to_id": 5184, "walk": 11.0, "bike": 6.0, "transit": 11.0 }, "geometry": { "type": "Point", "coordinates": [ -74.075718, 40.636842 ] } },
{ "type": "Feature", "properties": { "id": 11567, "name": "Rubsam and Horrmann Brewing Company", "addr": "73 Wave St, Staten Island, New York, 10304, United States", "phone": "(623) 640-5371", "web": null, "lat": 279006.39502745698, "long": 1725917.0381654461, "from_id": 11567, "to_id": 11567, "walk": 0.0, "bike": 0.0, "transit": 0.0 }, "geometry": { "type": "Point", "coordinates": [ -74.077217, 40.629855 ] } },
{ "type": "Feature", "properties": { "id": 17979, "name": "Kills Boro Brewing Company", "addr": "60 Van Duzer St, Staten Island, New York, 10301-3226, United States", "phone": "(347) 277-8680", "web": "www.killsboro.com", "lat": 279702.7475633623, "long": 1725718.646535937, "from_id": 11567, "to_id": 17979, "walk": 11.0, "bike": 7.0, "transit": 13.0 }, "geometry": { "type": "Point", "coordinates": [ -74.077549, 40.636371 ] } },
{ "type": "Feature", "properties": { "id": 11591, "name": "Harlem Blue Beer", "addr": "2214 Frederick Douglass Blvd Ste 267, New York, New York, 10026-1123, United States", "phone": "(646) 284-1010", "web": "www.harlemblue.com", "lat": 300392.00947411841, "long": 1730742.5934332588, "from_id": 11591, "to_id": 11591, "walk": 0.0, "bike": 0.0, "transit": 0.0 }, "geometry": { "type": "Point", "coordinates": [ -73.953703, 40.806429 ] } },
{ "type": "Feature", "properties": { "id": 6063, "name": "Threes Brewing", "addr": "333 Douglass St, Brooklyn, New York, 11217-3115, United States", "phone": "(718) 522-2110", "web": "www.threesbrewing.com", "lat": 286191.79191558366, "long": 1731924.9971514039, "from_id": 11778, "to_id": 6063, "walk": 24.0, "bike": 11.0, "transit": 25.0 }, "geometry": { "type": "Point", "coordinates": [ -73.982172, 40.679736 ] } },
{ "type": "Feature", "properties": { "id": 10472, "name": "Strong Rope Brewery", "addr": "574A President St, Brooklyn, New York, 11215-1019, United States", "phone": "(585) 703-3010", "web": "www.strongropebrewery.com", "lat": 285837.96054940391, "long": 1731849.8022537499, "from_id": 11778, "to_id": 10472, "walk": 28.0, "bike": 11.0, "transit": 25.0 }, "geometry": { "type": "Point", "coordinates": [ -73.984159, 40.676805 ] } },
{ "type": "Feature", "properties": { "id": 10644, "name": "Endless Life Brewing", "addr": "585 Franklin Avenue, Brooklyn, New York, 11238, United States", "phone": "(646) 593-0741", "web": "www.EndlessLifeBrewing.com", "lat": 286577.77986865031, "long": 1734062.1106455384, "from_id": 11778, "to_id": 10644, "walk": 13.0, "bike": 9.0, "transit": 15.0 }, "geometry": { "type": "Point", "coordinates": [ -73.954888, 40.678493 ] } },
{ "type": "Feature", "properties": { "id": 11778, "name": "KelSo Beer Company", "addr": "529 Waverly Ave, Brooklyn, New York, 11238-2701, United States", "phone": null, "web": "www.kelsoofbrooklyn.com", "lat": 286822.19656536914, "long": 1733128.282930051, "from_id": 11778, "to_id": 11778, "walk": 0.0, "bike": 2.0, "transit": 0.0 }, "geometry": { "type": "Point", "coordinates": [ -73.965562, 40.682648 ] } },
{ "type": "Feature", "properties": { "id": 12556, "name": "Finback Brooklyn", "addr": "545 President St, Brooklyn, New York, 11215, United States", "phone": "(347) 227-8008", "web": null, "lat": 285903.29349897167, "long": 1731785.9645614917, "from_id": 11778, "to_id": 12556, "walk": 28.0, "bike": 13.0, "transit": 25.0 }, "geometry": { "type": "Point", "coordinates": [ -73.984742, 40.677514 ] } },
{ "type": "Feature", "properties": { "id": 12856, "name": "Transmitter Brewing", "addr": "141 Flushing Ave Bldg 77, Brooklyn, New York, 11205-1338, United States", "phone": "(646) 378-8529", "web": "www.transmitterbrew.com", "lat": 288383.49237107678, "long": 1732281.7405726011, "from_id": 11778, "to_id": 12856, "walk": 23.0, "bike": 11.0, "transit": 25.0 }, "geometry": { "type": "Point", "coordinates": [ -73.971193, 40.698126 ] } },
{ "type": "Feature", "properties": { "id": 14260, "name": "Wild East Brewing Co.", "addr": "623 Sackett St, Brooklyn, New York, 11217-3116, United States", "phone": "718-797-5135", "web": "www.wildeastbrewing.com", "lat": 286055.44654308492, "long": 1731862.9401824442, "from_id": 11778, "to_id": 14260, "walk": 26.0, "bike": 12.0, "transit": 25.0 }, "geometry": { "type": "Point", "coordinates": [ -73.983342, 40.678678 ] } },
{ "type": "Feature", "properties": { "id": 15825, "name": "Circa Brewing Co", "addr": "141 Lawrence St, Brooklyn, None, 11201, United States", "phone": "(718) 858-0055", "web": "www.circabrewing.co", "lat": 287404.19103697268, "long": 1731309.6191341702, "from_id": 11778, "to_id": 15825, "walk": 25.0, "bike": 14.0, "transit": 15.0 }, "geometry": { "type": "Point", "coordinates": [ -73.986034, 40.691664 ] } },
{ "type": "Feature", "properties": { "id": 17836, "name": "Back Home Beer", "addr": "633 Union Street, Unit 1, Brooklyn, New York, 11215, United States", "phone": "(917) 817-9313", "web": "www.backhomebeer.com", "lat": 285976.37575338513, "long": 1731821.5921587087, "from_id": 11778, "to_id": 17836, "walk": 27.0, "bike": 12.0, "transit": 24.0 }, "geometry": { "type": "Point", "coordinates": [ -73.984086, 40.678076 ] } },
{ "type": "Feature", "properties": { "id": 11870, "name": "Cork City Ale House", "addr": "239 Bloomfield Street, Hoboken, New Jersey, 7030, United States", "phone": null, "web": "http:\\\\www.corkcitypub.com", "lat": 291765.67491883307, "long": 1726575.766803191, "from_id": 11870, "to_id": 11870, "walk": 0.0, "bike": 0.0, "transit": 0.0 }, "geometry": { "type": "Point", "coordinates": [ -74.030769, 40.740006 ] } },
{ "type": "Feature", "properties": { "id": 12731, "name": "Hoboken Brewing Company", "addr": "66 Harrison St, Hoboken, New Jersey, 07030-6037, United States", "phone": null, "web": "www.hobokenbrewing.beer", "lat": 291362.79231586168, "long": 1725722.1597501056, "from_id": 11870, "to_id": 12731, "walk": 16.0, "bike": 6.0, "transit": 22.0 }, "geometry": { "type": "Point", "coordinates": [ -74.042427, 40.738322 ] } },
{ "type": "Feature", "properties": { "id": 11889, "name": "Five Boroughs Brewing Co", "addr": "215 47th St, Brooklyn, New York, 11220-1009, United States", "phone": "(718) 355-8575", "web": "www.fiveboroughs.com", "lat": 282439.93655795488, "long": 1730208.873593461, "from_id": 11889, "to_id": 11889, "walk": 0.0, "bike": 1.0, "transit": 0.0 }, "geometry": { "type": "Point", "coordinates": [ -74.014457, 40.650637 ] } },
{ "type": "Feature", "properties": { "id": 17659, "name": "Big Alice Barrel Room", "addr": "52 34th St, Brooklyn, New York, 11232, United States", "phone": "(347) 688-2337", "web": null, "lat": 283306.15338605881, "long": 1730637.5545199327, "from_id": 11889, "to_id": 17659, "walk": 14.0, "bike": 8.0, "transit": 19.0 }, "geometry": { "type": "Point", "coordinates": [ -74.006609, 40.657286 ] } },
{ "type": "Feature", "properties": { "id": 20666, "name": "Big Alice Barrel Room", "addr": "52 34th St, Brooklyn, New York, 11232, United States", "phone": "(347) 688-2337", "web": null, "lat": 283306.15338605881, "long": 1730637.5545199327, "from_id": 11889, "to_id": 20666, "walk": 14.0, "bike": 8.0, "transit": 19.0 }, "geometry": { "type": "Point", "coordinates": [ -74.006609, 40.657286 ] } },
{ "type": "Feature", "properties": { "id": 10429, "name": "Queens Brewery", "addr": "1539 Covert St, Ridgewood, New York, 11385-5356, United States", "phone": "(646) 265-2049", "web": "www.queensbrewery.com", "lat": 289322.5995572402, "long": 1737519.1053057357, "from_id": 12073, "to_id": 10429, "walk": 4.0, "bike": 2.0, "transit": 6.0 }, "geometry": { "type": "Point", "coordinates": [ -73.904333, 40.695004 ] } },
{ "type": "Feature", "properties": { "id": 10722, "name": "Kings County Brewers Collective", "addr": "381 Troutman St, Brooklyn, New York, 11237-2613, United States", "phone": "(718) 288-2891", "web": "www.kcbcbeer.com", "lat": 290146.12535900588, "long": 1735729.5751323786, "from_id": 12073, "to_id": 10722, "walk": 30.0, "bike": 11.0, "transit": 14.0 }, "geometry": { "type": "Point", "coordinates": [ -73.923713, 40.706078 ] } },
{ "type": "Feature", "properties": { "id": 12073, "name": "Bridge And Tunnel Brewery", "addr": "1535 Decatur St, Ridgewood, New York, 11385-5818, United States", "phone": "(347) 392-8593", "web": "www.bridgeandtunnelbrewery.com", "lat": 289223.01058464998, "long": 1737666.1144721177, "from_id": 12073, "to_id": 12073, "walk": 0.0, "bike": 1.0, "transit": 0.0 }, "geometry": { "type": "Point", "coordinates": [ -73.902838, 40.693815 ] } },
{ "type": "Feature", "properties": { "id": 16637, "name": "Evil Twin Brewing", "addr": "1616 George St, Ridgewood, New York, 11385, United States", "phone": "(718) 366-1850", "web": "www.eviltwin.nyc", "lat": 289488.56220051646, "long": 1737512.0003847957, "from_id": 12073, "to_id": 16637, "walk": 6.0, "bike": 2.0, "transit": 8.0 }, "geometry": { "type": "Point", "coordinates": [ -73.903917, 40.69647 ] } },
{ "type": "Feature", "properties": { "id": 12091, "name": "Bright Eye Beer Co.", "addr": "50 West Park Avenue, Long Beach, New York, 11561, United States", "phone": "5165435736", "web": "www.brighteyebeerco.com", "lat": 282403.99258445698, "long": 1758785.0511017488, "from_id": 12091, "to_id": 12091, "walk": 0.0, "bike": 1.0, "transit": 0.0 }, "geometry": { "type": "Point", "coordinates": [ -73.665772, 40.588229 ] } },
{ "type": "Feature", "properties": { "id": 12164, "name": "Al's Drinks Company LLC", "addr": "3536 76th Street, Jackson Heights, New York, 12590, United States", "phone": "(347) 896-2447", "web": "www.drinkals.com", "lat": 295510.41829959175, "long": 1737131.4079286468, "from_id": 12164, "to_id": 12164, "walk": 0.0, "bike": 1.0, "transit": 0.0 }, "geometry": { "type": "Point", "coordinates": [ -73.890312, 40.749928 ] } },
{ "type": "Feature", "properties": { "id": 9161, "name": "Alewife Brewing", "addr": "41-11 39th Street, Queens, New York, 11104, United States", "phone": "(917) 238-2449", "web": "www.alewife.beer", "lat": 294522.17952227371, "long": 1734520.6972063349, "from_id": 12231, "to_id": 9161, "walk": 29.0, "bike": 17.0, "transit": 28.0 }, "geometry": { "type": "Point", "coordinates": [ -73.925243, 40.746946 ] } },
{ "type": "Feature", "properties": { "id": 9550, "name": "Alewife NYC", "addr": "5/14 51st Ave, Long Island City, New York, 11101, United States", "phone": "(917) 238-2449", "web": null, "lat": 294165.42383848823, "long": 1733378.1388370597, "from_id": 12231, "to_id": 9550, "walk": 14.0, "bike": 12.0, "transit": 19.0 }, "geometry": { "type": "Point", "coordinates": [ -73.9403, 40.7463 ] } },
{ "type": "Feature", "properties": { "id": 12231, "name": "Fifth Hammer Brewing Company", "addr": "1028 46th Ave, Long Island City, New York, 11101-5217, United States", "phone": "(718) 663-2084", "web": "www.fifthhammerbrewing.com", "lat": 293962.75390962081, "long": 1732507.1754980877, "from_id": 12231, "to_id": 12231, "walk": 0.0, "bike": 1.0, "transit": 0.0 }, "geometry": { "type": "Point", "coordinates": [ -73.951568, 40.746412 ] } },
{ "type": "Feature", "properties": { "id": 13079, "name": "Greenpoint Beer", "addr": "1150 Manhattan Ave, Brooklyn, New York, 11222, United States", "phone": "(917) 750-1541", "web": "www.greenpointbeer.com", "lat": 292952.60568343103, "long": 1732463.5267148733, "from_id": 12231, "to_id": 13079, "walk": 16.0, "bike": 12.0, "transit": 23.0 }, "geometry": { "type": "Point", "coordinates": [ -73.955158, 40.737676 ] } },
{ "type": "Feature", "properties": { "id": 16786, "name": "Iconyc Brewing Company", "addr": "43-63 11th St, Long Island City, New York, 11101, United States", "phone": null, "web": "www.iconycbrewing.com", "lat": 294422.72817411873, "long": 1732627.8328640377, "from_id": 12231, "to_id": 16786, "walk": 7.0, "bike": 10.0, "transit": 10.0 }, "geometry": { "type": "Point", "coordinates": [ -73.9487, 40.750172 ] } },
{ "type": "Feature", "properties": { "id": 17361, "name": "Rockaway Brewing Company", "addr": "4601 5th St, Long Island City, New York, 11101-5369, United States", "phone": "(718) 482-6528", "web": "www.rockawaybrewco.com", "lat": 293970.88839069178, "long": 1732240.8063310764, "from_id": 12231, "to_id": 17361, "walk": 3.0, "bike": 4.0, "transit": 5.0 }, "geometry": { "type": "Point", "coordinates": [ -73.954802, 40.747059 ] } },
{ "type": "Feature", "properties": { "id": 17660, "name": "Big aLICe Brewing Company", "addr": "808 43rd Rd, Long Island City, New York, 11101-6820, United States", "phone": "(347) 688-2337", "web": "www.bigalicebrewing.com", "lat": 294589.76805558533, "long": 1732431.3737488093, "from_id": 12231, "to_id": 17660, "walk": 9.0, "bike": 9.0, "transit": 13.0 }, "geometry": { "type": "Point", "coordinates": [ -73.950598, 40.752057 ] } },
{ "type": "Feature", "properties": { "id": 18573, "name": "LIC Beer Project", "addr": "3928 23rd St, Long Island City, New York, 11101-4817, United States", "phone": "(917) 832-6840", "web": "licbeerproject.com", "lat": 295156.54817061825, "long": 1733253.6673850997, "from_id": 12231, "to_id": 18573, "walk": 21.0, "bike": 16.0, "transit": 23.0 }, "geometry": { "type": "Point", "coordinates": [ -73.938822, 40.755233 ] } },
{ "type": "Feature", "properties": { "id": 20667, "name": "Big aLICe Brewing Company", "addr": "808 43rd Rd, Long Island City, New York, 11101-6820, United States", "phone": "(347) 688-2337", "web": "www.bigalicebrewing.com", "lat": 294589.76805558533, "long": 1732431.3737488093, "from_id": 12231, "to_id": 20667, "walk": 9.0, "bike": 9.0, "transit": 13.0 }, "geometry": { "type": "Point", "coordinates": [ -73.950598, 40.752057 ] } },
{ "type": "Feature", "properties": { "id": 21224, "name": "Iconyc Brewing Company", "addr": "43-63 11th St, Long Island City, New York, 11101, United States", "phone": null, "web": "www.iconycbrewing.com", "lat": 294422.72817411873, "long": 1732627.8328640377, "from_id": 12231, "to_id": 21224, "walk": 7.0, "bike": 10.0, "transit": 10.0 }, "geometry": { "type": "Point", "coordinates": [ -73.9487, 40.750172 ] } },
{ "type": "Feature", "properties": { "id": 2111, "name": "Bronx Brewery Hudson Yards", "addr": "20 Hudson Yards, New York, New York, 10001, United States", "phone": null, "web": "thebronxbrewery.com/hudson-yards-location-2", "lat": 293746.69581476023, "long": 1729509.167468146, "from_id": 12381, "to_id": 2111, "walk": 18.0, "bike": 14.0, "transit": 22.0 }, "geometry": { "type": "Point", "coordinates": [ -73.9889, 40.751 ] } },
{ "type": "Feature", "properties": { "id": 9729, "name": "Radiant Pig Craft Beers", "addr": "122 W 27th St Fl 10, New York, New York, 10001-6227, United States", "phone": null, "web": null, "lat": 293114.76166702481, "long": 1729386.0655381647, "from_id": 12381, "to_id": 9729, "walk": 13.0, "bike": 13.0, "transit": 18.0 }, "geometry": { "type": "Point", "coordinates": [ -73.992315, 40.745741 ] } },
{ "type": "Feature", "properties": { "id": 11534, "name": "Birreria @ Eataly", "addr": "200 5th Ave Fl 14, New York, New York, 10010-3302, United States", "phone": "(212) 539-0204", "web": "www.eatalyny.com", "lat": 292869.07266422873, "long": 1729731.2523939349, "from_id": 12381, "to_id": 11534, "walk": 19.0, "bike": 13.0, "transit": 26.0 }, "geometry": { "type": "Point", "coordinates": [ -73.988834, 40.742848 ] } },
{ "type": "Feature", "properties": { "id": 12381, "name": "Death Avenue", "addr": "315 10th Ave, New York, New York, 10001-1416, United States", "phone": "(212) 695-8080", "web": "www.deathave.com", "lat": 293509.98054739099, "long": 1728490.8251980385, "from_id": 12381, "to_id": 12381, "walk": 0.0, "bike": 1.0, "transit": 0.0 }, "geometry": { "type": "Point", "coordinates": [ -74.002075, 40.751128 ] } },
{ "type": "Feature", "properties": { "id": 16608, "name": "Toast Ale", "addr": "601 W 26th St Ste 325-291, New York, New York, 10001-1101, United States", "phone": "(916) 202-3851", "web": "www.toastale.com/us", "lat": 293474.38705177268, "long": 1728133.3112055443, "from_id": 12381, "to_id": 16608, "walk": 6.0, "bike": 9.0, "transit": 9.0 }, "geometry": { "type": "Point", "coordinates": [ -74.006557, 40.751588 ] } },
{ "type": "Feature", "properties": { "id": 12397, "name": "Departed Soles Brewing", "addr": "150 Bay Street, Commercial Side, Jersey City, New Jersey, 07302-2900, United States", "phone": "(201) 479-8578", "web": "www.departedsoles.com", "lat": 289521.42627790704, "long": 1726382.2508391791, "from_id": 12397, "to_id": 12397, "walk": 0.0, "bike": 0.0, "transit": 0.0 }, "geometry": { "type": "Point", "coordinates": [ -74.0399, 40.7208 ] } },
{ "type": "Feature", "properties": { "id": 12731, "name": "Hoboken Brewing Company", "addr": "66 Harrison St, Hoboken, New Jersey, 07030-6037, United States", "phone": null, "web": "www.hobokenbrewing.beer", "lat": 291362.79231586168, "long": 1725722.1597501056, "from_id": 12397, "to_id": 12731, "walk": 28.0, "bike": 15.0, "transit": null }, "geometry": { "type": "Point", "coordinates": [ -74.042427, 40.738322 ] } },
{ "type": "Feature", "properties": { "id": 13887, "name": "Anheuser-Busch Inc ? Newark", "addr": "30 MONTGOMERY ST STE 700, Jersey City, New Jersey, 07302-3841, United States", "phone": "(973) 645-7700", "web": "www.anheuser-busch.com", "lat": 289190.36441003141, "long": 1726843.4131546647, "from_id": 12397, "to_id": 13887, "walk": 9.0, "bike": 4.0, "transit": 13.0 }, "geometry": { "type": "Point", "coordinates": [ -74.035257, 40.716912 ] } },
{ "type": "Feature", "properties": { "id": 12555, "name": "Finback Brewery", "addr": "78-01 77th Ave, Queens, New York, 11385-7518, United States", "phone": "(718) 628-8600", "web": "www.finbackbrewery.com", "lat": 291198.35593332892, "long": 1739644.5335074617, "from_id": 12555, "to_id": 12555, "walk": 0.0, "bike": 0.0, "transit": 0.0 }, "geometry": { "type": "Point", "coordinates": [ -73.872667, 40.70679 ] } },
{ "type": "Feature", "properties": { "id": 6063, "name": "Threes Brewing", "addr": "333 Douglass St, Brooklyn, New York, 11217-3115, United States", "phone": "(718) 522-2110", "web": "www.threesbrewing.com", "lat": 286191.79191558366, "long": 1731924.9971514039, "from_id": 12556, "to_id": 6063, "walk": 6.0, "bike": 7.0, "transit": 8.0 }, "geometry": { "type": "Point", "coordinates": [ -73.982172, 40.679736 ] } },
{ "type": "Feature", "properties": { "id": 10472, "name": "Strong Rope Brewery", "addr": "574A President St, Brooklyn, New York, 11215-1019, United States", "phone": "(585) 703-3010", "web": "www.strongropebrewery.com", "lat": 285837.96054940391, "long": 1731849.8022537499, "from_id": 12556, "to_id": 10472, "walk": 2.0, "bike": 4.0, "transit": 3.0 }, "geometry": { "type": "Point", "coordinates": [ -73.984159, 40.676805 ] } },
{ "type": "Feature", "properties": { "id": 11043, "name": "Other Half Brewing Company", "addr": "191 Centre St, Brooklyn, New York, 11231-3907, United States", "phone": "(917) 765-6107", "web": "www.otherhalfbrewing.com", "lat": 285240.08533893566, "long": 1730769.7904902208, "from_id": 12556, "to_id": 11043, "walk": 22.0, "bike": 15.0, "transit": 24.0 }, "geometry": { "type": "Point", "coordinates": [ -73.999162, 40.673909 ] } },